{
  "type": "FeatureCollection",
  "features": [
    {
      "type": "Feature",
      "properties": {
        "type": "route_path",
        "route_code": "4003",
        "descr": "ΠΕΡΑΜΑ - ΠΕΙΡΑΙΑΣ"
      },
      "geometry": {
        "type": "LineString",
        "coordinates": [
          [
            23.55893,
            37.96375
          ],
          [
            23.55914,
            37.96377
          ],
          [
            23.5593,
            37.9638
          ],
          [
            23.55992,
            37.96384
          ],
          [
            23.56035,
            37.96396
          ],
          [
            23.5743,
            37.96272
          ],
          [
            23.57678,
            37.96219
          ],
          [
            23.57725,
            37.96214
          ],
          [
            23.58204,
            37.9622
          ],
          [
            23.5835,
            37.96267
          ],
          [
            23.58461,
            37.96288
          ],
          [
            23.5866,
            37.96264
          ],
          [
            23.58781,
            37.96267
          ],
          [
            23.58928,
            37.96255
          ],
          [
            23.59099,
            37.96224
          ],
          [
            23.59244,
            37.96216
          ],
          [
            23.59377,
            37.96231
          ],
          [
            23.59498,
            37.96227
          ],
          [
            23.59643,
            37.96204
          ],
          [
            23.59744,
            37.96204
          ],
          [
            23.5984,
            37.96214
          ],
          [
            23.59982,
            37.96207
          ],
          [
            23.60392,
            37.96246
          ],
          [
            23.60474,
            37.96251
          ],
          [
            23.60616,
            37.96231
          ],
          [
            23.60982,
            37.96222
          ],
          [
            23.61036,
            37.96215
          ],
          [
            23.61073,
            37.96203
          ],
          [
            23.61142,
            37.9617
          ],
          [
            23.61159,
            37.9616
          ],
          [
            23.61215,
            37.96101
          ],
          [
            23.61323,
            37.96022
          ],
          [
            23.61494,
            37.9594
          ],
          [
            23.61651,
            37.95905
          ],
          [
            23.618,
            37.95884
          ],
          [
            23.62212,
            37.95884
          ],
          [
            23.62305,
            37.95865
          ],
          [
            23.62329,
            37.95855
          ],
          [
            23.62387,
            37.9584
          ],
          [
            23.62415,
            37.95828
          ],
          [
            23.62628,
            37.9578
          ],
          [
            23.62654,
            37.95778
          ],
          [
            23.63315,
            37.9577
          ],
          [
            23.6338,
            37.95753
          ],
          [
            23.63388,
            37.95485
          ],
          [
            23.63382,
            37.95381
          ],
          [
            23.63383,
            37.95158
          ],
          [
            23.63387,
            37.95125
          ],
          [
            23.63387,
            37.95033
          ],
          [
            23.6338,
            37.94994
          ],
          [
            23.6338,
            37.94947
          ],
          [
            23.63407,
            37.94941
          ],
          [
            23.63519,
            37.9494
          ],
          [
            23.63517,
            37.94965
          ],
          [
            23.63521,
            37.95002
          ],
          [
            23.63519,
            37.95033
          ],
          [
            23.63555,
            37.9503
          ],
          [
            23.63563,
            37.95006
          ],
          [
            23.63577,
            37.94938
          ],
          [
            23.6359,
            37.94916
          ],
          [
            23.63616,
            37.94909
          ],
          [
            23.63704,
            37.94925
          ],
          [
            23.64072,
            37.94928
          ],
          [
            23.6417,
            37.94925
          ],
          [
            23.64194,
            37.94918
          ],
          [
            23.64223,
            37.94886
          ],
          [
            23.64224,
            37.9481
          ],
          [
            23.64221,
            37.94733
          ],
          [
            23.64221,
            37.94713
          ],
          [
            23.64219,
            37.94647
          ],
          [
            23.64215,
            37.94568
          ],
          [
            23.64228,
            37.94539
          ],
          [
            23.64308,
            37.94495
          ],
          [
            23.64361,
            37.94452
          ],
          [
            23.64371,
            37.944
          ],
          [
            23.64362,
            37.94342
          ],
          [
            23.64018,
            37.93935
          ],
          [
            23.63946,
            37.93883
          ],
          [
            23.63927,
            37.9385
          ],
          [
            23.6394,
            37.93779
          ],
          [
            23.6394,
            37.93727
          ],
          [
            23.63916,
            37.93718
          ],
          [
            23.63681,
            37.93681
          ],
          [
            23.63605,
            37.9369
          ],
          [
            23.63315,
            37.93837
          ],
          [
            23.63247,
            37.93852
          ]
        ]
      }
    },
    {
      "type": "Feature",
      "properties": {
        "type": "stop",
        "stop_code": "10278",
        "stop_id": "77",
        "name": "ΠΕΡΑΜΑ",
        "order": "1"
      },
      "geometry": {
        "type": "Point",
        "coordinates": [
          23.5587085,
          37.9639465
        ]
      }
    },
    {
      "type": "Feature",
      "properties": {
        "type": "stop",
        "stop_code": "410015",
        "stop_id": "410015",
        "name": "ΔΗΜΑΡΧΕΙΟ",
        "order": "2"
      },
      "geometry": {
        "type": "Point",
        "coordinates": [
          23.5632445,
          37.9635931
        ]
      }
    },
    {
      "type": "Feature",
      "properties": {
        "type": "stop",
        "stop_code": "410016",
        "stop_id": "410016",
        "name": "ΚΑΡΑΟΛΗ ΚΑΙ ΔΗΜΗΤΡΙΟΥ",
        "order": "3"
      },
      "geometry": {
        "type": "Point",
        "coordinates": [
          23.5662179,
          37.9632256
        ]
      }
    },
    {
      "type": "Feature",
      "properties": {
        "type": "stop",
        "stop_code": "410017",
        "stop_id": "410017",
        "name": "ΤΡΑΠΕΖΑ",
        "order": "4"
      },
      "geometry": {
        "type": "Point",
        "coordinates": [
          23.5678465,
          37.9631144
        ]
      }
    },
    {
      "type": "Feature",
      "properties": {
        "type": "stop",
        "stop_code": "410018",
        "stop_id": "410018",
        "name": "ΑΡΣΑΚΗ",
        "order": "5"
      },
      "geometry": {
        "type": "Point",
        "coordinates": [
          23.5696345,
          37.9629948
        ]
      }
    },
    {
      "type": "Feature",
      "properties": {
        "type": "stop",
        "stop_code": "410019",
        "stop_id": "410019",
        "name": "ΠΡΩΤΕΩΣ",
        "order": "6"
      },
      "geometry": {
        "type": "Point",
        "coordinates": [
          23.5722082,
          37.9628329
        ]
      }
    },
    {
      "type": "Feature",
      "properties": {
        "type": "stop",
        "stop_code": "410020",
        "stop_id": "410020",
        "name": "ΓΕΡΜ. ΣΚΑΛΑ",
        "order": "7"
      },
      "geometry": {
        "type": "Point",
        "coordinates": [
          23.5755351,
          37.9623493
        ]
      }
    },
    {
      "type": "Feature",
      "properties": {
        "type": "stop",
        "stop_code": "410021",
        "stop_id": "410021",
        "name": "ΠΛΑΖΑΚΗ",
        "order": "8"
      },
      "geometry": {
        "type": "Point",
        "coordinates": [
          23.5775975,
          37.9620142
        ]
      }
    },
    {
      "type": "Feature",
      "properties": {
        "type": "stop",
        "stop_code": "410064",
        "stop_id": "410064",
        "name": "ΠΑΝΑΓΙΩΤΗ ΣΑΛΠΕΑ",
        "order": "9"
      },
      "geometry": {
        "type": "Point",
        "coordinates": [
          23.5802663,
          37.9620408
        ]
      }
    },
    {
      "type": "Feature",
      "properties": {
        "type": "stop",
        "stop_code": "410022",
        "stop_id": "410022",
        "name": "ΣΙΔΕΡΑ",
        "order": "10"
      },
      "geometry": {
        "type": "Point",
        "coordinates": [
          23.5831733,
          37.9624307
        ]
      }
    },
    {
      "type": "Feature",
      "properties": {
        "type": "stop",
        "stop_code": "410024",
        "stop_id": "410024",
        "name": "BP",
        "order": "11"
      },
      "geometry": {
        "type": "Point",
        "coordinates": [
          23.5900065,
          37.9623574
        ]
      }
    },
    {
      "type": "Feature",
      "properties": {
        "type": "stop",
        "stop_code": "410025",
        "stop_id": "410025",
        "name": "ΠΛΑΚΟΥΔΑ",
        "order": "12"
      },
      "geometry": {
        "type": "Point",
        "coordinates": [
          23.5951239,
          37.9621756
        ]
      }
    },
    {
      "type": "Feature",
      "properties": {
        "type": "stop",
        "stop_code": "410050",
        "stop_id": "410050",
        "name": "ΗΡΩΩΝ ΠΟΛΥΤΕΧΝEΙΟΥ",
        "order": "13"
      },
      "geometry": {
        "type": "Point",
        "coordinates": [
          23.5974627,
          37.9619577
        ]
      }
    },
    {
      "type": "Feature",
      "properties": {
        "type": "stop",
        "stop_code": "410041",
        "stop_id": "410041",
        "name": "Τ.Ε.Ε",
        "order": "14"
      },
      "geometry": {
        "type": "Point",
        "coordinates": [
          23.5995918,
          37.9620285
        ]
      }
    },
    {
      "type": "Feature",
      "properties": {
        "type": "stop",
        "stop_code": "410026",
        "stop_id": "410026",
        "name": "ΑΣΤΥΝΟΜΙΑ",
        "order": "15"
      },
      "geometry": {
        "type": "Point",
        "coordinates": [
          23.603275,
          37.9623346
        ]
      }
    },
    {
      "type": "Feature",
      "properties": {
        "type": "stop",
        "stop_code": "410027",
        "stop_id": "410027",
        "name": "ΙΚΟΝΙΟΥ",
        "order": "16"
      },
      "geometry": {
        "type": "Point",
        "coordinates": [
          23.6056703,
          37.9623178
        ]
      }
    },
    {
      "type": "Feature",
      "properties": {
        "type": "stop",
        "stop_code": "260031",
        "stop_id": "260031",
        "name": "ΠΥΡΟΣΒΕΣΤΙΚΗ",
        "order": "17"
      },
      "geometry": {
        "type": "Point",
        "coordinates": [
          23.6095976,
          37.9621935
        ]
      }
    },
    {
      "type": "Feature",
      "properties": {
        "type": "stop",
        "stop_code": "260186",
        "stop_id": "260186",
        "name": "ΓΡ. ΛΑΜΠΡΑΚΗ",
        "order": "18"
      },
      "geometry": {
        "type": "Point",
        "coordinates": [
          23.6113751,
          37.9616906
        ]
      }
    },
    {
      "type": "Feature",
      "properties": {
        "type": "stop",
        "stop_code": "260122",
        "stop_id": "260122",
        "name": "ΑΓ. ΓΕΩΡΓΙΟΣ",
        "order": "19"
      },
      "geometry": {
        "type": "Point",
        "coordinates": [
          23.6151675,
          37.9592139
        ]
      }
    },
    {
      "type": "Feature",
      "properties": {
        "type": "stop",
        "stop_code": "260123",
        "stop_id": "260123",
        "name": "ΚΑΛΟΣΚΑΜΗ",
        "order": "20"
      },
      "geometry": {
        "type": "Point",
        "coordinates": [
          23.6188354,
          37.9587572
        ]
      }
    },
    {
      "type": "Feature",
      "properties": {
        "type": "stop",
        "stop_code": "260124",
        "stop_id": "260124",
        "name": "ΠΡΟΣΚΟΠΩΝ",
        "order": "21"
      },
      "geometry": {
        "type": "Point",
        "coordinates": [
          23.6212031,
          37.9587558
        ]
      }
    },
    {
      "type": "Feature",
      "properties": {
        "type": "stop",
        "stop_code": "260125",
        "stop_id": "260125",
        "name": "ΚΑΝΑΚΙΔΗ",
        "order": "22"
      },
      "geometry": {
        "type": "Point",
        "coordinates": [
          23.6236412,
          37.9583491
        ]
      }
    },
    {
      "type": "Feature",
      "properties": {
        "type": "stop",
        "stop_code": "260126",
        "stop_id": "260126",
        "name": "ΤΑΜΠΟΥΡΙΑ",
        "order": "23"
      },
      "geometry": {
        "type": "Point",
        "coordinates": [
          23.6256702,
          37.9578058
        ]
      }
    },
    {
      "type": "Feature",
      "properties": {
        "type": "stop",
        "stop_code": "400308",
        "stop_id": "400308",
        "name": "ΥΠΑΠΑΝΤΗΣ",
        "order": "24"
      },
      "geometry": {
        "type": "Point",
        "coordinates": [
          23.6297351,
          37.9575933
        ]
      }
    },
    {
      "type": "Feature",
      "properties": {
        "type": "stop",
        "stop_code": "400181",
        "stop_id": "400181",
        "name": "ΨΥΓΚΑ",
        "order": "25"
      },
      "geometry": {
        "type": "Point",
        "coordinates": [
          23.6334234,
          37.9575598
        ]
      }
    },
    {
      "type": "Feature",
      "properties": {
        "type": "stop",
        "stop_code": "400309",
        "stop_id": "400309",
        "name": "ΨΑΡΩΝ",
        "order": "26"
      },
      "geometry": {
        "type": "Point",
        "coordinates": [
          23.6335977,
          37.9568573
        ]
      }
    },
    {
      "type": "Feature",
      "properties": {
        "type": "stop",
        "stop_code": "400310",
        "stop_id": "400310",
        "name": "ΠΑΡΘΕΝΗ",
        "order": "27"
      },
      "geometry": {
        "type": "Point",
        "coordinates": [
          23.6336626,
          37.9552442
        ]
      }
    },
    {
      "type": "Feature",
      "properties": {
        "type": "stop",
        "stop_code": "400311",
        "stop_id": "400311",
        "name": "ΚΟΣΤΑΛ",
        "order": "28"
      },
      "geometry": {
        "type": "Point",
        "coordinates": [
          23.6336473,
          37.953739
        ]
      }
    },
    {
      "type": "Feature",
      "properties": {
        "type": "stop",
        "stop_code": "10815",
        "stop_id": "400515",
        "name": "ΑΝΑΠΑΥΣΕΩΣ",
        "order": "29"
      },
      "geometry": {
        "type": "Point",
        "coordinates": [
          23.6337204,
          37.9522408
        ]
      }
    },
    {
      "type": "Feature",
      "properties": {
        "type": "stop",
        "stop_code": "180024",
        "stop_id": "180024",
        "name": "ΣΩΚΡΑΤΟΥΣ",
        "order": "30"
      },
      "geometry": {
        "type": "Point",
        "coordinates": [
          23.6337234,
          37.9498637
        ]
      }
    },
    {
      "type": "Feature",
      "properties": {
        "type": "stop",
        "stop_code": "180015",
        "stop_id": "180015",
        "name": "ΓΕΦΥΡΑ",
        "order": "31"
      },
      "geometry": {
        "type": "Point",
        "coordinates": [
          23.6347165,
          37.949299
        ]
      }
    },
    {
      "type": "Feature",
      "properties": {
        "type": "stop",
        "stop_code": "400158",
        "stop_id": "400158",
        "name": "ΑΓ. ΔΙΟΝΥΣΙΟΣ",
        "order": "32"
      },
      "geometry": {
        "type": "Point",
        "coordinates": [
          23.6371532,
          37.9490992
        ]
      }
    },
    {
      "type": "Feature",
      "properties": {
        "type": "stop",
        "stop_code": "400159",
        "stop_id": "400159",
        "name": "ΤΕΛΩΝΕΙΟ (ΑΙΤΩΛΙΚΟΥ)",
        "order": "33"
      },
      "geometry": {
        "type": "Point",
        "coordinates": [
          23.640579,
          37.9491278
        ]
      }
    },
    {
      "type": "Feature",
      "properties": {
        "type": "stop",
        "stop_code": "400040",
        "stop_id": "400040",
        "name": "ΣΤ.ΜΕΤΡΟ ΠΕΙΡΑΙΑΣ",
        "order": "34"
      },
      "geometry": {
        "type": "Point",
        "coordinates": [
          23.6420658,
          37.9479935
        ]
      }
    },
    {
      "type": "Feature",
      "properties": {
        "type": "stop",
        "stop_code": "400298",
        "stop_id": "400298",
        "name": "ΠΛ. ΚΑΡΑΙΣΚΑΚΗ",
        "order": "35"
      },
      "geometry": {
        "type": "Point",
        "coordinates": [
          23.6420755,
          37.9456624
        ]
      }
    },
    {
      "type": "Feature",
      "properties": {
        "type": "stop",
        "stop_code": "400299",
        "stop_id": "400299",
        "name": "ΑΓ. ΣΠΥΡΙΔΩΝΑΣ ",
        "order": "36"
      },
      "geometry": {
        "type": "Point",
        "coordinates": [
          23.6435778,
          37.9440179
        ]
      }
    },
    {
      "type": "Feature",
      "properties": {
        "type": "stop",
        "stop_code": "400301",
        "stop_id": "400301",
        "name": "ΟΛΥΜΠΙΑΚΗ",
        "order": "37"
      },
      "geometry": {
        "type": "Point",
        "coordinates": [
          23.6414944,
          37.9411001
        ]
      }
    },
    {
      "type": "Feature",
      "properties": {
        "type": "stop",
        "stop_code": "400302",
        "stop_id": "400302",
        "name": "ΑΓ. ΝΙΚΟΛΑΟΣ",
        "order": "38"
      },
      "geometry": {
        "type": "Point",
        "coordinates": [
          23.6398658,
          37.9391971
        ]
      }
    },
    {
      "type": "Feature",
      "properties": {
        "type": "stop",
        "stop_code": "400303",
        "stop_id": "400303",
        "name": "ΤΕΛΩΝΕΙΟ",
        "order": "39"
      },
      "geometry": {
        "type": "Point",
        "coordinates": [
          23.6384413,
          37.937089
        ]
      }
    },
    {
      "type": "Feature",
      "properties": {
        "type": "stop",
        "stop_code": "10183",
        "stop_id": "25",
        "name": "ΠΕΙΡΑΙΑΣ",
        "order": "40"
      },
      "geometry": {
        "type": "Point",
        "coordinates": [
          23.6318845,
          37.9384348
        ]
      }
    }
  ]
}