{
  "type": "FeatureCollection",
  "features": [
    {
      "type": "Feature",
      "properties": {
        "type": "route_path",
        "route_code": "2292",
        "descr": "ΑΡΤΕΜΙΣ - ΣΤ. ΝΟΜΙΣΜΑΤΟΚΟΠΕΙΟ"
      },
      "geometry": {
        "type": "LineString",
        "coordinates": [
          [
            24.02043,
            37.99026
          ],
          [
            24.02053,
            37.9901
          ],
          [
            24.02068,
            37.99007
          ],
          [
            24.02086,
            37.99026
          ],
          [
            24.02069,
            37.99098
          ],
          [
            24.02028,
            37.99167
          ],
          [
            24.01971,
            37.99202
          ],
          [
            24.01784,
            37.99198
          ],
          [
            24.01596,
            37.99218
          ],
          [
            24.01409,
            37.99196
          ],
          [
            24.01193,
            37.99203
          ],
          [
            24.01126,
            37.99258
          ],
          [
            24.01032,
            37.9928
          ],
          [
            24.00936,
            37.9929
          ],
          [
            24.00858,
            37.99316
          ],
          [
            24.00853,
            37.99038
          ],
          [
            24.00858,
            37.98698
          ],
          [
            24.00835,
            37.98619
          ],
          [
            24.00648,
            37.98108
          ],
          [
            24.00632,
            37.98032
          ],
          [
            24.00651,
            37.97962
          ],
          [
            24.00626,
            37.97746
          ],
          [
            24.00609,
            37.97372
          ],
          [
            24.00549,
            37.97314
          ],
          [
            24.00508,
            37.97245
          ],
          [
            24.00474,
            37.97232
          ],
          [
            24.00459,
            37.97156
          ],
          [
            24.00382,
            37.96942
          ],
          [
            23.98702,
            37.966
          ],
          [
            23.98616,
            37.96548
          ],
          [
            23.98019,
            37.96097
          ],
          [
            23.97974,
            37.96073
          ],
          [
            23.97883,
            37.96058
          ],
          [
            23.97681,
            37.96004
          ],
          [
            23.97602,
            37.95967
          ],
          [
            23.97465,
            37.95864
          ],
          [
            23.97363,
            37.9584
          ],
          [
            23.97272,
            37.95832
          ],
          [
            23.97168,
            37.95841
          ],
          [
            23.96806,
            37.95969
          ],
          [
            23.96707,
            37.95992
          ],
          [
            23.96599,
            37.96003
          ],
          [
            23.96487,
            37.96001
          ],
          [
            23.9583,
            37.95895
          ],
          [
            23.95425,
            37.95874
          ],
          [
            23.95132,
            37.95926
          ],
          [
            23.94762,
            37.95947
          ],
          [
            23.93771,
            37.96051
          ],
          [
            23.9368,
            37.96044
          ],
          [
            23.93408,
            37.95997
          ],
          [
            23.92805,
            37.95978
          ],
          [
            23.92709,
            37.9599
          ],
          [
            23.92697,
            37.95997
          ],
          [
            23.92692,
            37.96008
          ],
          [
            23.92699,
            37.96096
          ],
          [
            23.92671,
            37.9617
          ],
          [
            23.92447,
            37.96493
          ],
          [
            23.92386,
            37.96543
          ],
          [
            23.91242,
            37.96821
          ],
          [
            23.90591,
            37.96809
          ],
          [
            23.90568,
            37.96902
          ],
          [
            23.90553,
            37.97124
          ],
          [
            23.9045,
            37.97341
          ],
          [
            23.90404,
            37.97416
          ],
          [
            23.90214,
            37.97589
          ],
          [
            23.89198,
            37.98238
          ],
          [
            23.88943,
            37.98428
          ],
          [
            23.88302,
            37.98793
          ],
          [
            23.88019,
            37.99823
          ],
          [
            23.88017,
            37.99917
          ],
          [
            23.88031,
            37.99994
          ],
          [
            23.88052,
            38.00067
          ],
          [
            23.88085,
            38.00365
          ],
          [
            23.8808,
            38.00374
          ],
          [
            23.8807,
            38.00378
          ],
          [
            23.87758,
            38.00383
          ],
          [
            23.87649,
            38.00396
          ],
          [
            23.87108,
            38.00534
          ],
          [
            23.85751,
            38.00781
          ],
          [
            23.85282,
            38.00916
          ],
          [
            23.84015,
            38.0111
          ],
          [
            23.83932,
            38.01139
          ],
          [
            23.83661,
            38.0126
          ],
          [
            23.83094,
            38.01383
          ],
          [
            23.83003,
            38.01395
          ],
          [
            23.8275,
            38.01397
          ],
          [
            23.82041,
            38.01365
          ],
          [
            23.82042,
            38.01365
          ],
          [
            23.80979,
            38.01101
          ],
          [
            23.80564,
            38.00911
          ],
          [
            23.80552,
            38.00914
          ],
          [
            23.80547,
            38.00923
          ],
          [
            23.80547,
            38.00928
          ],
          [
            23.80557,
            38.00944
          ],
          [
            23.80589,
            38.00967
          ],
          [
            23.80602,
            38.01009
          ],
          [
            23.80613,
            38.01012
          ],
          [
            23.80624,
            38.01008
          ],
          [
            23.80629,
            38.01
          ]
        ]
      }
    },
    {
      "type": "Feature",
      "properties": {
        "type": "stop",
        "stop_code": "10356",
        "stop_id": "000151",
        "name": "ΑΡΤΕΜΙΣ (ΑΓ. ΝΙΚΟΛΑΟΣ)",
        "order": "1"
      },
      "geometry": {
        "type": "Point",
        "coordinates": [
          24.020604,
          37.9905235
        ]
      }
    },
    {
      "type": "Feature",
      "properties": {
        "type": "stop",
        "stop_code": "790066",
        "stop_id": "790066",
        "name": "ΙΚΤΙΝΟΥ",
        "order": "2"
      },
      "geometry": {
        "type": "Point",
        "coordinates": [
          24.0175932,
          37.9920811
        ]
      }
    },
    {
      "type": "Feature",
      "properties": {
        "type": "stop",
        "stop_code": "790076",
        "stop_id": "790076",
        "name": "ΗΡΟΔΟΤΟΥ",
        "order": "3"
      },
      "geometry": {
        "type": "Point",
        "coordinates": [
          24.015008,
          37.9921716
        ]
      }
    },
    {
      "type": "Feature",
      "properties": {
        "type": "stop",
        "stop_code": "790067",
        "stop_id": "790067",
        "name": "ΤΑΒΕΡΝΑ",
        "order": "4"
      },
      "geometry": {
        "type": "Point",
        "coordinates": [
          24.0121152,
          37.9920908
        ]
      }
    },
    {
      "type": "Feature",
      "properties": {
        "type": "stop",
        "stop_code": "790068",
        "stop_id": "790068",
        "name": "1η ΥΠΑΠΑΝΤΗΣ",
        "order": "5"
      },
      "geometry": {
        "type": "Point",
        "coordinates": [
          24.0084938,
          37.9930735
        ]
      }
    },
    {
      "type": "Feature",
      "properties": {
        "type": "stop",
        "stop_code": "790069",
        "stop_id": "790069",
        "name": "2η ΥΠΑΠΑΝΤΗΣ",
        "order": "6"
      },
      "geometry": {
        "type": "Point",
        "coordinates": [
          24.0084138,
          37.9904237
        ]
      }
    },
    {
      "type": "Feature",
      "properties": {
        "type": "stop",
        "stop_code": "790070",
        "stop_id": "790070",
        "name": "3η ΥΠΑΠΑΝΤΗΣ",
        "order": "7"
      },
      "geometry": {
        "type": "Point",
        "coordinates": [
          24.0083565,
          37.9876928
        ]
      }
    },
    {
      "type": "Feature",
      "properties": {
        "type": "stop",
        "stop_code": "790071",
        "stop_id": "790071",
        "name": "4η ΥΠΑΠΑΝΤΗΣ",
        "order": "8"
      },
      "geometry": {
        "type": "Point",
        "coordinates": [
          24.0082425,
          37.9862598
        ]
      }
    },
    {
      "type": "Feature",
      "properties": {
        "type": "stop",
        "stop_code": "790072",
        "stop_id": "790072",
        "name": "5η ΥΠΑΠΑΝΤΗΣ",
        "order": "9"
      },
      "geometry": {
        "type": "Point",
        "coordinates": [
          24.0063289,
          37.9811136
        ]
      }
    },
    {
      "type": "Feature",
      "properties": {
        "type": "stop",
        "stop_code": "790073",
        "stop_id": "790073",
        "name": "6η ΥΠΑΠΑΝΤΗΣ",
        "order": "10"
      },
      "geometry": {
        "type": "Point",
        "coordinates": [
          24.0061009,
          37.9775265
        ]
      }
    },
    {
      "type": "Feature",
      "properties": {
        "type": "stop",
        "stop_code": "790074",
        "stop_id": "790074",
        "name": "7η ΥΠΑΠΑΝΤΗΣ",
        "order": "11"
      },
      "geometry": {
        "type": "Point",
        "coordinates": [
          24.0060209,
          37.9746063
        ]
      }
    },
    {
      "type": "Feature",
      "properties": {
        "type": "stop",
        "stop_code": "790075",
        "stop_id": "790075",
        "name": "8η ΥΠΑΠΑΝΤΗΣ",
        "order": "12"
      },
      "geometry": {
        "type": "Point",
        "coordinates": [
          24.0050985,
          37.9726415
        ]
      }
    },
    {
      "type": "Feature",
      "properties": {
        "type": "stop",
        "stop_code": "790080",
        "stop_id": "790080",
        "name": "9η ΥΠΑΠΑΝΤΗΣ",
        "order": "13"
      },
      "geometry": {
        "type": "Point",
        "coordinates": [
          24.0045288,
          37.9715778
        ]
      }
    },
    {
      "type": "Feature",
      "properties": {
        "type": "stop",
        "stop_code": "790043",
        "stop_id": "790043",
        "name": "ΜΑΚΡΗ",
        "order": "14"
      },
      "geometry": {
        "type": "Point",
        "coordinates": [
          24.0037075,
          37.9694835
        ]
      }
    },
    {
      "type": "Feature",
      "properties": {
        "type": "stop",
        "stop_code": "790044",
        "stop_id": "790044",
        "name": "ΧΑΡΟΥΛΑ",
        "order": "15"
      },
      "geometry": {
        "type": "Point",
        "coordinates": [
          24.0007437,
          37.9688301
        ]
      }
    },
    {
      "type": "Feature",
      "properties": {
        "type": "stop",
        "stop_code": "790045",
        "stop_id": "790045",
        "name": "ΞΕΝΟΦΩΝΤΟΣ",
        "order": "16"
      },
      "geometry": {
        "type": "Point",
        "coordinates": [
          23.9983028,
          37.9683397
        ]
      }
    },
    {
      "type": "Feature",
      "properties": {
        "type": "stop",
        "stop_code": "790046",
        "stop_id": "790046",
        "name": "ΟΤΕ",
        "order": "17"
      },
      "geometry": {
        "type": "Point",
        "coordinates": [
          23.9956129,
          37.9677967
        ]
      }
    },
    {
      "type": "Feature",
      "properties": {
        "type": "stop",
        "stop_code": "790047",
        "stop_id": "790047",
        "name": "ΑΓ.  ΝΕΚΤΑΡΙΟΣ",
        "order": "18"
      },
      "geometry": {
        "type": "Point",
        "coordinates": [
          23.9899575,
          37.9666541
        ]
      }
    },
    {
      "type": "Feature",
      "properties": {
        "type": "stop",
        "stop_code": "790048",
        "stop_id": "790048",
        "name": "ΓΙΟΥΡΓΑ",
        "order": "19"
      },
      "geometry": {
        "type": "Point",
        "coordinates": [
          23.9860756,
          37.9654766
        ]
      }
    },
    {
      "type": "Feature",
      "properties": {
        "type": "stop",
        "stop_code": "790049",
        "stop_id": "790049",
        "name": "ΑΓ. ΚΥΡΙΑΚΗ",
        "order": "20"
      },
      "geometry": {
        "type": "Point",
        "coordinates": [
          23.9823096,
          37.9627014
        ]
      }
    },
    {
      "type": "Feature",
      "properties": {
        "type": "stop",
        "stop_code": "790050",
        "stop_id": "790050",
        "name": "ΑΓ. ΙΩΑΝΝΗΣ",
        "order": "21"
      },
      "geometry": {
        "type": "Point",
        "coordinates": [
          23.9782986,
          37.9605041
        ]
      }
    },
    {
      "type": "Feature",
      "properties": {
        "type": "stop",
        "stop_code": "790051",
        "stop_id": "790051",
        "name": "ΑΠΟΣΠΟΡΗ",
        "order": "22"
      },
      "geometry": {
        "type": "Point",
        "coordinates": [
          23.9757306,
          37.95955
        ]
      }
    },
    {
      "type": "Feature",
      "properties": {
        "type": "stop",
        "stop_code": "440019",
        "stop_id": "440019",
        "name": "ΣΥΝΕΤΑΙΡΙΣΜΟΣ ΘΥΡΩΡΩΝ",
        "order": "23"
      },
      "geometry": {
        "type": "Point",
        "coordinates": [
          23.9670868,
          37.9599871
        ]
      }
    },
    {
      "type": "Feature",
      "properties": {
        "type": "stop",
        "stop_code": "440055",
        "stop_id": "440055",
        "name": "2η ΑΕΡΟΔΡΟΜΙΟΥ",
        "order": "24"
      },
      "geometry": {
        "type": "Point",
        "coordinates": [
          23.9584122,
          37.9590428
        ]
      }
    },
    {
      "type": "Feature",
      "properties": {
        "type": "stop",
        "stop_code": "440020",
        "stop_id": "440020",
        "name": "1η ΑΕΡΟΔΡΟΜΙΟΥ",
        "order": "25"
      },
      "geometry": {
        "type": "Point",
        "coordinates": [
          23.9483463,
          37.9595681
        ]
      }
    },
    {
      "type": "Feature",
      "properties": {
        "type": "stop",
        "stop_code": "440050",
        "stop_id": "440050",
        "name": "ΚΟΛΙΚΡΕΠΙ",
        "order": "26"
      },
      "geometry": {
        "type": "Point",
        "coordinates": [
          23.9418612,
          37.9602493
        ]
      }
    },
    {
      "type": "Feature",
      "properties": {
        "type": "stop",
        "stop_code": "440021",
        "stop_id": "440021",
        "name": "ΑΓ. ΚΩΝ/ΝΟΣ",
        "order": "27"
      },
      "geometry": {
        "type": "Point",
        "coordinates": [
          23.9382321,
          37.9605722
        ]
      }
    },
    {
      "type": "Feature",
      "properties": {
        "type": "stop",
        "stop_code": "440065",
        "stop_id": "440065",
        "name": "ΤΑΧ. ΘΥΡΙΔΕΣ",
        "order": "28"
      },
      "geometry": {
        "type": "Point",
        "coordinates": [
          23.935859,
          37.9603083
        ]
      }
    },
    {
      "type": "Feature",
      "properties": {
        "type": "stop",
        "stop_code": "440056",
        "stop_id": "440056",
        "name": "ΑΓ. ΠΕΤΡΟΣ",
        "order": "29"
      },
      "geometry": {
        "type": "Point",
        "coordinates": [
          23.9327789,
          37.9599521
        ]
      }
    },
    {
      "type": "Feature",
      "properties": {
        "type": "stop",
        "stop_code": "440036",
        "stop_id": "440036",
        "name": "ΔΙΑΣΤΑΥΡΩΣΗ",
        "order": "30"
      },
      "geometry": {
        "type": "Point",
        "coordinates": [
          23.9270118,
          37.9604505
        ]
      }
    },
    {
      "type": "Feature",
      "properties": {
        "type": "stop",
        "stop_code": "440066",
        "stop_id": "440066",
        "name": "ΦΟΥΡΝΟΣ",
        "order": "31"
      },
      "geometry": {
        "type": "Point",
        "coordinates": [
          23.925795,
          37.9632636
        ]
      }
    },
    {
      "type": "Feature",
      "properties": {
        "type": "stop",
        "stop_code": "440052",
        "stop_id": "440052",
        "name": "ΣΤΡΟΦΗ",
        "order": "32"
      },
      "geometry": {
        "type": "Point",
        "coordinates": [
          23.9216947,
          37.9660812
        ]
      }
    },
    {
      "type": "Feature",
      "properties": {
        "type": "stop",
        "stop_code": "440053",
        "stop_id": "440053",
        "name": "Ο.Τ.Ε",
        "order": "33"
      },
      "geometry": {
        "type": "Point",
        "coordinates": [
          23.9176521,
          37.9670789
        ]
      }
    },
    {
      "type": "Feature",
      "properties": {
        "type": "stop",
        "stop_code": "440060",
        "stop_id": "440060",
        "name": "ΣΤΡΟΦΗ ΠΛΑΣΤΗΡΑ",
        "order": "34"
      },
      "geometry": {
        "type": "Point",
        "coordinates": [
          23.914714,
          37.9677437
        ]
      }
    },
    {
      "type": "Feature",
      "properties": {
        "type": "stop",
        "stop_code": "440046",
        "stop_id": "440046",
        "name": "ΑΓΙΟΥ ΔΗΜΗΤΡΙΟΥ",
        "order": "35"
      },
      "geometry": {
        "type": "Point",
        "coordinates": [
          23.9088192,
          37.9682435
        ]
      }
    },
    {
      "type": "Feature",
      "properties": {
        "type": "stop",
        "stop_code": "440029",
        "stop_id": "440029",
        "name": "ΓΗΠΕΔΟ",
        "order": "36"
      },
      "geometry": {
        "type": "Point",
        "coordinates": [
          23.9059236,
          37.9687735
        ]
      }
    },
    {
      "type": "Feature",
      "properties": {
        "type": "stop",
        "stop_code": "440030",
        "stop_id": "440030",
        "name": "ΖΩΗ",
        "order": "37"
      },
      "geometry": {
        "type": "Point",
        "coordinates": [
          23.9057274,
          37.9708644
        ]
      }
    },
    {
      "type": "Feature",
      "properties": {
        "type": "stop",
        "stop_code": "440031",
        "stop_id": "440031",
        "name": "ΑΓ. ΝΙΚΟΛΑΟΣ",
        "order": "38"
      },
      "geometry": {
        "type": "Point",
        "coordinates": [
          23.904574,
          37.9735673
        ]
      }
    },
    {
      "type": "Feature",
      "properties": {
        "type": "stop",
        "stop_code": "440032",
        "stop_id": "440032",
        "name": "ΦΟΥΡΝΟΣ",
        "order": "39"
      },
      "geometry": {
        "type": "Point",
        "coordinates": [
          23.9020621,
          37.9760476
        ]
      }
    },
    {
      "type": "Feature",
      "properties": {
        "type": "stop",
        "stop_code": "440033",
        "stop_id": "440033",
        "name": "ΑΓ. ΘΕΜΙΣΤΟΚΛΗΣ",
        "order": "40"
      },
      "geometry": {
        "type": "Point",
        "coordinates": [
          23.9002408,
          37.9772962
        ]
      }
    },
    {
      "type": "Feature",
      "properties": {
        "type": "stop",
        "stop_code": "440034",
        "stop_id": "440034",
        "name": "ΚΑΤΣΑΟΥΝΗ",
        "order": "41"
      },
      "geometry": {
        "type": "Point",
        "coordinates": [
          23.8978049,
          37.9787762
        ]
      }
    },
    {
      "type": "Feature",
      "properties": {
        "type": "stop",
        "stop_code": "440035",
        "stop_id": "440035",
        "name": "ΞΗΡΟΤΥΡΙ",
        "order": "42"
      },
      "geometry": {
        "type": "Point",
        "coordinates": [
          23.8937565,
          37.9813557
        ]
      }
    },
    {
      "type": "Feature",
      "properties": {
        "type": "stop",
        "stop_code": "700012",
        "stop_id": "700012",
        "name": "ΓΑΒΑΛΑ",
        "order": "43"
      },
      "geometry": {
        "type": "Point",
        "coordinates": [
          23.8886633,
          37.9847739
        ]
      }
    },
    {
      "type": "Feature",
      "properties": {
        "type": "stop",
        "stop_code": "700013",
        "stop_id": "700013",
        "name": "ΓΡΗΓΟΡΗΣ ΛΑΜΠΡΑΚΗΣ",
        "order": "44"
      },
      "geometry": {
        "type": "Point",
        "coordinates": [
          23.8848259,
          37.9868943
        ]
      }
    },
    {
      "type": "Feature",
      "properties": {
        "type": "stop",
        "stop_code": "700014",
        "stop_id": "700014",
        "name": "ΤΑΒΕΡΝΑ",
        "order": "45"
      },
      "geometry": {
        "type": "Point",
        "coordinates": [
          23.8817817,
          37.9924121
        ]
      }
    },
    {
      "type": "Feature",
      "properties": {
        "type": "stop",
        "stop_code": "700015",
        "stop_id": "700015",
        "name": "ΕΦΟΡΙΑ",
        "order": "46"
      },
      "geometry": {
        "type": "Point",
        "coordinates": [
          23.880518,
          37.997094
        ]
      }
    },
    {
      "type": "Feature",
      "properties": {
        "type": "stop",
        "stop_code": "700016",
        "stop_id": "700016",
        "name": "ΟΡΦΑΝΟΤΡΟΦΕΙΟ",
        "order": "47"
      },
      "geometry": {
        "type": "Point",
        "coordinates": [
          23.8805228,
          37.9971891
        ]
      }
    },
    {
      "type": "Feature",
      "properties": {
        "type": "stop",
        "stop_code": "700017",
        "stop_id": "700017",
        "name": "ΣΧΟΛΕΙΟ",
        "order": "48"
      },
      "geometry": {
        "type": "Point",
        "coordinates": [
          23.8808799,
          38.0020264
        ]
      }
    },
    {
      "type": "Feature",
      "properties": {
        "type": "stop",
        "stop_code": "700018",
        "stop_id": "700018",
        "name": "ΣΤΡΟΦΗ ΠΑΛΛΗΝΗΣ",
        "order": "49"
      },
      "geometry": {
        "type": "Point",
        "coordinates": [
          23.87995,
          38.0038347
        ]
      }
    },
    {
      "type": "Feature",
      "properties": {
        "type": "stop",
        "stop_code": "700019",
        "stop_id": "700019",
        "name": "ΣΙΝΕ ΠΑΛΛΗΝΗ",
        "order": "50"
      },
      "geometry": {
        "type": "Point",
        "coordinates": [
          23.8776604,
          38.0038678
        ]
      }
    },
    {
      "type": "Feature",
      "properties": {
        "type": "stop",
        "stop_code": "700020",
        "stop_id": "700020",
        "name": "ΑΣΥΡΜΑΤΟΣ",
        "order": "51"
      },
      "geometry": {
        "type": "Point",
        "coordinates": [
          23.873805,
          38.0047793
        ]
      }
    },
    {
      "type": "Feature",
      "properties": {
        "type": "stop",
        "stop_code": "700021",
        "stop_id": "700021",
        "name": "ΓΕΦΥΡΑ",
        "order": "52"
      },
      "geometry": {
        "type": "Point",
        "coordinates": [
          23.8698509,
          38.0056419
        ]
      }
    },
    {
      "type": "Feature",
      "properties": {
        "type": "stop",
        "stop_code": "800012",
        "stop_id": "800012",
        "name": "ΠΥΡΓΟΣ",
        "order": "53"
      },
      "geometry": {
        "type": "Point",
        "coordinates": [
          23.864261,
          38.0066886
        ]
      }
    },
    {
      "type": "Feature",
      "properties": {
        "type": "stop",
        "stop_code": "800013",
        "stop_id": "800013",
        "name": "1η ΓΕΡΑΚΑ",
        "order": "54"
      },
      "geometry": {
        "type": "Point",
        "coordinates": [
          23.8609799,
          38.0072552
        ]
      }
    },
    {
      "type": "Feature",
      "properties": {
        "type": "stop",
        "stop_code": "800019",
        "stop_id": "800019",
        "name": "2η ΓΕΡΑΚΑ",
        "order": "55"
      },
      "geometry": {
        "type": "Point",
        "coordinates": [
          23.8555013,
          38.0085322
        ]
      }
    },
    {
      "type": "Feature",
      "properties": {
        "type": "stop",
        "stop_code": "800014",
        "stop_id": "800014",
        "name": "ΠΑΝΑΓΙΤΣΑ",
        "order": "56"
      },
      "geometry": {
        "type": "Point",
        "coordinates": [
          23.853068,
          38.0092121
        ]
      }
    },
    {
      "type": "Feature",
      "properties": {
        "type": "stop",
        "stop_code": "800018",
        "stop_id": "800018",
        "name": "ΠΕΤΡΟΓΙΑΝΝΗ",
        "order": "57"
      },
      "geometry": {
        "type": "Point",
        "coordinates": [
          23.8486128,
          38.0099836
        ]
      }
    },
    {
      "type": "Feature",
      "properties": {
        "type": "stop",
        "stop_code": "30011",
        "stop_id": "030011",
        "name": "ΣΤΑΥΡΟΣ",
        "order": "58"
      },
      "geometry": {
        "type": "Point",
        "coordinates": [
          23.8424452,
          38.0108444
        ]
      }
    },
    {
      "type": "Feature",
      "properties": {
        "type": "stop",
        "stop_code": "30012",
        "stop_id": "030012",
        "name": "ΓΕΛΑΔΑΚΗ",
        "order": "59"
      },
      "geometry": {
        "type": "Point",
        "coordinates": [
          23.8378804,
          38.0121242
        ]
      }
    },
    {
      "type": "Feature",
      "properties": {
        "type": "stop",
        "stop_code": "30013",
        "stop_id": "030013",
        "name": "ΔΗΜΗΤΡΑΣ",
        "order": "60"
      },
      "geometry": {
        "type": "Point",
        "coordinates": [
          23.8341049,
          38.0132438
        ]
      }
    },
    {
      "type": "Feature",
      "properties": {
        "type": "stop",
        "stop_code": "30014",
        "stop_id": "030014",
        "name": "ΙΚΑ",
        "order": "61"
      },
      "geometry": {
        "type": "Point",
        "coordinates": [
          23.8293743,
          38.0140285
        ]
      }
    },
    {
      "type": "Feature",
      "properties": {
        "type": "stop",
        "stop_code": "30015",
        "stop_id": "030015",
        "name": "ΣΑΛΑΜΙΝΟΣ",
        "order": "62"
      },
      "geometry": {
        "type": "Point",
        "coordinates": [
          23.8275307,
          38.0140541
        ]
      }
    },
    {
      "type": "Feature",
      "properties": {
        "type": "stop",
        "stop_code": "30100",
        "stop_id": "030100",
        "name": "ΕΡΤ",
        "order": "63"
      },
      "geometry": {
        "type": "Point",
        "coordinates": [
          23.8229296,
          38.013828
        ]
      }
    },
    {
      "type": "Feature",
      "properties": {
        "type": "stop",
        "stop_code": "30017",
        "stop_id": "030017",
        "name": "ΠΛ. ΑΓ. ΠΑΡΑΣΚΕΥΗΣ",
        "order": "64"
      },
      "geometry": {
        "type": "Point",
        "coordinates": [
          23.8192695,
          38.0134032
        ]
      }
    },
    {
      "type": "Feature",
      "properties": {
        "type": "stop",
        "stop_code": "30019",
        "stop_id": "030019",
        "name": "11η ΑΓ. ΠΑΡΑΣΚΕΥΗΣ",
        "order": "65"
      },
      "geometry": {
        "type": "Point",
        "coordinates": [
          23.816624,
          38.0126609
        ]
      }
    },
    {
      "type": "Feature",
      "properties": {
        "type": "stop",
        "stop_code": "30415",
        "stop_id": "030415",
        "name": "ΜΙΛΤΙΑΔΟΥ",
        "order": "66"
      },
      "geometry": {
        "type": "Point",
        "coordinates": [
          23.8136285,
          38.011941
        ]
      }
    },
    {
      "type": "Feature",
      "properties": {
        "type": "stop",
        "stop_code": "30020",
        "stop_id": "030020",
        "name": "ΤΟΜΠΡΑ",
        "order": "67"
      },
      "geometry": {
        "type": "Point",
        "coordinates": [
          23.8107158,
          38.011285
        ]
      }
    },
    {
      "type": "Feature",
      "properties": {
        "type": "stop",
        "stop_code": "30021",
        "stop_id": "030021",
        "name": "9η ΜΕΣΟΓΕΙΩΝ",
        "order": "68"
      },
      "geometry": {
        "type": "Point",
        "coordinates": [
          23.8076899,
          38.0101366
        ]
      }
    },
    {
      "type": "Feature",
      "properties": {
        "type": "stop",
        "stop_code": "481194",
        "stop_id": "481194",
        "name": "ΝΟΜΙΣΜΑΤΟΚΟΠΕΙΟ",
        "order": "69"
      },
      "geometry": {
        "type": "Point",
        "coordinates": [
          23.8058321,
          38.0092501
        ]
      }
    },
    {
      "type": "Feature",
      "properties": {
        "type": "stop",
        "stop_code": "10306",
        "stop_id": "000106",
        "name": "ΣΤ. ΝΟΜΙΣΜΑΤΟΚΟΠΕΙΟ",
        "order": "70"
      },
      "geometry": {
        "type": "Point",
        "coordinates": [
          23.806072,
          38.009866
        ]
      }
    }
  ]
}