{
  "type": "FeatureCollection",
  "features": [
    {
      "type": "Feature",
      "properties": {
        "type": "route_path",
        "route_code": "5181",
        "descr": "ΓΛΥΦΑΔΑ - ΣΟΥΡΜΕΝΑ - ΤΕΡΨΙΘΕΑ"
      },
      "geometry": {
        "type": "LineString",
        "coordinates": [
          [
            23.7404,
            37.87274
          ],
          [
            23.74042,
            37.87258
          ],
          [
            23.74028,
            37.87214
          ],
          [
            23.74052,
            37.87145
          ],
          [
            23.74276,
            37.86894
          ],
          [
            23.7441,
            37.86785
          ],
          [
            23.74466,
            37.86723
          ],
          [
            23.7451,
            37.86658
          ],
          [
            23.74529,
            37.86621
          ],
          [
            23.74529,
            37.86582
          ],
          [
            23.74519,
            37.86545
          ],
          [
            23.74452,
            37.86483
          ],
          [
            23.74415,
            37.8644
          ],
          [
            23.74503,
            37.8639
          ],
          [
            23.74545,
            37.86321
          ],
          [
            23.74592,
            37.86277
          ],
          [
            23.74622,
            37.86284
          ],
          [
            23.7465,
            37.86308
          ],
          [
            23.74671,
            37.86335
          ],
          [
            23.74635,
            37.86375
          ],
          [
            23.74622,
            37.86394
          ],
          [
            23.74626,
            37.86403
          ],
          [
            23.75122,
            37.86881
          ],
          [
            23.752,
            37.86968
          ],
          [
            23.75447,
            37.87389
          ],
          [
            23.75512,
            37.87509
          ],
          [
            23.75514,
            37.87524
          ],
          [
            23.7557,
            37.87621
          ],
          [
            23.75583,
            37.87635
          ],
          [
            23.75578,
            37.87649
          ],
          [
            23.75453,
            37.87897
          ],
          [
            23.75409,
            37.87984
          ],
          [
            23.75341,
            37.88109
          ],
          [
            23.75191,
            37.884
          ],
          [
            23.75151,
            37.88372
          ],
          [
            23.74981,
            37.88247
          ],
          [
            23.74961,
            37.88236
          ],
          [
            23.74817,
            37.88356
          ],
          [
            23.74755,
            37.88425
          ],
          [
            23.75082,
            37.88653
          ],
          [
            23.75073,
            37.88666
          ],
          [
            23.74822,
            37.89152
          ],
          [
            23.74802,
            37.89208
          ],
          [
            23.74829,
            37.89214
          ],
          [
            23.76061,
            37.89242
          ],
          [
            23.76078,
            37.89272
          ],
          [
            23.76137,
            37.8928
          ],
          [
            23.76219,
            37.89323
          ],
          [
            23.76584,
            37.89584
          ],
          [
            23.7718,
            37.90011
          ],
          [
            23.77252,
            37.89952
          ],
          [
            23.77299,
            37.89911
          ],
          [
            23.773,
            37.89886
          ],
          [
            23.77227,
            37.89835
          ],
          [
            23.77185,
            37.89781
          ],
          [
            23.77341,
            37.89645
          ],
          [
            23.77373,
            37.89588
          ],
          [
            23.76671,
            37.89092
          ],
          [
            23.76242,
            37.89111
          ],
          [
            23.76203,
            37.89116
          ],
          [
            23.7618,
            37.89111
          ],
          [
            23.76093,
            37.89121
          ],
          [
            23.76086,
            37.89132
          ],
          [
            23.76074,
            37.89206
          ],
          [
            23.76045,
            37.89246
          ],
          [
            23.75428,
            37.89237
          ],
          [
            23.75402,
            37.89235
          ],
          [
            23.7488,
            37.89219
          ],
          [
            23.74866,
            37.8922
          ],
          [
            23.74831,
            37.8922
          ],
          [
            23.74781,
            37.89209
          ],
          [
            23.74772,
            37.89202
          ],
          [
            23.74768,
            37.89191
          ],
          [
            23.74883,
            37.88922
          ],
          [
            23.75048,
            37.8867
          ],
          [
            23.75059,
            37.88649
          ],
          [
            23.75053,
            37.88641
          ],
          [
            23.74726,
            37.88409
          ],
          [
            23.74353,
            37.88129
          ],
          [
            23.74353,
            37.88113
          ],
          [
            23.74546,
            37.87941
          ],
          [
            23.74559,
            37.87938
          ],
          [
            23.74573,
            37.87946
          ],
          [
            23.75178,
            37.88383
          ],
          [
            23.75198,
            37.88376
          ],
          [
            23.75444,
            37.87891
          ],
          [
            23.75462,
            37.87856
          ],
          [
            23.75396,
            37.87627
          ],
          [
            23.75363,
            37.87552
          ],
          [
            23.75138,
            37.87177
          ],
          [
            23.75085,
            37.87114
          ],
          [
            23.74612,
            37.86644
          ],
          [
            23.74549,
            37.86601
          ],
          [
            23.74465,
            37.86731
          ],
          [
            23.74407,
            37.8679
          ],
          [
            23.74275,
            37.86905
          ],
          [
            23.74158,
            37.87031
          ],
          [
            23.74101,
            37.87094
          ],
          [
            23.73993,
            37.87284
          ],
          [
            23.74016,
            37.87311
          ],
          [
            23.74061,
            37.87255
          ]
        ]
      }
    },
    {
      "type": "Feature",
      "properties": {
        "type": "stop",
        "stop_code": "10284",
        "stop_id": "83",
        "name": "ΓΛΥΦΑΔΑ",
        "order": "1"
      },
      "geometry": {
        "type": "Point",
        "coordinates": [
          23.740379,
          37.8728805
        ]
      }
    },
    {
      "type": "Feature",
      "properties": {
        "type": "stop",
        "stop_code": "160349",
        "stop_id": "160349",
        "name": "ΝΑΥΣΙΚΑ",
        "order": "2"
      },
      "geometry": {
        "type": "Point",
        "coordinates": [
          23.7418141,
          37.8697548
        ]
      }
    },
    {
      "type": "Feature",
      "properties": {
        "type": "stop",
        "stop_code": "160210",
        "stop_id": "160210",
        "name": "ΑΓ. ΚΩΝΣΤΑΝΤΙΝΟΣ",
        "order": "3"
      },
      "geometry": {
        "type": "Point",
        "coordinates": [
          23.7452831,
          37.8660761
        ]
      }
    },
    {
      "type": "Feature",
      "properties": {
        "type": "stop",
        "stop_code": "160211",
        "stop_id": "160211",
        "name": "ΔΙΑΔΟΧΟΥ ΠΑΥΛΟΥ",
        "order": "4"
      },
      "geometry": {
        "type": "Point",
        "coordinates": [
          23.7453268,
          37.8633091
        ]
      }
    },
    {
      "type": "Feature",
      "properties": {
        "type": "stop",
        "stop_code": "160330",
        "stop_id": "160330",
        "name": "ΠΛ. ΓΛΥΦΑΔΑΣ",
        "order": "5"
      },
      "geometry": {
        "type": "Point",
        "coordinates": [
          23.7463475,
          37.8640324
        ]
      }
    },
    {
      "type": "Feature",
      "properties": {
        "type": "stop",
        "stop_code": "160135",
        "stop_id": "160135",
        "name": "ΚΥΠΡΟΥ",
        "order": "6"
      },
      "geometry": {
        "type": "Point",
        "coordinates": [
          23.7481608,
          37.8657127
        ]
      }
    },
    {
      "type": "Feature",
      "properties": {
        "type": "stop",
        "stop_code": "160136",
        "stop_id": "160136",
        "name": "ΓΥΜΝΑΣΙΟ",
        "order": "7"
      },
      "geometry": {
        "type": "Point",
        "coordinates": [
          23.7513338,
          37.8687749
        ]
      }
    },
    {
      "type": "Feature",
      "properties": {
        "type": "stop",
        "stop_code": "160137",
        "stop_id": "160137",
        "name": "ΔΑΣΚΑΡΟΛΗ",
        "order": "8"
      },
      "geometry": {
        "type": "Point",
        "coordinates": [
          23.7533593,
          37.8716723
        ]
      }
    },
    {
      "type": "Feature",
      "properties": {
        "type": "stop",
        "stop_code": "160138",
        "stop_id": "160138",
        "name": "ΡΙΟ",
        "order": "9"
      },
      "geometry": {
        "type": "Point",
        "coordinates": [
          23.7545463,
          37.8737298
        ]
      }
    },
    {
      "type": "Feature",
      "properties": {
        "type": "stop",
        "stop_code": "160322",
        "stop_id": "160322",
        "name": "ΑΧΙΛΛΕΩΣ",
        "order": "10"
      },
      "geometry": {
        "type": "Point",
        "coordinates": [
          23.75555,
          37.877061
        ]
      }
    },
    {
      "type": "Feature",
      "properties": {
        "type": "stop",
        "stop_code": "160325",
        "stop_id": "160325",
        "name": "ΣΑΚΗ ΚΑΡΑΓΙΩΡΓΑ",
        "order": "11"
      },
      "geometry": {
        "type": "Point",
        "coordinates": [
          23.754409,
          37.8792112
        ]
      }
    },
    {
      "type": "Feature",
      "properties": {
        "type": "stop",
        "stop_code": "160326",
        "stop_id": "160326",
        "name": "ΤΡΟΧΑΙΑ",
        "order": "12"
      },
      "geometry": {
        "type": "Point",
        "coordinates": [
          23.7534035,
          37.8811223
        ]
      }
    },
    {
      "type": "Feature",
      "properties": {
        "type": "stop",
        "stop_code": "160297",
        "stop_id": "160297",
        "name": "ΜΙΑΟΥΛΗ",
        "order": "13"
      },
      "geometry": {
        "type": "Point",
        "coordinates": [
          23.7521555,
          37.8835145
        ]
      }
    },
    {
      "type": "Feature",
      "properties": {
        "type": "stop",
        "stop_code": "160217",
        "stop_id": "160217",
        "name": "ΡΟΔΟΠΗΣ",
        "order": "14"
      },
      "geometry": {
        "type": "Point",
        "coordinates": [
          23.7508412,
          37.8833749
        ]
      }
    },
    {
      "type": "Feature",
      "properties": {
        "type": "stop",
        "stop_code": "160218",
        "stop_id": "160218",
        "name": "ΧΑΡ. ΤΡΙΚΟΥΠΗ",
        "order": "15"
      },
      "geometry": {
        "type": "Point",
        "coordinates": [
          23.7484983,
          37.8834781
        ]
      }
    },
    {
      "type": "Feature",
      "properties": {
        "type": "stop",
        "stop_code": "160219",
        "stop_id": "160219",
        "name": "ΙΣΜΗΝΗΣ",
        "order": "16"
      },
      "geometry": {
        "type": "Point",
        "coordinates": [
          23.7487321,
          37.8849387
        ]
      }
    },
    {
      "type": "Feature",
      "properties": {
        "type": "stop",
        "stop_code": "590029",
        "stop_id": "590029",
        "name": "ΓΕΦΥΡΑ",
        "order": "17"
      },
      "geometry": {
        "type": "Point",
        "coordinates": [
          23.7496508,
          37.8890236
        ]
      }
    },
    {
      "type": "Feature",
      "properties": {
        "type": "stop",
        "stop_code": "590030",
        "stop_id": "590030",
        "name": "ΣΤ. ΕΛΛΗΝΙΚΟ",
        "order": "18"
      },
      "geometry": {
        "type": "Point",
        "coordinates": [
          23.7484486,
          37.8914094
        ]
      }
    },
    {
      "type": "Feature",
      "properties": {
        "type": "stop",
        "stop_code": "590041",
        "stop_id": "590041",
        "name": "ΣΤΡΟΦΗ ΙΑΣΩΝΙΔΟΥ",
        "order": "19"
      },
      "geometry": {
        "type": "Point",
        "coordinates": [
          23.7487082,
          37.8921076
        ]
      }
    },
    {
      "type": "Feature",
      "properties": {
        "type": "stop",
        "stop_code": "590042",
        "stop_id": "590042",
        "name": "ΑΡΓΟΝΑΥΤΩΝ",
        "order": "20"
      },
      "geometry": {
        "type": "Point",
        "coordinates": [
          23.7516396,
          37.892173
        ]
      }
    },
    {
      "type": "Feature",
      "properties": {
        "type": "stop",
        "stop_code": "590043",
        "stop_id": "590043",
        "name": "ΤΡΑΠΕΖΑ",
        "order": "21"
      },
      "geometry": {
        "type": "Point",
        "coordinates": [
          23.7542373,
          37.8922268
        ]
      }
    },
    {
      "type": "Feature",
      "properties": {
        "type": "stop",
        "stop_code": "590044",
        "stop_id": "590044",
        "name": "ΕΚΚΛΗΣΙΑ",
        "order": "22"
      },
      "geometry": {
        "type": "Point",
        "coordinates": [
          23.7563983,
          37.8922779
        ]
      }
    },
    {
      "type": "Feature",
      "properties": {
        "type": "stop",
        "stop_code": "590045",
        "stop_id": "590045",
        "name": "ΙΑΣΩΝΙΔΟΥ",
        "order": "23"
      },
      "geometry": {
        "type": "Point",
        "coordinates": [
          23.7597959,
          37.8923254
        ]
      }
    },
    {
      "type": "Feature",
      "properties": {
        "type": "stop",
        "stop_code": "160320",
        "stop_id": "160320",
        "name": "ΜΥΚΑΛΗΣ",
        "order": "24"
      },
      "geometry": {
        "type": "Point",
        "coordinates": [
          23.7611598,
          37.8926076
        ]
      }
    },
    {
      "type": "Feature",
      "properties": {
        "type": "stop",
        "stop_code": "160047",
        "stop_id": "160047",
        "name": "1η ΤΕΡΨΙΘΕΑΣ",
        "order": "25"
      },
      "geometry": {
        "type": "Point",
        "coordinates": [
          23.764077,
          37.8943891
        ]
      }
    },
    {
      "type": "Feature",
      "properties": {
        "type": "stop",
        "stop_code": "160048",
        "stop_id": "160048",
        "name": "2η ΤΕΡΨΙΘΕΑΣ",
        "order": "26"
      },
      "geometry": {
        "type": "Point",
        "coordinates": [
          23.7670614,
          37.8965401
        ]
      }
    },
    {
      "type": "Feature",
      "properties": {
        "type": "stop",
        "stop_code": "160049",
        "stop_id": "160049",
        "name": "3η ΤΕΡΨΙΘΕΑΣ",
        "order": "27"
      },
      "geometry": {
        "type": "Point",
        "coordinates": [
          23.7687215,
          37.897795
        ]
      }
    },
    {
      "type": "Feature",
      "properties": {
        "type": "stop",
        "stop_code": "160050",
        "stop_id": "160050",
        "name": "4η ΤΕΡΨΙΘΕΑΣ",
        "order": "28"
      },
      "geometry": {
        "type": "Point",
        "coordinates": [
          23.772136,
          37.8996235
        ]
      }
    },
    {
      "type": "Feature",
      "properties": {
        "type": "stop",
        "stop_code": "160329",
        "stop_id": "160329",
        "name": "ΚΡΙΜΑΙΑΣ",
        "order": "29"
      },
      "geometry": {
        "type": "Point",
        "coordinates": [
          23.7722115,
          37.8972712
        ]
      }
    },
    {
      "type": "Feature",
      "properties": {
        "type": "stop",
        "stop_code": "160052",
        "stop_id": "160052",
        "name": "6η ΤΕΡΨΙΘΕΑΣ",
        "order": "30"
      },
      "geometry": {
        "type": "Point",
        "coordinates": [
          23.7735691,
          37.8959399
        ]
      }
    },
    {
      "type": "Feature",
      "properties": {
        "type": "stop",
        "stop_code": "160053",
        "stop_id": "160053",
        "name": "7η ΤΕΡΨΙΘΕΑΣ",
        "order": "31"
      },
      "geometry": {
        "type": "Point",
        "coordinates": [
          23.771254,
          37.8942861
        ]
      }
    },
    {
      "type": "Feature",
      "properties": {
        "type": "stop",
        "stop_code": "160054",
        "stop_id": "160054",
        "name": "8η ΤΕΡΨΙΘΕΑΣ",
        "order": "32"
      },
      "geometry": {
        "type": "Point",
        "coordinates": [
          23.7690751,
          37.8927496
        ]
      }
    },
    {
      "type": "Feature",
      "properties": {
        "type": "stop",
        "stop_code": "160134",
        "stop_id": "160134",
        "name": "ΑΓ. ΤΡΥΦΩΝ",
        "order": "33"
      },
      "geometry": {
        "type": "Point",
        "coordinates": [
          23.765498,
          37.891012
        ]
      }
    },
    {
      "type": "Feature",
      "properties": {
        "type": "stop",
        "stop_code": "160058",
        "stop_id": "160058",
        "name": "ΤΑΧΥΔΡΟΜΕΙΟ",
        "order": "34"
      },
      "geometry": {
        "type": "Point",
        "coordinates": [
          23.7632002,
          37.8911516
        ]
      }
    },
    {
      "type": "Feature",
      "properties": {
        "type": "stop",
        "stop_code": "590046",
        "stop_id": "590046",
        "name": "ΓΟΥΝΑΡΗ",
        "order": "35"
      },
      "geometry": {
        "type": "Point",
        "coordinates": [
          23.7596813,
          37.8925866
        ]
      }
    },
    {
      "type": "Feature",
      "properties": {
        "type": "stop",
        "stop_code": "590047",
        "stop_id": "590047",
        "name": "ΕΚΚΛΗΣΙΑ",
        "order": "36"
      },
      "geometry": {
        "type": "Point",
        "coordinates": [
          23.7567474,
          37.8924814
        ]
      }
    },
    {
      "type": "Feature",
      "properties": {
        "type": "stop",
        "stop_code": "590059",
        "stop_id": "590059",
        "name": "ΤΡΑΠΕΖΑ",
        "order": "37"
      },
      "geometry": {
        "type": "Point",
        "coordinates": [
          23.7545639,
          37.8924228
        ]
      }
    },
    {
      "type": "Feature",
      "properties": {
        "type": "stop",
        "stop_code": "590049",
        "stop_id": "590049",
        "name": "ΑΡΓΟΝΑΥΤΩΝ",
        "order": "38"
      },
      "geometry": {
        "type": "Point",
        "coordinates": [
          23.7513569,
          37.892344
        ]
      }
    },
    {
      "type": "Feature",
      "properties": {
        "type": "stop",
        "stop_code": "590050",
        "stop_id": "590050",
        "name": "ΔΙΑΣΤΑΥΡΩΣΗ ΙΑΣΩΝΙΔΟΥ",
        "order": "39"
      },
      "geometry": {
        "type": "Point",
        "coordinates": [
          23.748548,
          37.8922749
        ]
      }
    },
    {
      "type": "Feature",
      "properties": {
        "type": "stop",
        "stop_code": "590028",
        "stop_id": "590028",
        "name": "ΓΕΦΥΡΑ",
        "order": "40"
      },
      "geometry": {
        "type": "Point",
        "coordinates": [
          23.7485343,
          37.889616
        ]
      }
    },
    {
      "type": "Feature",
      "properties": {
        "type": "stop",
        "stop_code": "160071",
        "stop_id": "160071",
        "name": "ΙΣΜΗΝΗΣ",
        "order": "41"
      },
      "geometry": {
        "type": "Point",
        "coordinates": [
          23.7501012,
          37.8870056
        ]
      }
    },
    {
      "type": "Feature",
      "properties": {
        "type": "stop",
        "stop_code": "160283",
        "stop_id": "160283",
        "name": "ΗΛΕΙΑΣ",
        "order": "42"
      },
      "geometry": {
        "type": "Point",
        "coordinates": [
          23.7480054,
          37.884747
        ]
      }
    },
    {
      "type": "Feature",
      "properties": {
        "type": "stop",
        "stop_code": "160305",
        "stop_id": "160305",
        "name": "ΑΙΔΙΝΙΟΥ",
        "order": "43"
      },
      "geometry": {
        "type": "Point",
        "coordinates": [
          23.7454074,
          37.8828315
        ]
      }
    },
    {
      "type": "Feature",
      "properties": {
        "type": "stop",
        "stop_code": "160229",
        "stop_id": "160229",
        "name": "ΠΕΡΓΑΜΟΥ",
        "order": "44"
      },
      "geometry": {
        "type": "Point",
        "coordinates": [
          23.7461853,
          37.8797018
        ]
      }
    },
    {
      "type": "Feature",
      "properties": {
        "type": "stop",
        "stop_code": "160097",
        "stop_id": "160097",
        "name": "ΔΗΜΟΚΡΑΤΙΑΣ",
        "order": "45"
      },
      "geometry": {
        "type": "Point",
        "coordinates": [
          23.7473744,
          37.8805862
        ]
      }
    },
    {
      "type": "Feature",
      "properties": {
        "type": "stop",
        "stop_code": "160284",
        "stop_id": "160284",
        "name": "ΡΕΘΥΜΝΟΥ",
        "order": "46"
      },
      "geometry": {
        "type": "Point",
        "coordinates": [
          23.7493336,
          37.8819657
        ]
      }
    },
    {
      "type": "Feature",
      "properties": {
        "type": "stop",
        "stop_code": "160220",
        "stop_id": "160220",
        "name": "ΡΟΔΟΠΗΣ",
        "order": "47"
      },
      "geometry": {
        "type": "Point",
        "coordinates": [
          23.7519097,
          37.8835214
        ]
      }
    },
    {
      "type": "Feature",
      "properties": {
        "type": "stop",
        "stop_code": "160216",
        "stop_id": "160216",
        "name": "ΤΡΟΧΑΙΑ",
        "order": "48"
      },
      "geometry": {
        "type": "Point",
        "coordinates": [
          23.7532934,
          37.881217
        ]
      }
    },
    {
      "type": "Feature",
      "properties": {
        "type": "stop",
        "stop_code": "160224",
        "stop_id": "160224",
        "name": "ΚΑΡΑΓΙΩΡΓΑ",
        "order": "49"
      },
      "geometry": {
        "type": "Point",
        "coordinates": [
          23.7543692,
          37.8791372
        ]
      }
    },
    {
      "type": "Feature",
      "properties": {
        "type": "stop",
        "stop_code": "160124",
        "stop_id": "160124",
        "name": "2η ΣΑΚΗ ΚΑΡΑΓΙΩΡΓΑ",
        "order": "50"
      },
      "geometry": {
        "type": "Point",
        "coordinates": [
          23.7537535,
          37.8762067
        ]
      }
    },
    {
      "type": "Feature",
      "properties": {
        "type": "stop",
        "stop_code": "160125",
        "stop_id": "160125",
        "name": "3η ΣΑΚΗ ΚΑΡΑΓΙΩΡΓΑ",
        "order": "51"
      },
      "geometry": {
        "type": "Point",
        "coordinates": [
          23.7530306,
          37.8747631
        ]
      }
    },
    {
      "type": "Feature",
      "properties": {
        "type": "stop",
        "stop_code": "160126",
        "stop_id": "160126",
        "name": "4η ΣΑΚΗ ΚΑΡΑΓΙΩΡΓΑ",
        "order": "52"
      },
      "geometry": {
        "type": "Point",
        "coordinates": [
          23.751402,
          37.8721639
        ]
      }
    },
    {
      "type": "Feature",
      "properties": {
        "type": "stop",
        "stop_code": "160127",
        "stop_id": "160127",
        "name": "5η ΣΑΚΗ ΚΑΡΑΓΙΩΡΓΑ",
        "order": "53"
      },
      "geometry": {
        "type": "Point",
        "coordinates": [
          23.7497709,
          37.8703398
        ]
      }
    },
    {
      "type": "Feature",
      "properties": {
        "type": "stop",
        "stop_code": "160128",
        "stop_id": "160128",
        "name": "6η ΣΑΚΗ ΚΑΡΑΓΙΩΡΓΑ",
        "order": "54"
      },
      "geometry": {
        "type": "Point",
        "coordinates": [
          23.7472781,
          37.8678379
        ]
      }
    },
    {
      "type": "Feature",
      "properties": {
        "type": "stop",
        "stop_code": "160129",
        "stop_id": "160129",
        "name": "ΑΓ. ΚΩΝΣΤΑΝΤΙΝΟΣ",
        "order": "55"
      },
      "geometry": {
        "type": "Point",
        "coordinates": [
          23.7458255,
          37.8662387
        ]
      }
    },
    {
      "type": "Feature",
      "properties": {
        "type": "stop",
        "stop_code": "160230",
        "stop_id": "160230",
        "name": "ΝΑΥΣΙΚΑ",
        "order": "56"
      },
      "geometry": {
        "type": "Point",
        "coordinates": [
          23.7419027,
          37.8700191
        ]
      }
    },
    {
      "type": "Feature",
      "properties": {
        "type": "stop",
        "stop_code": "10284",
        "stop_id": "83",
        "name": "ΓΛΥΦΑΔΑ",
        "order": "57"
      },
      "geometry": {
        "type": "Point",
        "coordinates": [
          23.740379,
          37.8728805
        ]
      }
    }
  ]
}