{
  "type": "FeatureCollection",
  "features": [
    {
      "type": "Feature",
      "properties": {
        "type": "route_path",
        "route_code": "2029",
        "descr": "ΜΟΥΣΕΙΟ - ΣΤ. ΧΑΛΑΝΔΡΙΟΥ [ΣΙΔΕΡΑ]  "
      },
      "geometry": {
        "type": "LineString",
        "coordinates": [
          [
            23.73189,
            37.98977
          ],
          [
            23.73361,
            37.98951
          ],
          [
            23.7341,
            37.99122
          ],
          [
            23.74233,
            37.99001
          ],
          [
            23.76136,
            37.9865
          ],
          [
            23.76155,
            37.98663
          ],
          [
            23.76214,
            37.98725
          ],
          [
            23.76281,
            37.98777
          ],
          [
            23.76307,
            37.98794
          ],
          [
            23.76561,
            37.99071
          ],
          [
            23.76609,
            37.99137
          ],
          [
            23.76669,
            37.99258
          ],
          [
            23.76684,
            37.99281
          ],
          [
            23.76917,
            37.99757
          ],
          [
            23.76962,
            37.99826
          ],
          [
            23.77017,
            37.99885
          ],
          [
            23.77184,
            38.00024
          ],
          [
            23.77337,
            38.00192
          ],
          [
            23.77366,
            38.00219
          ],
          [
            23.77649,
            38.00602
          ],
          [
            23.77746,
            38.00696
          ],
          [
            23.77962,
            38.00936
          ],
          [
            23.78019,
            38.00978
          ],
          [
            23.78087,
            38.01077
          ],
          [
            23.78834,
            38.01916
          ],
          [
            23.78895,
            38.02039
          ],
          [
            23.78946,
            38.0218
          ],
          [
            23.78965,
            38.02326
          ],
          [
            23.78957,
            38.02375
          ],
          [
            23.78981,
            38.02446
          ],
          [
            23.79048,
            38.02435
          ],
          [
            23.7916,
            38.02388
          ],
          [
            23.79499,
            38.02265
          ],
          [
            23.79727,
            38.02189
          ],
          [
            23.79645,
            38.02024
          ],
          [
            23.79605,
            38.01885
          ],
          [
            23.79579,
            38.01798
          ],
          [
            23.79608,
            38.01777
          ],
          [
            23.7966,
            38.01749
          ],
          [
            23.79741,
            38.01725
          ],
          [
            23.79947,
            38.01727
          ],
          [
            23.8211,
            38.02168
          ]
        ]
      }
    },
    {
      "type": "Feature",
      "properties": {
        "type": "stop",
        "stop_code": "10191",
        "stop_id": "32",
        "name": "ΜΟΥΣΕΙΟ",
        "order": "1"
      },
      "geometry": {
        "type": "Point",
        "coordinates": [
          23.7326805,
          37.989501
        ]
      }
    },
    {
      "type": "Feature",
      "properties": {
        "type": "stop",
        "stop_code": "60034",
        "stop_id": "060034",
        "name": "ΑΓ. ΒΑΣΙΛΕΙΟΣ",
        "order": "2"
      },
      "geometry": {
        "type": "Point",
        "coordinates": [
          23.7339583,
          37.9905888
        ]
      }
    },
    {
      "type": "Feature",
      "properties": {
        "type": "stop",
        "stop_code": "60035",
        "stop_id": "060035",
        "name": "ΠΑΡΚΟ",
        "order": "3"
      },
      "geometry": {
        "type": "Point",
        "coordinates": [
          23.7372638,
          37.9906911
        ]
      }
    },
    {
      "type": "Feature",
      "properties": {
        "type": "stop",
        "stop_code": "60036",
        "stop_id": "060036",
        "name": "ΒΡΑΙΛΑ",
        "order": "4"
      },
      "geometry": {
        "type": "Point",
        "coordinates": [
          23.7389663,
          37.9903687
        ]
      }
    },
    {
      "type": "Feature",
      "properties": {
        "type": "stop",
        "stop_code": "60068",
        "stop_id": "060068",
        "name": "ΣΟΝΙΑ",
        "order": "5"
      },
      "geometry": {
        "type": "Point",
        "coordinates": [
          23.7413429,
          37.9900219
        ]
      }
    },
    {
      "type": "Feature",
      "properties": {
        "type": "stop",
        "stop_code": "60069",
        "stop_id": "060069",
        "name": "ΠΑΝΑΘΗΝΑΙΑ",
        "order": "6"
      },
      "geometry": {
        "type": "Point",
        "coordinates": [
          23.7448248,
          37.9894651
        ]
      }
    },
    {
      "type": "Feature",
      "properties": {
        "type": "stop",
        "stop_code": "60071",
        "stop_id": "060071",
        "name": "ΙΠΠΟΚΡΑΤΟΥΣ",
        "order": "7"
      },
      "geometry": {
        "type": "Point",
        "coordinates": [
          23.7482542,
          37.9888542
        ]
      }
    },
    {
      "type": "Feature",
      "properties": {
        "type": "stop",
        "stop_code": "60072",
        "stop_id": "060072",
        "name": "ΙΚΑ",
        "order": "8"
      },
      "geometry": {
        "type": "Point",
        "coordinates": [
          23.7523352,
          37.9880563
        ]
      }
    },
    {
      "type": "Feature",
      "properties": {
        "type": "stop",
        "stop_code": "60073",
        "stop_id": "060073",
        "name": "ΣΤ. ΑΜΠΕΛΟΚΗΠΟΙ",
        "order": "9"
      },
      "geometry": {
        "type": "Point",
        "coordinates": [
          23.7570458,
          37.9871943
        ]
      }
    },
    {
      "type": "Feature",
      "properties": {
        "type": "stop",
        "stop_code": "60598",
        "stop_id": "060598",
        "name": "ΑΜΠΕΛΟΚΗΠΟΙ",
        "order": "10"
      },
      "geometry": {
        "type": "Point",
        "coordinates": [
          23.7629466,
          37.9877954
        ]
      }
    },
    {
      "type": "Feature",
      "properties": {
        "type": "stop",
        "stop_code": "60601",
        "stop_id": "060601",
        "name": "ΖΕΡΒΑ",
        "order": "11"
      },
      "geometry": {
        "type": "Point",
        "coordinates": [
          23.7646045,
          37.9893773
        ]
      }
    },
    {
      "type": "Feature",
      "properties": {
        "type": "stop",
        "stop_code": "60603",
        "stop_id": "060603",
        "name": "ΕΡΥΘΡΟΣ ΣΤΑΥΡΟΣ",
        "order": "12"
      },
      "geometry": {
        "type": "Point",
        "coordinates": [
          23.7666903,
          37.9924188
        ]
      }
    },
    {
      "type": "Feature",
      "properties": {
        "type": "stop",
        "stop_code": "60604",
        "stop_id": "060604",
        "name": "ΓΗΡΟΚΟΜΕΙΟ",
        "order": "13"
      },
      "geometry": {
        "type": "Point",
        "coordinates": [
          23.7683769,
          37.9956938
        ]
      }
    },
    {
      "type": "Feature",
      "properties": {
        "type": "stop",
        "stop_code": "60605",
        "stop_id": "060605",
        "name": "ΚΑΤΕΧΑΚΗ",
        "order": "14"
      },
      "geometry": {
        "type": "Point",
        "coordinates": [
          23.770535,
          37.9990617
        ]
      }
    },
    {
      "type": "Feature",
      "properties": {
        "type": "stop",
        "stop_code": "690015",
        "stop_id": "690015",
        "name": "ΣΚΑΛΑΚΙΑ",
        "order": "15"
      },
      "geometry": {
        "type": "Point",
        "coordinates": [
          23.7738264,
          38.0022585
        ]
      }
    },
    {
      "type": "Feature",
      "properties": {
        "type": "stop",
        "stop_code": "690008",
        "stop_id": "690008",
        "name": "ΦΑΡΟΣ",
        "order": "16"
      },
      "geometry": {
        "type": "Point",
        "coordinates": [
          23.7762627,
          38.0054339
        ]
      }
    },
    {
      "type": "Feature",
      "properties": {
        "type": "stop",
        "stop_code": "690017",
        "stop_id": "690017",
        "name": "ΠΑΡΙΤΣΗ",
        "order": "17"
      },
      "geometry": {
        "type": "Point",
        "coordinates": [
          23.7775786,
          38.0070034
        ]
      }
    },
    {
      "type": "Feature",
      "properties": {
        "type": "stop",
        "stop_code": "480049",
        "stop_id": "480049",
        "name": "ΑΓ. ΒΑΡΒΑΡΑ",
        "order": "18"
      },
      "geometry": {
        "type": "Point",
        "coordinates": [
          23.780975,
          38.0107545
        ]
      }
    },
    {
      "type": "Feature",
      "properties": {
        "type": "stop",
        "stop_code": "480143",
        "stop_id": "480143",
        "name": "ΑΡΣΑΚΕΙΟ",
        "order": "19"
      },
      "geometry": {
        "type": "Point",
        "coordinates": [
          23.782473,
          38.0123314
        ]
      }
    },
    {
      "type": "Feature",
      "properties": {
        "type": "stop",
        "stop_code": "480050",
        "stop_id": "480050",
        "name": "ΑΒΑΝΑ",
        "order": "20"
      },
      "geometry": {
        "type": "Point",
        "coordinates": [
          23.7838242,
          38.013848
        ]
      }
    },
    {
      "type": "Feature",
      "properties": {
        "type": "stop",
        "stop_code": "480051",
        "stop_id": "480051",
        "name": "ΚΟΛΛΕΓΙΟ",
        "order": "21"
      },
      "geometry": {
        "type": "Point",
        "coordinates": [
          23.7851301,
          38.0152564
        ]
      }
    },
    {
      "type": "Feature",
      "properties": {
        "type": "stop",
        "stop_code": "480052",
        "stop_id": "480052",
        "name": "ΣΕΡΡΩΝ",
        "order": "22"
      },
      "geometry": {
        "type": "Point",
        "coordinates": [
          23.7867198,
          38.0170529
        ]
      }
    },
    {
      "type": "Feature",
      "properties": {
        "type": "stop",
        "stop_code": "480053",
        "stop_id": "480053",
        "name": "ΣΙΔΕΡΑ",
        "order": "23"
      },
      "geometry": {
        "type": "Point",
        "coordinates": [
          23.7888534,
          38.0199228
        ]
      }
    },
    {
      "type": "Feature",
      "properties": {
        "type": "stop",
        "stop_code": "481202",
        "stop_id": "481202",
        "name": "ΠΑΠΑΝΙΚΟΛΗ",
        "order": "24"
      },
      "geometry": {
        "type": "Point",
        "coordinates": [
          23.7898236,
          38.0232773
        ]
      }
    },
    {
      "type": "Feature",
      "properties": {
        "type": "stop",
        "stop_code": "480055",
        "stop_id": "480055",
        "name": "ΚΑΛΒΟΥ",
        "order": "25"
      },
      "geometry": {
        "type": "Point",
        "coordinates": [
          23.7913942,
          38.0238659
        ]
      }
    },
    {
      "type": "Feature",
      "properties": {
        "type": "stop",
        "stop_code": "480056",
        "stop_id": "480056",
        "name": "ΒΕΝΖΙΝΑ",
        "order": "26"
      },
      "geometry": {
        "type": "Point",
        "coordinates": [
          23.7945764,
          38.0226458
        ]
      }
    },
    {
      "type": "Feature",
      "properties": {
        "type": "stop",
        "stop_code": "480165",
        "stop_id": "480165",
        "name": "ΠΛ. ΧΑΛΑΝΔΡΙΟΥ",
        "order": "27"
      },
      "geometry": {
        "type": "Point",
        "coordinates": [
          23.7967887,
          38.0219016
        ]
      }
    },
    {
      "type": "Feature",
      "properties": {
        "type": "stop",
        "stop_code": "480043",
        "stop_id": "480043",
        "name": "ΟΜΗΡΟΥ",
        "order": "28"
      },
      "geometry": {
        "type": "Point",
        "coordinates": [
          23.7961227,
          38.0196652
        ]
      }
    },
    {
      "type": "Feature",
      "properties": {
        "type": "stop",
        "stop_code": "480096",
        "stop_id": "480096",
        "name": "ΠΑΠΑΝΙΚΟΛΗ",
        "order": "29"
      },
      "geometry": {
        "type": "Point",
        "coordinates": [
          23.7962769,
          38.0174754
        ]
      }
    },
    {
      "type": "Feature",
      "properties": {
        "type": "stop",
        "stop_code": "480007",
        "stop_id": "480007",
        "name": "ΑΡΙΣΤΟΤΕΛΟΥΣ",
        "order": "30"
      },
      "geometry": {
        "type": "Point",
        "coordinates": [
          23.8015628,
          38.0175565
        ]
      }
    },
    {
      "type": "Feature",
      "properties": {
        "type": "stop",
        "stop_code": "480118",
        "stop_id": "480118",
        "name": "ΥΨΗΛΑΝΤΟΥ",
        "order": "31"
      },
      "geometry": {
        "type": "Point",
        "coordinates": [
          23.8045346,
          38.0181924
        ]
      }
    },
    {
      "type": "Feature",
      "properties": {
        "type": "stop",
        "stop_code": "480061",
        "stop_id": "480061",
        "name": "ΠΛ. ΦΛΥΑΣ",
        "order": "32"
      },
      "geometry": {
        "type": "Point",
        "coordinates": [
          23.8078998,
          38.0189555
        ]
      }
    },
    {
      "type": "Feature",
      "properties": {
        "type": "stop",
        "stop_code": "480062",
        "stop_id": "480062",
        "name": "ΘΗΣΕΩΣ",
        "order": "33"
      },
      "geometry": {
        "type": "Point",
        "coordinates": [
          23.809731,
          38.0193323
        ]
      }
    },
    {
      "type": "Feature",
      "properties": {
        "type": "stop",
        "stop_code": "480282",
        "stop_id": "480282",
        "name": "ΘΕΣΣΑΛΟΝΙΚΗΣ",
        "order": "34"
      },
      "geometry": {
        "type": "Point",
        "coordinates": [
          23.8109824,
          38.0195798
        ]
      }
    },
    {
      "type": "Feature",
      "properties": {
        "type": "stop",
        "stop_code": "480074",
        "stop_id": "480074",
        "name": "ΤΥΜΦΡΗΣΤΟΥ",
        "order": "35"
      },
      "geometry": {
        "type": "Point",
        "coordinates": [
          23.815215,
          38.020535
        ]
      }
    },
    {
      "type": "Feature",
      "properties": {
        "type": "stop",
        "stop_code": "10355",
        "stop_id": "000150",
        "name": "ΣΤ. ΧΑΛΑΝΔΡΙ",
        "order": "36"
      },
      "geometry": {
        "type": "Point",
        "coordinates": [
          23.821326,
          38.0217835
        ]
      }
    }
  ]
}