{
  "type": "FeatureCollection",
  "properties": {
    "LineCode": "1442",
    "LineID": "842",
    "LineDescr": "ΠΕΡΑΜΑ - ΣΤ. ΚΟΡΥΔΑΛΛΟΣ (ΑΠΟ ΟΜΟΝΟΙΑ ΕΩΣ ΠΕΡΑΜΑ)",
    "RouteCode": "4031",
    "RouteDescr": "ΠΕΡΑΜΑ - ΣΤ. ΚΟΡΥΔΑΛΛΟΣ [ΟΜΟΝΟΙΑ ΕΩΣ ΠΕΡΑΜΑ]",
    "RouteType": "1"
  },
  "features": [
    {
      "type": "Feature",
      "geometry": {
        "type": "LineString",
        "coordinates": [
          [
            23.72519,
            37.98308
          ],
          [
            23.72517,
            37.98307
          ],
          [
            23.72514,
            37.98304
          ],
          [
            23.7251,
            37.98281
          ],
          [
            23.72494,
            37.98271
          ],
          [
            23.72124,
            37.98109
          ],
          [
            23.72021,
            37.98064
          ],
          [
            23.71959,
            37.98033
          ],
          [
            23.71776,
            37.97957
          ],
          [
            23.71707,
            37.97926
          ],
          [
            23.71633,
            37.97884
          ],
          [
            23.71512,
            37.97799
          ],
          [
            23.71298,
            37.97697
          ],
          [
            23.71141,
            37.97618
          ],
          [
            23.70784,
            37.97372
          ],
          [
            23.70758,
            37.9736
          ],
          [
            23.70631,
            37.97482
          ],
          [
            23.70594,
            37.97509
          ],
          [
            23.70553,
            37.97523
          ],
          [
            23.70273,
            37.97548
          ],
          [
            23.69875,
            37.97573
          ],
          [
            23.69735,
            37.97578
          ],
          [
            23.69247,
            37.97599
          ],
          [
            23.68232,
            37.97657
          ],
          [
            23.68132,
            37.97661
          ],
          [
            23.67766,
            37.97644
          ],
          [
            23.67291,
            37.97628
          ],
          [
            23.67155,
            37.97628
          ],
          [
            23.66968,
            37.97651
          ],
          [
            23.66918,
            37.97666
          ],
          [
            23.66871,
            37.97675
          ],
          [
            23.66818,
            37.97669
          ],
          [
            23.66733,
            37.97637
          ],
          [
            23.6669,
            37.97636
          ],
          [
            23.65743,
            37.97997
          ],
          [
            23.65462,
            37.98099
          ],
          [
            23.65394,
            37.98123
          ],
          [
            23.65324,
            37.98132
          ],
          [
            23.65248,
            37.98131
          ],
          [
            23.63616,
            37.97819
          ],
          [
            23.62967,
            37.97788
          ],
          [
            23.62895,
            37.9778
          ],
          [
            23.6286,
            37.97771
          ],
          [
            23.62785,
            37.97715
          ],
          [
            23.61387,
            37.96452
          ],
          [
            23.61376,
            37.9644
          ],
          [
            23.61235,
            37.96316
          ],
          [
            23.61193,
            37.96166
          ],
          [
            23.61181,
            37.96164
          ],
          [
            23.6109,
            37.96214
          ],
          [
            23.61058,
            37.96225
          ],
          [
            23.60875,
            37.96236
          ],
          [
            23.60641,
            37.9624
          ],
          [
            23.60468,
            37.9626
          ],
          [
            23.59989,
            37.9622
          ],
          [
            23.59795,
            37.96219
          ],
          [
            23.59704,
            37.9621
          ],
          [
            23.59612,
            37.96217
          ],
          [
            23.59516,
            37.96234
          ],
          [
            23.59418,
            37.96243
          ],
          [
            23.59384,
            37.96243
          ],
          [
            23.59333,
            37.96226
          ],
          [
            23.59269,
            37.96217
          ],
          [
            23.5921,
            37.96215
          ],
          [
            23.59136,
            37.96213
          ],
          [
            23.59055,
            37.96228
          ],
          [
            23.58918,
            37.96254
          ],
          [
            23.5879,
            37.9628
          ],
          [
            23.58685,
            37.9627
          ],
          [
            23.58623,
            37.96278
          ],
          [
            23.58464,
            37.96302
          ],
          [
            23.58402,
            37.96308
          ],
          [
            23.58371,
            37.96301
          ],
          [
            23.58328,
            37.96289
          ],
          [
            23.58253,
            37.96262
          ],
          [
            23.58199,
            37.96245
          ],
          [
            23.58151,
            37.96239
          ],
          [
            23.58105,
            37.96247
          ],
          [
            23.56852,
            37.9642
          ],
          [
            23.56767,
            37.96422
          ],
          [
            23.56582,
            37.96405
          ],
          [
            23.56335,
            37.96434
          ],
          [
            23.56301,
            37.96442
          ],
          [
            23.56272,
            37.9645
          ],
          [
            23.56244,
            37.96482
          ],
          [
            23.56226,
            37.96496
          ],
          [
            23.562,
            37.96489
          ],
          [
            23.56202,
            37.96469
          ],
          [
            23.56213,
            37.96454
          ],
          [
            23.56208,
            37.96417
          ],
          [
            23.562,
            37.96386
          ],
          [
            23.56161,
            37.96392
          ],
          [
            23.56055,
            37.96406
          ],
          [
            23.55984,
            37.96417
          ],
          [
            23.55907,
            37.96423
          ],
          [
            23.55815,
            37.96417
          ],
          [
            23.55804,
            37.96413
          ],
          [
            23.558,
            37.96406
          ],
          [
            23.55805,
            37.96398
          ],
          [
            23.55836,
            37.96389
          ],
          [
            23.55873,
            37.96391
          ]
        ]
      },
      "properties": {
        "type": "route_path",
        "RouteCode": "4031"
      }
    },
    {
      "type": "Feature",
      "geometry": {
        "type": "Point",
        "coordinates": [
          23.725129,
          37.9832245
        ]
      },
      "properties": {
        "type": "stop",
        "StopCode": "10397",
        "StopID": "182",
        "StopDescr": "ΟΜΟΝΟΙΑ",
        "StopOrder": "1",
        "StopType": "0"
      }
    },
    {
      "type": "Feature",
      "geometry": {
        "type": "Point",
        "coordinates": [
          23.7225425,
          37.981787
        ]
      },
      "properties": {
        "type": "stop",
        "StopCode": "60281",
        "StopID": "060281",
        "StopDescr": "ΙΚΑ",
        "StopOrder": "2",
        "StopType": "0"
      }
    },
    {
      "type": "Feature",
      "geometry": {
        "type": "Point",
        "coordinates": [
          23.7198824,
          37.9806
        ]
      },
      "properties": {
        "type": "stop",
        "StopCode": "60282",
        "StopID": "060282",
        "StopDescr": "ΘΕΡΜΟΠΥΛΩΝ",
        "StopOrder": "3",
        "StopType": "0"
      }
    },
    {
      "type": "Feature",
      "geometry": {
        "type": "Point",
        "coordinates": [
          23.7153596,
          37.9782368
        ]
      },
      "properties": {
        "type": "stop",
        "StopCode": "60283",
        "StopID": "060283",
        "StopDescr": "ΠΑΛΑΙΑ ΑΓΟΡΑ",
        "StopOrder": "4",
        "StopType": "0"
      }
    },
    {
      "type": "Feature",
      "geometry": {
        "type": "Point",
        "coordinates": [
          23.7129391,
          37.9770141
        ]
      },
      "properties": {
        "type": "stop",
        "StopCode": "60284",
        "StopID": "060284",
        "StopDescr": "ΦΩΤΑΕΡΙΟ",
        "StopOrder": "5",
        "StopType": "0"
      }
    },
    {
      "type": "Feature",
      "geometry": {
        "type": "Point",
        "coordinates": [
          23.7098717,
          37.9752581
        ]
      },
      "properties": {
        "type": "stop",
        "StopCode": "60285",
        "StopID": "060285",
        "StopDescr": "ΚΑΜΠΑ",
        "StopOrder": "6",
        "StopType": "0"
      }
    },
    {
      "type": "Feature",
      "geometry": {
        "type": "Point",
        "coordinates": [
          23.7084634,
          37.9743533
        ]
      },
      "properties": {
        "type": "stop",
        "StopCode": "61108",
        "StopID": "061108",
        "StopDescr": "ΠΕΤΡΟΥ ΡΑΛΛΗ",
        "StopOrder": "7",
        "StopType": "0"
      }
    },
    {
      "type": "Feature",
      "geometry": {
        "type": "Point",
        "coordinates": [
          23.7022347,
          37.9755756
        ]
      },
      "properties": {
        "type": "stop",
        "StopCode": "60307",
        "StopID": "060307",
        "StopDescr": "ΡΟΥΦ",
        "StopOrder": "8",
        "StopType": "0"
      }
    },
    {
      "type": "Feature",
      "geometry": {
        "type": "Point",
        "coordinates": [
          23.6996759,
          37.9757679
        ]
      },
      "properties": {
        "type": "stop",
        "StopCode": "60308",
        "StopID": "060308",
        "StopDescr": "ΨΥΓΕΙΑ",
        "StopOrder": "9",
        "StopType": "0"
      }
    },
    {
      "type": "Feature",
      "geometry": {
        "type": "Point",
        "coordinates": [
          23.6956248,
          37.975927
        ]
      },
      "properties": {
        "type": "stop",
        "StopCode": "60309",
        "StopID": "060309",
        "StopDescr": "ΑΣΤΥ",
        "StopOrder": "10",
        "StopType": "0"
      }
    },
    {
      "type": "Feature",
      "geometry": {
        "type": "Point",
        "coordinates": [
          23.6923813,
          37.9760092
        ]
      },
      "properties": {
        "type": "stop",
        "StopCode": "60310",
        "StopID": "060310",
        "StopDescr": "ΑΜΑΞΟΣΤΑΣΙΟ Ε.ΘΕ.Λ.",
        "StopOrder": "11",
        "StopType": "0"
      }
    },
    {
      "type": "Feature",
      "geometry": {
        "type": "Point",
        "coordinates": [
          23.6882244,
          37.9763264
        ]
      },
      "properties": {
        "type": "stop",
        "StopCode": "60311",
        "StopID": "060311",
        "StopDescr": "ΠΑΠΑΔΟΠΟΥΛΟΥ",
        "StopOrder": "12",
        "StopType": "0"
      }
    },
    {
      "type": "Feature",
      "geometry": {
        "type": "Point",
        "coordinates": [
          23.6847647,
          37.9765375
        ]
      },
      "properties": {
        "type": "stop",
        "StopCode": "70031",
        "StopID": "070031",
        "StopDescr": "ΑΓ. ΑΝΝΗΣ",
        "StopOrder": "13",
        "StopType": "0"
      }
    },
    {
      "type": "Feature",
      "geometry": {
        "type": "Point",
        "coordinates": [
          23.6814147,
          37.9766723
        ]
      },
      "properties": {
        "type": "stop",
        "StopCode": "70032",
        "StopID": "070032",
        "StopDescr": "ΜΑΡΜΑΡΑΔΙΚΑ",
        "StopOrder": "14",
        "StopType": "0"
      }
    },
    {
      "type": "Feature",
      "geometry": {
        "type": "Point",
        "coordinates": [
          23.679044,
          37.9766291
        ]
      },
      "properties": {
        "type": "stop",
        "StopCode": "70139",
        "StopID": "070139",
        "StopDescr": "ΟΑΕΔ",
        "StopOrder": "15",
        "StopType": "0"
      }
    },
    {
      "type": "Feature",
      "geometry": {
        "type": "Point",
        "coordinates": [
          23.6752827,
          37.9764123
        ]
      },
      "properties": {
        "type": "stop",
        "StopCode": "70033",
        "StopID": "070033",
        "StopDescr": "ΚΑΝ ΚΑΝ",
        "StopOrder": "16",
        "StopType": "0"
      }
    },
    {
      "type": "Feature",
      "geometry": {
        "type": "Point",
        "coordinates": [
          23.6724493,
          37.9763763
        ]
      },
      "properties": {
        "type": "stop",
        "StopCode": "70034",
        "StopID": "070034",
        "StopDescr": "ΦΙΞ",
        "StopOrder": "17",
        "StopType": "0"
      }
    },
    {
      "type": "Feature",
      "geometry": {
        "type": "Point",
        "coordinates": [
          23.6661315,
          37.9767644
        ]
      },
      "properties": {
        "type": "stop",
        "StopCode": "370035",
        "StopID": "370035",
        "StopDescr": "Γ ΝΕΚΡΟΤΑΦΕΙΟ",
        "StopOrder": "18",
        "StopType": "0"
      }
    },
    {
      "type": "Feature",
      "geometry": {
        "type": "Point",
        "coordinates": [
          23.663565,
          37.9777665
        ]
      },
      "properties": {
        "type": "stop",
        "StopCode": "370038",
        "StopID": "370038",
        "StopDescr": "ΠΑΤΜΟΥ",
        "StopOrder": "19",
        "StopType": "0"
      }
    },
    {
      "type": "Feature",
      "geometry": {
        "type": "Point",
        "coordinates": [
          23.6613219,
          37.9785184
        ]
      },
      "properties": {
        "type": "stop",
        "StopCode": "370039",
        "StopID": "370039",
        "StopDescr": "ΠΛ. ΑΡΕΩΣ",
        "StopOrder": "20",
        "StopType": "0"
      }
    },
    {
      "type": "Feature",
      "geometry": {
        "type": "Point",
        "coordinates": [
          23.6575524,
          37.9799797
        ]
      },
      "properties": {
        "type": "stop",
        "StopCode": "280024",
        "StopID": "280024",
        "StopDescr": "ΕΡΕΧΘΕΙΟΥ",
        "StopOrder": "21",
        "StopType": "0"
      }
    },
    {
      "type": "Feature",
      "geometry": {
        "type": "Point",
        "coordinates": [
          23.6551699,
          37.9809328
        ]
      },
      "properties": {
        "type": "stop",
        "StopCode": "280124",
        "StopID": "280124",
        "StopDescr": "ΤΑΞΙΑΡΧΩΝ",
        "StopOrder": "22",
        "StopType": "0"
      }
    },
    {
      "type": "Feature",
      "geometry": {
        "type": "Point",
        "coordinates": [
          23.6524806,
          37.9813485
        ]
      },
      "properties": {
        "type": "stop",
        "StopCode": "280025",
        "StopID": "280025",
        "StopDescr": "ΠΝΕΥΜΑΤΙΚΟ ΚΕΝΤΡΟ",
        "StopOrder": "23",
        "StopType": "0"
      }
    },
    {
      "type": "Feature",
      "geometry": {
        "type": "Point",
        "coordinates": [
          23.6485098,
          37.9806878
        ]
      },
      "properties": {
        "type": "stop",
        "StopCode": "280005",
        "StopID": "280005",
        "StopDescr": "ΣΟΛΩΜΟΥ",
        "StopOrder": "24",
        "StopType": "0"
      }
    },
    {
      "type": "Feature",
      "geometry": {
        "type": "Point",
        "coordinates": [
          23.6461322,
          37.9802029
        ]
      },
      "properties": {
        "type": "stop",
        "StopCode": "280006",
        "StopID": "280006",
        "StopDescr": "ΔΗΜΑΡΧΕΙΟ",
        "StopOrder": "25",
        "StopType": "0"
      }
    },
    {
      "type": "Feature",
      "geometry": {
        "type": "Point",
        "coordinates": [
          23.6436067,
          37.9797267
        ]
      },
      "properties": {
        "type": "stop",
        "StopCode": "280007",
        "StopID": "280007",
        "StopDescr": "ΡΙΟ",
        "StopOrder": "26",
        "StopType": "0"
      }
    },
    {
      "type": "Feature",
      "geometry": {
        "type": "Point",
        "coordinates": [
          23.6400232,
          37.9790488
        ]
      },
      "properties": {
        "type": "stop",
        "StopCode": "370040",
        "StopID": "370040",
        "StopDescr": "ΚΟΡΥΔΑΛΛΟΣ",
        "StopOrder": "27",
        "StopType": "0"
      }
    },
    {
      "type": "Feature",
      "geometry": {
        "type": "Point",
        "coordinates": [
          23.6352678,
          37.978205
        ]
      },
      "properties": {
        "type": "stop",
        "StopCode": "370041",
        "StopID": "370041",
        "StopDescr": "ΓΗΠΕΔΟ",
        "StopOrder": "28",
        "StopType": "0"
      }
    },
    {
      "type": "Feature",
      "geometry": {
        "type": "Point",
        "coordinates": [
          23.6325473,
          37.9780343
        ]
      },
      "properties": {
        "type": "stop",
        "StopCode": "370042",
        "StopID": "370042",
        "StopDescr": "ΚΟΡΑΗ",
        "StopOrder": "29",
        "StopType": "0"
      }
    },
    {
      "type": "Feature",
      "geometry": {
        "type": "Point",
        "coordinates": [
          23.629735,
          37.9780074
        ]
      },
      "properties": {
        "type": "stop",
        "StopCode": "370043",
        "StopID": "370043",
        "StopDescr": "ΣΑΜΟΥ",
        "StopOrder": "30",
        "StopType": "0"
      }
    },
    {
      "type": "Feature",
      "geometry": {
        "type": "Point",
        "coordinates": [
          23.6270327,
          37.9765118
        ]
      },
      "properties": {
        "type": "stop",
        "StopCode": "260001",
        "StopID": "260001",
        "StopDescr": "ΑΓ. ΑΝΤΩΝΙΟΣ",
        "StopOrder": "31",
        "StopType": "0"
      }
    },
    {
      "type": "Feature",
      "geometry": {
        "type": "Point",
        "coordinates": [
          23.6246072,
          37.9743229
        ]
      },
      "properties": {
        "type": "stop",
        "StopCode": "260002",
        "StopID": "260002",
        "StopDescr": "ΣΧΟΛΕΙΑ",
        "StopOrder": "32",
        "StopType": "0"
      }
    },
    {
      "type": "Feature",
      "geometry": {
        "type": "Point",
        "coordinates": [
          23.6219099,
          37.9718808
        ]
      },
      "properties": {
        "type": "stop",
        "StopCode": "260003",
        "StopID": "260003",
        "StopDescr": "ΜΑΚΡΥΓΙΑΝΝΗ",
        "StopOrder": "33",
        "StopType": "0"
      }
    },
    {
      "type": "Feature",
      "geometry": {
        "type": "Point",
        "coordinates": [
          23.6195074,
          37.96971
        ]
      },
      "properties": {
        "type": "stop",
        "StopCode": "260004",
        "StopID": "260004",
        "StopDescr": "ΠΑΙΔΙΚΗ ΣΤΕΓΗ",
        "StopOrder": "34",
        "StopType": "0"
      }
    },
    {
      "type": "Feature",
      "geometry": {
        "type": "Point",
        "coordinates": [
          23.6177058,
          37.9680368
        ]
      },
      "properties": {
        "type": "stop",
        "StopCode": "260005",
        "StopID": "260005",
        "StopDescr": "ΣΤΡΟΦΗ ΑΜΦΙΑΛΗΣ",
        "StopOrder": "35",
        "StopType": "0"
      }
    },
    {
      "type": "Feature",
      "geometry": {
        "type": "Point",
        "coordinates": [
          23.6161531,
          37.9666888
        ]
      },
      "properties": {
        "type": "stop",
        "StopCode": "260006",
        "StopID": "260006",
        "StopDescr": "ΑΣΤΡΟ",
        "StopOrder": "36",
        "StopType": "0"
      }
    },
    {
      "type": "Feature",
      "geometry": {
        "type": "Point",
        "coordinates": [
          23.6139889,
          37.964735
        ]
      },
      "properties": {
        "type": "stop",
        "StopCode": "260015",
        "StopID": "260015",
        "StopDescr": "ΣΙΔΕΡΑ",
        "StopOrder": "37",
        "StopType": "0"
      }
    },
    {
      "type": "Feature",
      "geometry": {
        "type": "Point",
        "coordinates": [
          23.6105293,
          37.9623532
        ]
      },
      "properties": {
        "type": "stop",
        "StopCode": "260130",
        "StopID": "260130",
        "StopDescr": "ΠΥΡΟΣΒΕΣΤΙΚΗ",
        "StopOrder": "38",
        "StopType": "0"
      }
    },
    {
      "type": "Feature",
      "geometry": {
        "type": "Point",
        "coordinates": [
          23.6060205,
          37.9624914
        ]
      },
      "properties": {
        "type": "stop",
        "StopCode": "410001",
        "StopID": "410001",
        "StopDescr": "ΙΚΟΝΙΟΥ",
        "StopOrder": "39",
        "StopType": "0"
      }
    },
    {
      "type": "Feature",
      "geometry": {
        "type": "Point",
        "coordinates": [
          23.6039894,
          37.9625802
        ]
      },
      "properties": {
        "type": "stop",
        "StopCode": "410077",
        "StopID": "410077",
        "StopDescr": "ΑΓ. ΣΩΤΗΡΑΣ",
        "StopOrder": "40",
        "StopType": "0"
      }
    },
    {
      "type": "Feature",
      "geometry": {
        "type": "Point",
        "coordinates": [
          23.6006186,
          37.9622854
        ]
      },
      "properties": {
        "type": "stop",
        "StopCode": "410002",
        "StopID": "410002",
        "StopDescr": "ΑΣΤΥΝΟΜΙΑ",
        "StopOrder": "41",
        "StopType": "0"
      }
    },
    {
      "type": "Feature",
      "geometry": {
        "type": "Point",
        "coordinates": [
          23.5977739,
          37.9621861
        ]
      },
      "properties": {
        "type": "stop",
        "StopCode": "410038",
        "StopID": "410038",
        "StopDescr": "ΗΡΩΩΝ ΠΟΛΥΤΕΧΝΕΙΟΥ",
        "StopOrder": "42",
        "StopType": "0"
      }
    },
    {
      "type": "Feature",
      "geometry": {
        "type": "Point",
        "coordinates": [
          23.5955598,
          37.9622756
        ]
      },
      "properties": {
        "type": "stop",
        "StopCode": "410028",
        "StopID": "410028",
        "StopDescr": "ΠΛΑΚΟΥΔΑ",
        "StopOrder": "43",
        "StopType": "0"
      }
    },
    {
      "type": "Feature",
      "geometry": {
        "type": "Point",
        "coordinates": [
          23.5863013,
          37.9628833
        ]
      },
      "properties": {
        "type": "stop",
        "StopCode": "410004",
        "StopID": "410004",
        "StopDescr": "ΔΙΥΛΙΣΤΗΡΙΑ SHELL",
        "StopOrder": "44",
        "StopType": "0"
      }
    },
    {
      "type": "Feature",
      "geometry": {
        "type": "Point",
        "coordinates": [
          23.5825456,
          37.9627078
        ]
      },
      "properties": {
        "type": "stop",
        "StopCode": "410005",
        "StopID": "410005",
        "StopDescr": "ΣΙΔΕΡΑ",
        "StopOrder": "45",
        "StopType": "0"
      }
    },
    {
      "type": "Feature",
      "geometry": {
        "type": "Point",
        "coordinates": [
          23.5801436,
          37.9626993
        ]
      },
      "properties": {
        "type": "stop",
        "StopCode": "410006",
        "StopID": "410006",
        "StopDescr": "ΠΛΑΖΑΚΗ",
        "StopOrder": "46",
        "StopType": "0"
      }
    },
    {
      "type": "Feature",
      "geometry": {
        "type": "Point",
        "coordinates": [
          23.5774889,
          37.9630864
        ]
      },
      "properties": {
        "type": "stop",
        "StopCode": "410007",
        "StopID": "410007",
        "StopDescr": "ΣΧΟΛΕΙΟ",
        "StopOrder": "47",
        "StopType": "0"
      }
    },
    {
      "type": "Feature",
      "geometry": {
        "type": "Point",
        "coordinates": [
          23.57447,
          37.963463
        ]
      },
      "properties": {
        "type": "stop",
        "StopCode": "410008",
        "StopID": "410008",
        "StopDescr": "ΑΓ. ΝΙΚΟΛΑΟΣ",
        "StopOrder": "48",
        "StopType": "0"
      }
    },
    {
      "type": "Feature",
      "geometry": {
        "type": "Point",
        "coordinates": [
          23.5713478,
          37.9639744
        ]
      },
      "properties": {
        "type": "stop",
        "StopCode": "410009",
        "StopID": "410009",
        "StopDescr": "ΟΤΕ",
        "StopOrder": "49",
        "StopType": "0"
      }
    },
    {
      "type": "Feature",
      "geometry": {
        "type": "Point",
        "coordinates": [
          23.5680442,
          37.9643409
        ]
      },
      "properties": {
        "type": "stop",
        "StopCode": "410010",
        "StopID": "410010",
        "StopDescr": "ΤΡΑΠΕΖΑ",
        "StopOrder": "50",
        "StopType": "0"
      }
    },
    {
      "type": "Feature",
      "geometry": {
        "type": "Point",
        "coordinates": [
          23.5646632,
          37.9643284
        ]
      },
      "properties": {
        "type": "stop",
        "StopCode": "410011",
        "StopID": "410011",
        "StopDescr": "25ης ΜΑΡΤΙΟΥ",
        "StopOrder": "51",
        "StopType": "0"
      }
    },
    {
      "type": "Feature",
      "geometry": {
        "type": "Point",
        "coordinates": [
          23.5624994,
          37.964899
        ]
      },
      "properties": {
        "type": "stop",
        "StopCode": "410012",
        "StopID": "410012",
        "StopDescr": "ΠΛΑΤΕΙΑ",
        "StopOrder": "52",
        "StopType": "0"
      }
    },
    {
      "type": "Feature",
      "geometry": {
        "type": "Point",
        "coordinates": [
          23.561101,
          37.9640674
        ]
      },
      "properties": {
        "type": "stop",
        "StopCode": "410040",
        "StopID": "410040",
        "StopDescr": "ΑΓ. ΓΕΩΡΓΙΟΣ",
        "StopOrder": "53",
        "StopType": "0"
      }
    },
    {
      "type": "Feature",
      "geometry": {
        "type": "Point",
        "coordinates": [
          23.5588073,
          37.9643681
        ]
      },
      "properties": {
        "type": "stop",
        "StopCode": "410013",
        "StopID": "410013",
        "StopDescr": "ΑΝΑΠΑΥΣΕΩΣ",
        "StopOrder": "54",
        "StopType": "0"
      }
    },
    {
      "type": "Feature",
      "geometry": {
        "type": "Point",
        "coordinates": [
          23.5587085,
          37.9639465
        ]
      },
      "properties": {
        "type": "stop",
        "StopCode": "10278",
        "StopID": "77",
        "StopDescr": "ΠΕΡΑΜΑ",
        "StopOrder": "55",
        "StopType": "0"
      }
    }
  ]
}