{
  "type": "FeatureCollection",
  "features": [
    {
      "type": "Feature",
      "properties": {
        "type": "route_path",
        "route_code": "5674",
        "descr": "ΑΝΩ ΛΙΟΣΙΑ [ΠΑΝΟΡΑΜΑ] - ΣΤ. ΑΤΤΙΚΗ [ΠΡΟΣΩΡΙΝΗ ΛΟΓΩ ΕΡΓΩΝ]"
      },
      "geometry": {
        "type": "LineString",
        "coordinates": [
          [
            23.68953,
            38.10318
          ],
          [
            23.68939,
            38.1029
          ],
          [
            23.68952,
            38.10262
          ],
          [
            23.68937,
            38.10212
          ],
          [
            23.68939,
            38.10105
          ],
          [
            23.68963,
            38.10035
          ],
          [
            23.68889,
            38.10023
          ],
          [
            23.68894,
            38.09974
          ],
          [
            23.68908,
            38.09869
          ],
          [
            23.68715,
            38.09904
          ],
          [
            23.68706,
            38.09839
          ],
          [
            23.6868,
            38.09758
          ],
          [
            23.68665,
            38.09735
          ],
          [
            23.68588,
            38.09703
          ],
          [
            23.68528,
            38.09665
          ],
          [
            23.68586,
            38.09644
          ],
          [
            23.68608,
            38.09615
          ],
          [
            23.68645,
            38.09561
          ],
          [
            23.68812,
            38.09559
          ],
          [
            23.68914,
            38.09557
          ],
          [
            23.69179,
            38.09616
          ],
          [
            23.69212,
            38.09513
          ],
          [
            23.69251,
            38.09386
          ],
          [
            23.6928,
            38.09308
          ],
          [
            23.69298,
            38.09282
          ],
          [
            23.69324,
            38.09244
          ],
          [
            23.69383,
            38.09104
          ],
          [
            23.69411,
            38.09026
          ],
          [
            23.69648,
            38.08778
          ],
          [
            23.70105,
            38.08341
          ],
          [
            23.70098,
            38.08324
          ],
          [
            23.69753,
            38.08139
          ],
          [
            23.69754,
            38.0813
          ],
          [
            23.70044,
            38.07841
          ],
          [
            23.70575,
            38.07484
          ],
          [
            23.70843,
            38.07277
          ],
          [
            23.70948,
            38.07169
          ],
          [
            23.71062,
            38.06994
          ],
          [
            23.7112,
            38.06927
          ],
          [
            23.71166,
            38.06853
          ],
          [
            23.7136,
            38.06464
          ],
          [
            23.71391,
            38.06361
          ],
          [
            23.71378,
            38.0615
          ],
          [
            23.71388,
            38.06076
          ],
          [
            23.71388,
            38.05974
          ],
          [
            23.71373,
            38.058
          ],
          [
            23.71331,
            38.05585
          ],
          [
            23.71334,
            38.05527
          ],
          [
            23.71371,
            38.05457
          ],
          [
            23.71419,
            38.05332
          ],
          [
            23.71515,
            38.05201
          ],
          [
            23.71553,
            38.0513
          ],
          [
            23.71577,
            38.05058
          ],
          [
            23.71583,
            38.05032
          ],
          [
            23.7159,
            38.04956
          ],
          [
            23.71568,
            38.0481
          ],
          [
            23.71561,
            38.04671
          ],
          [
            23.71563,
            38.04627
          ],
          [
            23.71583,
            38.04472
          ],
          [
            23.71632,
            38.03694
          ],
          [
            23.71749,
            38.02851
          ],
          [
            23.71746,
            38.0284
          ],
          [
            23.71754,
            38.02812
          ],
          [
            23.71774,
            38.02647
          ],
          [
            23.71795,
            38.01768
          ],
          [
            23.71819,
            38.01693
          ],
          [
            23.71872,
            38.01605
          ],
          [
            23.71892,
            38.01535
          ],
          [
            23.71924,
            38.0145
          ],
          [
            23.71988,
            38.01384
          ],
          [
            23.71971,
            38.01311
          ],
          [
            23.72022,
            38.01183
          ],
          [
            23.72075,
            38.01091
          ],
          [
            23.72116,
            38.01006
          ],
          [
            23.72136,
            38.00942
          ],
          [
            23.72147,
            38.00933
          ],
          [
            23.72236,
            38.00716
          ],
          [
            23.72236,
            38.00644
          ],
          [
            23.72186,
            38.00353
          ],
          [
            23.72227,
            38.00165
          ],
          [
            23.72238,
            37.99871
          ],
          [
            23.72226,
            37.99754
          ],
          [
            23.72212,
            37.99628
          ],
          [
            23.72233,
            37.99562
          ],
          [
            23.72312,
            37.9956
          ],
          [
            23.7232,
            37.99667
          ],
          [
            23.72284,
            37.99675
          ]
        ]
      }
    },
    {
      "type": "Feature",
      "properties": {
        "type": "stop",
        "stop_code": "10438",
        "stop_id": "000217",
        "name": "Α. ΛΙΟΣΙΑ (ΠΑΝΟΡΑΜΑ)",
        "order": "1"
      },
      "geometry": {
        "type": "Point",
        "coordinates": [
          23.689534,
          38.103133
        ]
      }
    },
    {
      "type": "Feature",
      "properties": {
        "type": "stop",
        "stop_code": "100191",
        "stop_id": "100191",
        "name": "ΜΕΝΕΞΕΔΩΝ",
        "order": "2"
      },
      "geometry": {
        "type": "Point",
        "coordinates": [
          23.689008,
          38.0988931
        ]
      }
    },
    {
      "type": "Feature",
      "properties": {
        "type": "stop",
        "stop_code": "100196",
        "stop_id": "100196",
        "name": "ΑΝΘΕΩΝ",
        "order": "3"
      },
      "geometry": {
        "type": "Point",
        "coordinates": [
          23.6869959,
          38.0987735
        ]
      }
    },
    {
      "type": "Feature",
      "properties": {
        "type": "stop",
        "stop_code": "100197",
        "stop_id": "100197",
        "name": "ΠΑΝΑΓΙΑΣ ΚΑΝΑΛΑΣ",
        "order": "4"
      },
      "geometry": {
        "type": "Point",
        "coordinates": [
          23.685908,
          38.0971483
        ]
      }
    },
    {
      "type": "Feature",
      "properties": {
        "type": "stop",
        "stop_code": "100046",
        "stop_id": "100046",
        "name": "29η ΦΥΛΗΣ",
        "order": "5"
      },
      "geometry": {
        "type": "Point",
        "coordinates": [
          23.6859503,
          38.0962105
        ]
      }
    },
    {
      "type": "Feature",
      "properties": {
        "type": "stop",
        "stop_code": "100181",
        "stop_id": "100181",
        "name": "ΠΑΝΟΡΑΜΑ",
        "order": "6"
      },
      "geometry": {
        "type": "Point",
        "coordinates": [
          23.6877578,
          38.0955676
        ]
      }
    },
    {
      "type": "Feature",
      "properties": {
        "type": "stop",
        "stop_code": "100186",
        "stop_id": "100186",
        "name": "ΚΑΡΑΙΣΚΑΚΗ",
        "order": "7"
      },
      "geometry": {
        "type": "Point",
        "coordinates": [
          23.6915833,
          38.0961114
        ]
      }
    },
    {
      "type": "Feature",
      "properties": {
        "type": "stop",
        "stop_code": "100142",
        "stop_id": "100142",
        "name": "ΑΜΑΞΟΣΤΑΣΙΟ",
        "order": "8"
      },
      "geometry": {
        "type": "Point",
        "coordinates": [
          23.6928472,
          38.092949
        ]
      }
    },
    {
      "type": "Feature",
      "properties": {
        "type": "stop",
        "stop_code": "100200",
        "stop_id": "100200",
        "name": "ΚΑΡΑΓΙΩΡΓΗ ΣΕΡΒΙΑΣ",
        "order": "9"
      },
      "geometry": {
        "type": "Point",
        "coordinates": [
          23.6942296,
          38.089861
        ]
      }
    },
    {
      "type": "Feature",
      "properties": {
        "type": "stop",
        "stop_code": "100047",
        "stop_id": "100047",
        "name": "ΚΟΥΡΜΟΥΛΗ",
        "order": "10"
      },
      "geometry": {
        "type": "Point",
        "coordinates": [
          23.6957175,
          38.0884442
        ]
      }
    },
    {
      "type": "Feature",
      "properties": {
        "type": "stop",
        "stop_code": "100048",
        "stop_id": "100048",
        "name": "ΖΑΠΠΑ",
        "order": "11"
      },
      "geometry": {
        "type": "Point",
        "coordinates": [
          23.697368,
          38.0868349
        ]
      }
    },
    {
      "type": "Feature",
      "properties": {
        "type": "stop",
        "stop_code": "100053",
        "stop_id": "100053",
        "name": "ΥΨΗΛΑΝΤΟΥ",
        "order": "12"
      },
      "geometry": {
        "type": "Point",
        "coordinates": [
          23.6996684,
          38.0844854
        ]
      }
    },
    {
      "type": "Feature",
      "properties": {
        "type": "stop",
        "stop_code": "100103",
        "stop_id": "100103",
        "name": "ΠΛ. ΕΘΝ. ΑΝΤΙΣΤΑΣΕΩΣ",
        "order": "13"
      },
      "geometry": {
        "type": "Point",
        "coordinates": [
          23.698709,
          38.0820856
        ]
      }
    },
    {
      "type": "Feature",
      "properties": {
        "type": "stop",
        "stop_code": "100054",
        "stop_id": "100054",
        "name": "20η ΦΥΛΗΣ",
        "order": "14"
      },
      "geometry": {
        "type": "Point",
        "coordinates": [
          23.6991776,
          38.0795375
        ]
      }
    },
    {
      "type": "Feature",
      "properties": {
        "type": "stop",
        "stop_code": "100055",
        "stop_id": "100055",
        "name": "19η ΦΥΛΗΣ",
        "order": "15"
      },
      "geometry": {
        "type": "Point",
        "coordinates": [
          23.701298,
          38.0777257
        ]
      }
    },
    {
      "type": "Feature",
      "properties": {
        "type": "stop",
        "stop_code": "100056",
        "stop_id": "100056",
        "name": "18η ΦΥΛΗΣ",
        "order": "16"
      },
      "geometry": {
        "type": "Point",
        "coordinates": [
          23.7033809,
          38.0764409
        ]
      }
    },
    {
      "type": "Feature",
      "properties": {
        "type": "stop",
        "stop_code": "100090",
        "stop_id": "100090",
        "name": "17η ΦΥΛΗΣ",
        "order": "17"
      },
      "geometry": {
        "type": "Point",
        "coordinates": [
          23.7055811,
          38.0749005
        ]
      }
    },
    {
      "type": "Feature",
      "properties": {
        "type": "stop",
        "stop_code": "100058",
        "stop_id": "100058",
        "name": "16η ΦΥΛΗΣ",
        "order": "18"
      },
      "geometry": {
        "type": "Point",
        "coordinates": [
          23.7081356,
          38.0729606
        ]
      }
    },
    {
      "type": "Feature",
      "properties": {
        "type": "stop",
        "stop_code": "100149",
        "stop_id": "100149",
        "name": "ΓΕΦΥΡΑ  ΑΤΤΙΚΗΣ ΟΔΟΥ",
        "order": "19"
      },
      "geometry": {
        "type": "Point",
        "coordinates": [
          23.7100217,
          38.0707255
        ]
      }
    },
    {
      "type": "Feature",
      "properties": {
        "type": "stop",
        "stop_code": "250014",
        "stop_id": "250014",
        "name": "14η ΝΤΑΜΑΡΙΑ",
        "order": "20"
      },
      "geometry": {
        "type": "Point",
        "coordinates": [
          23.7134641,
          38.0644846
        ]
      }
    },
    {
      "type": "Feature",
      "properties": {
        "type": "stop",
        "stop_code": "250015",
        "stop_id": "250015",
        "name": "13η ΑΣΒΕΣΤΟΚΑΜΙΝΟΣ",
        "order": "21"
      },
      "geometry": {
        "type": "Point",
        "coordinates": [
          23.7136796,
          38.0618444
        ]
      }
    },
    {
      "type": "Feature",
      "properties": {
        "type": "stop",
        "stop_code": "250016",
        "stop_id": "250016",
        "name": "ΔΗΜΑΡΧΕΙΟ",
        "order": "22"
      },
      "geometry": {
        "type": "Point",
        "coordinates": [
          23.7135674,
          38.0584463
        ]
      }
    },
    {
      "type": "Feature",
      "properties": {
        "type": "stop",
        "stop_code": "250017",
        "stop_id": "250017",
        "name": "11η ΜΑΝΑΡΑ",
        "order": "23"
      },
      "geometry": {
        "type": "Point",
        "coordinates": [
          23.7131778,
          38.056048
        ]
      }
    },
    {
      "type": "Feature",
      "properties": {
        "type": "stop",
        "stop_code": "250018",
        "stop_id": "250018",
        "name": "10η ΦΥΛΗΣ",
        "order": "24"
      },
      "geometry": {
        "type": "Point",
        "coordinates": [
          23.7144368,
          38.0528833
        ]
      }
    },
    {
      "type": "Feature",
      "properties": {
        "type": "stop",
        "stop_code": "250019",
        "stop_id": "250019",
        "name": "9η ΦΥΛΗΣ",
        "order": "25"
      },
      "geometry": {
        "type": "Point",
        "coordinates": [
          23.715625,
          38.0509788
        ]
      }
    },
    {
      "type": "Feature",
      "properties": {
        "type": "stop",
        "stop_code": "250020",
        "stop_id": "250020",
        "name": "8η ΑΝΑΠΗΡΩΝ",
        "order": "26"
      },
      "geometry": {
        "type": "Point",
        "coordinates": [
          23.7156387,
          38.048099
        ]
      }
    },
    {
      "type": "Feature",
      "properties": {
        "type": "stop",
        "stop_code": "250073",
        "stop_id": "250073",
        "name": "7η ΧΑΣΙΑΣ",
        "order": "27"
      },
      "geometry": {
        "type": "Point",
        "coordinates": [
          23.7155511,
          38.0463891
        ]
      }
    },
    {
      "type": "Feature",
      "properties": {
        "type": "stop",
        "stop_code": "360083",
        "stop_id": "360083",
        "name": "6η ΧΑΣΙΑΣ",
        "order": "28"
      },
      "geometry": {
        "type": "Point",
        "coordinates": [
          23.7158127,
          38.043788
        ]
      }
    },
    {
      "type": "Feature",
      "properties": {
        "type": "stop",
        "stop_code": "360067",
        "stop_id": "360067",
        "name": "5η ΧΑΣΙΑΣ",
        "order": "29"
      },
      "geometry": {
        "type": "Point",
        "coordinates": [
          23.7159136,
          38.0415127
        ]
      }
    },
    {
      "type": "Feature",
      "properties": {
        "type": "stop",
        "stop_code": "360068",
        "stop_id": "360068",
        "name": "ΡΑΔΙΟΦΩΝΙΑ",
        "order": "30"
      },
      "geometry": {
        "type": "Point",
        "coordinates": [
          23.7159669,
          38.0398408
        ]
      }
    },
    {
      "type": "Feature",
      "properties": {
        "type": "stop",
        "stop_code": "360069",
        "stop_id": "360069",
        "name": "3η ΧΑΣΙΑΣ",
        "order": "31"
      },
      "geometry": {
        "type": "Point",
        "coordinates": [
          23.7161235,
          38.0370653
        ]
      }
    },
    {
      "type": "Feature",
      "properties": {
        "type": "stop",
        "stop_code": "360070",
        "stop_id": "360070",
        "name": "2η ΧΑΣΙΑΣ",
        "order": "32"
      },
      "geometry": {
        "type": "Point",
        "coordinates": [
          23.716557,
          38.0339839
        ]
      }
    },
    {
      "type": "Feature",
      "properties": {
        "type": "stop",
        "stop_code": "360141",
        "stop_id": "360141",
        "name": "ΜΠΙΜΠΙΖΑ",
        "order": "33"
      },
      "geometry": {
        "type": "Point",
        "coordinates": [
          23.7168849,
          38.0316865
        ]
      }
    },
    {
      "type": "Feature",
      "properties": {
        "type": "stop",
        "stop_code": "50005",
        "stop_id": "050005",
        "name": "ΑΓ. ΦΡΑΓΚΙΣΚΟΣ",
        "order": "34"
      },
      "geometry": {
        "type": "Point",
        "coordinates": [
          23.717223,
          38.0297135
        ]
      }
    },
    {
      "type": "Feature",
      "properties": {
        "type": "stop",
        "stop_code": "50093",
        "stop_id": "050093",
        "name": "ΠΛ. ΑΓ. ΑΝΑΡΓΥΡΩΝ",
        "order": "35"
      },
      "geometry": {
        "type": "Point",
        "coordinates": [
          23.7174914,
          38.0280468
        ]
      }
    },
    {
      "type": "Feature",
      "properties": {
        "type": "stop",
        "stop_code": "50006",
        "stop_id": "050006",
        "name": "ΑΓ.  ΑΝΑΡΓΥΡΩΝ",
        "order": "36"
      },
      "geometry": {
        "type": "Point",
        "coordinates": [
          23.7176915,
          38.0263889
        ]
      }
    },
    {
      "type": "Feature",
      "properties": {
        "type": "stop",
        "stop_code": "50007",
        "stop_id": "050007",
        "name": "301 ΕΡΓ.ΒΑΣΕΩΣ",
        "order": "37"
      },
      "geometry": {
        "type": "Point",
        "coordinates": [
          23.7177111,
          38.0242439
        ]
      }
    },
    {
      "type": "Feature",
      "properties": {
        "type": "stop",
        "stop_code": "50009",
        "stop_id": "050009",
        "name": "ΜΥΚΟΝΙΑΤΙΚΑ",
        "order": "38"
      },
      "geometry": {
        "type": "Point",
        "coordinates": [
          23.7177142,
          38.0204675
        ]
      }
    },
    {
      "type": "Feature",
      "properties": {
        "type": "stop",
        "stop_code": "61094",
        "stop_id": "061094",
        "name": "ΤΡΕΙΣ ΓΕΦΥΡΕΣ",
        "order": "39"
      },
      "geometry": {
        "type": "Point",
        "coordinates": [
          23.7191166,
          38.0145053
        ]
      }
    },
    {
      "type": "Feature",
      "properties": {
        "type": "stop",
        "stop_code": "61351",
        "stop_id": "061351",
        "name": "ΒΡΕΤΤΟΥ",
        "order": "40"
      },
      "geometry": {
        "type": "Point",
        "coordinates": [
          23.7199791,
          38.012082
        ]
      }
    },
    {
      "type": "Feature",
      "properties": {
        "type": "stop",
        "stop_code": "61352",
        "stop_id": "061352",
        "name": "ΠΡΑΚΤΟΡΕΙΑ",
        "order": "41"
      },
      "geometry": {
        "type": "Point",
        "coordinates": [
          23.7212072,
          38.0096695
        ]
      }
    },
    {
      "type": "Feature",
      "properties": {
        "type": "stop",
        "stop_code": "60144",
        "stop_id": "060144",
        "name": "ΙΚΑ",
        "order": "42"
      },
      "geometry": {
        "type": "Point",
        "coordinates": [
          23.7223086,
          38.0063969
        ]
      }
    },
    {
      "type": "Feature",
      "properties": {
        "type": "stop",
        "stop_code": "60145",
        "stop_id": "060145",
        "name": "ΘΥΜΑΡΑΚΙΑ",
        "order": "43"
      },
      "geometry": {
        "type": "Point",
        "coordinates": [
          23.7218034,
          38.0035384
        ]
      }
    },
    {
      "type": "Feature",
      "properties": {
        "type": "stop",
        "stop_code": "60146",
        "stop_id": "060146",
        "name": "ΣΤ. ΑΤΤΙΚΗ",
        "order": "44"
      },
      "geometry": {
        "type": "Point",
        "coordinates": [
          23.7223126,
          37.9993793
        ]
      }
    },
    {
      "type": "Feature",
      "properties": {
        "type": "stop",
        "stop_code": "60147",
        "stop_id": "060147",
        "name": "ΠΛ. ΑΤΤΙΚΗΣ",
        "order": "45"
      },
      "geometry": {
        "type": "Point",
        "coordinates": [
          23.7221651,
          37.9973242
        ]
      }
    },
    {
      "type": "Feature",
      "properties": {
        "type": "stop",
        "stop_code": "11517",
        "stop_id": "711",
        "name": "ΑΦΕΤΗΡΙΑ 711-Β12",
        "order": "46"
      },
      "geometry": {
        "type": "Point",
        "coordinates": [
          23.723094,
          37.997138
        ]
      }
    }
  ]
}