{
  "type": "FeatureCollection",
  "features": [
    {
      "type": "Feature",
      "properties": {
        "type": "route_path",
        "route_code": "5566",
        "descr": "ΒΟΥΛΑ - ΑΚΑΔΗΜΙΑ [ΜΕΣΩ Λ. ΑΜΦΙΘΕΑΣ]"
      },
      "geometry": {
        "type": "LineString",
        "coordinates": [
          [
            23.76908,
            37.83588
          ],
          [
            23.76979,
            37.83566
          ],
          [
            23.77003,
            37.83574
          ],
          [
            23.76999,
            37.83587
          ],
          [
            23.76973,
            37.83599
          ],
          [
            23.76485,
            37.83746
          ],
          [
            23.76407,
            37.83787
          ],
          [
            23.7629,
            37.8388
          ],
          [
            23.76367,
            37.83938
          ],
          [
            23.76564,
            37.84093
          ],
          [
            23.76559,
            37.84105
          ],
          [
            23.76192,
            37.8441
          ],
          [
            23.76145,
            37.8446
          ],
          [
            23.76324,
            37.84591
          ],
          [
            23.76357,
            37.84642
          ],
          [
            23.76346,
            37.84677
          ],
          [
            23.76351,
            37.84686
          ],
          [
            23.76451,
            37.84758
          ],
          [
            23.76479,
            37.84779
          ],
          [
            23.7638,
            37.84823
          ],
          [
            23.76284,
            37.84832
          ],
          [
            23.76061,
            37.8483
          ],
          [
            23.75379,
            37.8477
          ],
          [
            23.75365,
            37.84774
          ],
          [
            23.75355,
            37.84789
          ],
          [
            23.75318,
            37.84891
          ],
          [
            23.75299,
            37.85109
          ],
          [
            23.75285,
            37.85183
          ],
          [
            23.75213,
            37.85315
          ],
          [
            23.75195,
            37.85392
          ],
          [
            23.75207,
            37.85822
          ],
          [
            23.75165,
            37.85954
          ],
          [
            23.75117,
            37.86015
          ],
          [
            23.74768,
            37.86258
          ],
          [
            23.74694,
            37.86322
          ],
          [
            23.7464,
            37.86379
          ],
          [
            23.73223,
            37.87615
          ],
          [
            23.73169,
            37.87686
          ],
          [
            23.7303,
            37.8804
          ],
          [
            23.72227,
            37.89278
          ],
          [
            23.72162,
            37.89415
          ],
          [
            23.72001,
            37.89965
          ],
          [
            23.7199,
            37.90048
          ],
          [
            23.7199,
            37.90264
          ],
          [
            23.71976,
            37.90341
          ],
          [
            23.71957,
            37.90377
          ],
          [
            23.71698,
            37.90704
          ],
          [
            23.71517,
            37.90875
          ],
          [
            23.71451,
            37.90928
          ],
          [
            23.71158,
            37.91072
          ],
          [
            23.70963,
            37.91235
          ],
          [
            23.70932,
            37.91279
          ],
          [
            23.70893,
            37.91348
          ],
          [
            23.70876,
            37.91368
          ],
          [
            23.70769,
            37.91799
          ],
          [
            23.70553,
            37.92332
          ],
          [
            23.70409,
            37.92678
          ],
          [
            23.70218,
            37.93132
          ],
          [
            23.70181,
            37.93281
          ],
          [
            23.7009,
            37.93867
          ],
          [
            23.70092,
            37.94356
          ],
          [
            23.70082,
            37.94428
          ],
          [
            23.7023,
            37.94542
          ],
          [
            23.70463,
            37.94725
          ],
          [
            23.707,
            37.94904
          ],
          [
            23.70918,
            37.95078
          ],
          [
            23.70928,
            37.95086
          ],
          [
            23.71032,
            37.95163
          ],
          [
            23.71309,
            37.95384
          ],
          [
            23.7198,
            37.95901
          ],
          [
            23.72385,
            37.96223
          ],
          [
            23.72424,
            37.9625
          ],
          [
            23.72987,
            37.96696
          ],
          [
            23.7301,
            37.9671
          ],
          [
            23.73027,
            37.96723
          ],
          [
            23.73174,
            37.96838
          ],
          [
            23.73179,
            37.96994
          ],
          [
            23.73189,
            37.97016
          ],
          [
            23.73206,
            37.97031
          ],
          [
            23.73247,
            37.97044
          ],
          [
            23.73291,
            37.97073
          ],
          [
            23.73512,
            37.97322
          ],
          [
            23.73531,
            37.97351
          ],
          [
            23.73541,
            37.97382
          ],
          [
            23.73549,
            37.97431
          ],
          [
            23.73581,
            37.97601
          ],
          [
            23.73589,
            37.97688
          ],
          [
            23.73581,
            37.97703
          ],
          [
            23.73538,
            37.97756
          ],
          [
            23.7329,
            37.98041
          ],
          [
            23.73293,
            37.98059
          ],
          [
            23.73299,
            37.98074
          ],
          [
            23.73342,
            37.98094
          ],
          [
            23.73402,
            37.98128
          ]
        ]
      }
    },
    {
      "type": "Feature",
      "properties": {
        "type": "stop",
        "stop_code": "10360",
        "stop_id": "000155",
        "name": "ΒΟΥΛΑ",
        "order": "1"
      },
      "geometry": {
        "type": "Point",
        "coordinates": [
          23.7693035,
          37.835243
        ]
      }
    },
    {
      "type": "Feature",
      "properties": {
        "type": "stop",
        "stop_code": "530012",
        "stop_id": "530012",
        "name": "Β' ΠΛΑΖ ΒΟΥΛΑΣ",
        "order": "2"
      },
      "geometry": {
        "type": "Point",
        "coordinates": [
          23.768859,
          37.8363331
        ]
      }
    },
    {
      "type": "Feature",
      "properties": {
        "type": "stop",
        "stop_code": "530013",
        "stop_id": "530013",
        "name": "ΓΑΛΗΝΗ",
        "order": "3"
      },
      "geometry": {
        "type": "Point",
        "coordinates": [
          23.7645815,
          37.8376553
        ]
      }
    },
    {
      "type": "Feature",
      "properties": {
        "type": "stop",
        "stop_code": "530040",
        "stop_id": "530040",
        "name": "ΑΓ. ΙΩΑΝΝΗΣ",
        "order": "4"
      },
      "geometry": {
        "type": "Point",
        "coordinates": [
          23.7654623,
          37.841305
        ]
      }
    },
    {
      "type": "Feature",
      "properties": {
        "type": "stop",
        "stop_code": "530028",
        "stop_id": "530028",
        "name": "ΑΦΡΟΔΙΤΗΣ",
        "order": "5"
      },
      "geometry": {
        "type": "Point",
        "coordinates": [
          23.7632743,
          37.8431393
        ]
      }
    },
    {
      "type": "Feature",
      "properties": {
        "type": "stop",
        "stop_code": "530029",
        "stop_id": "530029",
        "name": "ΞΕΝΟΦΩΝΤΟΣ",
        "order": "6"
      },
      "geometry": {
        "type": "Point",
        "coordinates": [
          23.7630616,
          37.8456716
        ]
      }
    },
    {
      "type": "Feature",
      "properties": {
        "type": "stop",
        "stop_code": "530030",
        "stop_id": "530030",
        "name": "ΣΩΚΡΑΤΟΥΣ",
        "order": "7"
      },
      "geometry": {
        "type": "Point",
        "coordinates": [
          23.7643066,
          37.8473325
        ]
      }
    },
    {
      "type": "Feature",
      "properties": {
        "type": "stop",
        "stop_code": "530031",
        "stop_id": "530031",
        "name": "ΓΑΛΗΝΟΥ",
        "order": "8"
      },
      "geometry": {
        "type": "Point",
        "coordinates": [
          23.7608477,
          37.8484161
        ]
      }
    },
    {
      "type": "Feature",
      "properties": {
        "type": "stop",
        "stop_code": "530032",
        "stop_id": "530032",
        "name": "ΒΕΝΙΖΕΛΟΥ",
        "order": "9"
      },
      "geometry": {
        "type": "Point",
        "coordinates": [
          23.7571434,
          37.848057
        ]
      }
    },
    {
      "type": "Feature",
      "properties": {
        "type": "stop",
        "stop_code": "530016",
        "stop_id": "530016",
        "name": "ΝΟΣΟΚΟΜΕΙΟ",
        "order": "10"
      },
      "geometry": {
        "type": "Point",
        "coordinates": [
          23.7534826,
          37.8483017
        ]
      }
    },
    {
      "type": "Feature",
      "properties": {
        "type": "stop",
        "stop_code": "530018",
        "stop_id": "530018",
        "name": "Α' ΠΛΑΖ ΒΟΥΛΑΣ",
        "order": "11"
      },
      "geometry": {
        "type": "Point",
        "coordinates": [
          23.7530992,
          37.8508066
        ]
      }
    },
    {
      "type": "Feature",
      "properties": {
        "type": "stop",
        "stop_code": "530019",
        "stop_id": "530019",
        "name": "ΠΙΚΠΑ",
        "order": "12"
      },
      "geometry": {
        "type": "Point",
        "coordinates": [
          23.7520095,
          37.8537606
        ]
      }
    },
    {
      "type": "Feature",
      "properties": {
        "type": "stop",
        "stop_code": "160169",
        "stop_id": "160169",
        "name": "ΑΣΤΕΡΙΑ",
        "order": "13"
      },
      "geometry": {
        "type": "Point",
        "coordinates": [
          23.7521142,
          37.8564377
        ]
      }
    },
    {
      "type": "Feature",
      "properties": {
        "type": "stop",
        "stop_code": "160170",
        "stop_id": "160170",
        "name": "ΑΓ. ΝΙΚΟΛΑΟΣ",
        "order": "14"
      },
      "geometry": {
        "type": "Point",
        "coordinates": [
          23.7520615,
          37.8585827
        ]
      }
    },
    {
      "type": "Feature",
      "properties": {
        "type": "stop",
        "stop_code": "160171",
        "stop_id": "160171",
        "name": "ΑΝΤΩΝΟΠΟΥΛΟΥ",
        "order": "15"
      },
      "geometry": {
        "type": "Point",
        "coordinates": [
          23.7500298,
          37.8610068
        ]
      }
    },
    {
      "type": "Feature",
      "properties": {
        "type": "stop",
        "stop_code": "160291",
        "stop_id": "160291",
        "name": "ΠΛ. ΓΛΥΦΑΔΑΣ",
        "order": "16"
      },
      "geometry": {
        "type": "Point",
        "coordinates": [
          23.7464847,
          37.8637893
        ]
      }
    },
    {
      "type": "Feature",
      "properties": {
        "type": "stop",
        "stop_code": "160174",
        "stop_id": "160174",
        "name": "5η ΓΛΥΦΑΔΑΣ",
        "order": "17"
      },
      "geometry": {
        "type": "Point",
        "coordinates": [
          23.7435995,
          37.8663518
        ]
      }
    },
    {
      "type": "Feature",
      "properties": {
        "type": "stop",
        "stop_code": "160175",
        "stop_id": "160175",
        "name": "4η ΓΛΥΦΑΔΑΣ",
        "order": "18"
      },
      "geometry": {
        "type": "Point",
        "coordinates": [
          23.7403611,
          37.8690937
        ]
      }
    },
    {
      "type": "Feature",
      "properties": {
        "type": "stop",
        "stop_code": "160176",
        "stop_id": "160176",
        "name": "3η ΓΛΥΦΑΔΑΣ",
        "order": "19"
      },
      "geometry": {
        "type": "Point",
        "coordinates": [
          23.7374417,
          37.8715748
        ]
      }
    },
    {
      "type": "Feature",
      "properties": {
        "type": "stop",
        "stop_code": "160177",
        "stop_id": "160177",
        "name": "2η ΓΛΥΦΑΔΑΣ",
        "order": "20"
      },
      "geometry": {
        "type": "Point",
        "coordinates": [
          23.7352861,
          37.8734177
        ]
      }
    },
    {
      "type": "Feature",
      "properties": {
        "type": "stop",
        "stop_code": "160178",
        "stop_id": "160178",
        "name": "ΔΙΚΗΓΟΡΙΚΑ",
        "order": "21"
      },
      "geometry": {
        "type": "Point",
        "coordinates": [
          23.7337578,
          37.8747391
        ]
      }
    },
    {
      "type": "Feature",
      "properties": {
        "type": "stop",
        "stop_code": "590013",
        "stop_id": "590013",
        "name": "ΚΟΛΛΕΓΙΟ",
        "order": "22"
      },
      "geometry": {
        "type": "Point",
        "coordinates": [
          23.7314503,
          37.8776631
        ]
      }
    },
    {
      "type": "Feature",
      "properties": {
        "type": "stop",
        "stop_code": "590014",
        "stop_id": "590014",
        "name": "4η ΕΛΛΗΝΙΚΟΥ",
        "order": "23"
      },
      "geometry": {
        "type": "Point",
        "coordinates": [
          23.7299763,
          37.8810577
        ]
      }
    },
    {
      "type": "Feature",
      "properties": {
        "type": "stop",
        "stop_code": "590015",
        "stop_id": "590015",
        "name": "3η ΕΛΛΗΝΙΚΟΥ",
        "order": "24"
      },
      "geometry": {
        "type": "Point",
        "coordinates": [
          23.7286694,
          37.8830403
        ]
      }
    },
    {
      "type": "Feature",
      "properties": {
        "type": "stop",
        "stop_code": "590016",
        "stop_id": "590016",
        "name": "2η ΕΛΛΗΝΙΚΟΥ",
        "order": "25"
      },
      "geometry": {
        "type": "Point",
        "coordinates": [
          23.7270789,
          37.8855252
        ]
      }
    },
    {
      "type": "Feature",
      "properties": {
        "type": "stop",
        "stop_code": "590017",
        "stop_id": "590017",
        "name": "1η ΕΛΛΗΝΙΚΟΥ",
        "order": "26"
      },
      "geometry": {
        "type": "Point",
        "coordinates": [
          23.725649,
          37.887714
        ]
      }
    },
    {
      "type": "Feature",
      "properties": {
        "type": "stop",
        "stop_code": "590018",
        "stop_id": "590018",
        "name": "2η ΑΓ. ΚΟΣΜΑΣ",
        "order": "27"
      },
      "geometry": {
        "type": "Point",
        "coordinates": [
          23.7235808,
          37.8909355
        ]
      }
    },
    {
      "type": "Feature",
      "properties": {
        "type": "stop",
        "stop_code": "590019",
        "stop_id": "590019",
        "name": "ΑΘΛΗΤΙΚΟ ΚΕΝΤΡΟ",
        "order": "28"
      },
      "geometry": {
        "type": "Point",
        "coordinates": [
          23.7210798,
          37.8964384
        ]
      }
    },
    {
      "type": "Feature",
      "properties": {
        "type": "stop",
        "stop_code": "590020",
        "stop_id": "590020",
        "name": "1η ΑΓ. ΚΟΣΜΑ",
        "order": "29"
      },
      "geometry": {
        "type": "Point",
        "coordinates": [
          23.7205179,
          37.89827
        ]
      }
    },
    {
      "type": "Feature",
      "properties": {
        "type": "stop",
        "stop_code": "80008",
        "stop_id": "080008",
        "name": "ΑΛΙΜΟΣ",
        "order": "30"
      },
      "geometry": {
        "type": "Point",
        "coordinates": [
          23.7199723,
          37.9029359
        ]
      }
    },
    {
      "type": "Feature",
      "properties": {
        "type": "stop",
        "stop_code": "80009",
        "stop_id": "080009",
        "name": "5η ΚΑΛΑΜΑΚΙΟΥ",
        "order": "31"
      },
      "geometry": {
        "type": "Point",
        "coordinates": [
          23.718743,
          37.9050443
        ]
      }
    },
    {
      "type": "Feature",
      "properties": {
        "type": "stop",
        "stop_code": "80010",
        "stop_id": "080010",
        "name": "4η ΚΑΛΑΜΑΚΙΟΥ",
        "order": "32"
      },
      "geometry": {
        "type": "Point",
        "coordinates": [
          23.7159024,
          37.9082618
        ]
      }
    },
    {
      "type": "Feature",
      "properties": {
        "type": "stop",
        "stop_code": "80011",
        "stop_id": "080011",
        "name": "3η ΚΑΛΑΜΑΚΙΟΥ",
        "order": "33"
      },
      "geometry": {
        "type": "Point",
        "coordinates": [
          23.7122081,
          37.910479
        ]
      }
    },
    {
      "type": "Feature",
      "properties": {
        "type": "stop",
        "stop_code": "80012",
        "stop_id": "080012",
        "name": "2η ΚΑΛΑΜΑΚΙΟΥ",
        "order": "34"
      },
      "geometry": {
        "type": "Point",
        "coordinates": [
          23.7093425,
          37.9130767
        ]
      }
    },
    {
      "type": "Feature",
      "properties": {
        "type": "stop",
        "stop_code": "80017",
        "stop_id": "080017",
        "name": "ΔΑΒΑΚΗ",
        "order": "35"
      },
      "geometry": {
        "type": "Point",
        "coordinates": [
          23.708272,
          37.9162376
        ]
      }
    },
    {
      "type": "Feature",
      "properties": {
        "type": "stop",
        "stop_code": "80018",
        "stop_id": "080018",
        "name": "ΝΑΥΑΡΙΝΟΥ",
        "order": "36"
      },
      "geometry": {
        "type": "Point",
        "coordinates": [
          23.7073038,
          37.9193988
        ]
      }
    },
    {
      "type": "Feature",
      "properties": {
        "type": "stop",
        "stop_code": "380010",
        "stop_id": "380010",
        "name": "ΓΕΦΥΡΑ",
        "order": "37"
      },
      "geometry": {
        "type": "Point",
        "coordinates": [
          23.7059221,
          37.9226171
        ]
      }
    },
    {
      "type": "Feature",
      "properties": {
        "type": "stop",
        "stop_code": "380011",
        "stop_id": "380011",
        "name": "ΝΑΙΑΔΩΝ",
        "order": "38"
      },
      "geometry": {
        "type": "Point",
        "coordinates": [
          23.7047667,
          37.9252791
        ]
      }
    },
    {
      "type": "Feature",
      "properties": {
        "type": "stop",
        "stop_code": "380012",
        "stop_id": "380012",
        "name": "ΑΧΙΛΛΕΩΣ",
        "order": "39"
      },
      "geometry": {
        "type": "Point",
        "coordinates": [
          23.7039562,
          37.9272531
        ]
      }
    },
    {
      "type": "Feature",
      "properties": {
        "type": "stop",
        "stop_code": "380013",
        "stop_id": "380013",
        "name": "ΑΜΦΙΘΕΑΣ",
        "order": "40"
      },
      "geometry": {
        "type": "Point",
        "coordinates": [
          23.7031906,
          37.9293928
        ]
      }
    },
    {
      "type": "Feature",
      "properties": {
        "type": "stop",
        "stop_code": "380014",
        "stop_id": "380014",
        "name": "ΚΑΛΥΨΟΥΣ",
        "order": "41"
      },
      "geometry": {
        "type": "Point",
        "coordinates": [
          23.7023215,
          37.9311712
        ]
      }
    },
    {
      "type": "Feature",
      "properties": {
        "type": "stop",
        "stop_code": "380015",
        "stop_id": "380015",
        "name": "ΠΑΛΑΙΟΛΟΓΟΥ",
        "order": "42"
      },
      "geometry": {
        "type": "Point",
        "coordinates": [
          23.7016429,
          37.9338918
        ]
      }
    },
    {
      "type": "Feature",
      "properties": {
        "type": "stop",
        "stop_code": "380016",
        "stop_id": "380016",
        "name": "ΗΧΟΥΣ",
        "order": "43"
      },
      "geometry": {
        "type": "Point",
        "coordinates": [
          23.7011526,
          37.9370289
        ]
      }
    },
    {
      "type": "Feature",
      "properties": {
        "type": "stop",
        "stop_code": "380017",
        "stop_id": "380017",
        "name": "ΙΑΣΟΝΟΣ",
        "order": "44"
      },
      "geometry": {
        "type": "Point",
        "coordinates": [
          23.7009646,
          37.9398783
        ]
      }
    },
    {
      "type": "Feature",
      "properties": {
        "type": "stop",
        "stop_code": "380018",
        "stop_id": "380018",
        "name": "ΠΕΝΤΕΛΗΣ",
        "order": "45"
      },
      "geometry": {
        "type": "Point",
        "coordinates": [
          23.7009879,
          37.9420349
        ]
      }
    },
    {
      "type": "Feature",
      "properties": {
        "type": "stop",
        "stop_code": "340078",
        "stop_id": "340078",
        "name": "ΑΓ. ΑΝΑΡΓΥΡΟΙ",
        "order": "46"
      },
      "geometry": {
        "type": "Point",
        "coordinates": [
          23.7014704,
          37.9446784
        ]
      }
    },
    {
      "type": "Feature",
      "properties": {
        "type": "stop",
        "stop_code": "340079",
        "stop_id": "340079",
        "name": "ΧΡΥΣΑΚΗ",
        "order": "47"
      },
      "geometry": {
        "type": "Point",
        "coordinates": [
          23.7034583,
          37.9462156
        ]
      }
    },
    {
      "type": "Feature",
      "properties": {
        "type": "stop",
        "stop_code": "340080",
        "stop_id": "340080",
        "name": "ΣΚΡΑ",
        "order": "48"
      },
      "geometry": {
        "type": "Point",
        "coordinates": [
          23.7064934,
          37.9485664
        ]
      }
    },
    {
      "type": "Feature",
      "properties": {
        "type": "stop",
        "stop_code": "340081",
        "stop_id": "340081",
        "name": "ΣΤΡΟΦΗ Ν. ΣΜΥΡΝΗΣ",
        "order": "49"
      },
      "geometry": {
        "type": "Point",
        "coordinates": [
          23.7092155,
          37.9506901
        ]
      }
    },
    {
      "type": "Feature",
      "properties": {
        "type": "stop",
        "stop_code": "340082",
        "stop_id": "340082",
        "name": "ΚΥΑΝΟΥΣ ΣΤΑΥΡΟΣ",
        "order": "50"
      },
      "geometry": {
        "type": "Point",
        "coordinates": [
          23.7107592,
          37.9519003
        ]
      }
    },
    {
      "type": "Feature",
      "properties": {
        "type": "stop",
        "stop_code": "340083",
        "stop_id": "340083",
        "name": "ΕΦΕΣΟΥ",
        "order": "51"
      },
      "geometry": {
        "type": "Point",
        "coordinates": [
          23.7132975,
          37.953903
        ]
      }
    },
    {
      "type": "Feature",
      "properties": {
        "type": "stop",
        "stop_code": "60809",
        "stop_id": "060809",
        "name": "ΑΓ. ΣΩΣΤΗΣ",
        "order": "52"
      },
      "geometry": {
        "type": "Point",
        "coordinates": [
          23.7161799,
          37.9561168
        ]
      }
    },
    {
      "type": "Feature",
      "properties": {
        "type": "stop",
        "stop_code": "60810",
        "stop_id": "060810",
        "name": "ΠΑΝΤΕΙΟΣ",
        "order": "53"
      },
      "geometry": {
        "type": "Point",
        "coordinates": [
          23.7198878,
          37.9589516
        ]
      }
    },
    {
      "type": "Feature",
      "properties": {
        "type": "stop",
        "stop_code": "60811",
        "stop_id": "060811",
        "name": "ΓΕΦΥΡΑ",
        "order": "54"
      },
      "geometry": {
        "type": "Point",
        "coordinates": [
          23.721689,
          37.9604249
        ]
      }
    },
    {
      "type": "Feature",
      "properties": {
        "type": "stop",
        "stop_code": "60813",
        "stop_id": "060813",
        "name": "ΟΛΥΜΠΙΑΚΗ",
        "order": "55"
      },
      "geometry": {
        "type": "Point",
        "coordinates": [
          23.7241743,
          37.9623823
        ]
      }
    },
    {
      "type": "Feature",
      "properties": {
        "type": "stop",
        "stop_code": "60814",
        "stop_id": "060814",
        "name": "ΣΤ. ΣΥΓΓΡΟΥ-ΦΙΞ",
        "order": "56"
      },
      "geometry": {
        "type": "Point",
        "coordinates": [
          23.7268669,
          37.9645175
        ]
      }
    },
    {
      "type": "Feature",
      "properties": {
        "type": "stop",
        "stop_code": "60856",
        "stop_id": "060856",
        "name": "ΜΑΚΡΥΓΙΑΝΝΗ",
        "order": "57"
      },
      "geometry": {
        "type": "Point",
        "coordinates": [
          23.7310552,
          37.9677794
        ]
      }
    },
    {
      "type": "Feature",
      "properties": {
        "type": "stop",
        "stop_code": "60998",
        "stop_id": "060998",
        "name": "ΣΥΝΤΑΓΜΑ",
        "order": "58"
      },
      "geometry": {
        "type": "Point",
        "coordinates": [
          23.7355221,
          37.9741884
        ]
      }
    },
    {
      "type": "Feature",
      "properties": {
        "type": "stop",
        "stop_code": "60015",
        "stop_id": "060015",
        "name": "ΝΟΜΙΣΜΑΤΙΚΟ ΜΟΥΣΕΙΟ",
        "order": "59"
      },
      "geometry": {
        "type": "Point",
        "coordinates": [
          23.735413,
          37.9777067
        ]
      }
    },
    {
      "type": "Feature",
      "properties": {
        "type": "stop",
        "stop_code": "11550",
        "stop_id": "911",
        "name": "ΑΦΕΤΗΡΙΑ - ΡΗΓΑ ΦΕΡΑΙΟΥ",
        "order": "60"
      },
      "geometry": {
        "type": "Point",
        "coordinates": [
          23.734075,
          37.980453
        ]
      }
    }
  ]
}