{
  "type": "FeatureCollection",
  "features": [
    {
      "type": "Feature",
      "properties": {
        "type": "route_path",
        "route_code": "4622",
        "descr": "ΚΗΦΙΣΙΑ - ΣΤΟΥΡΝΑΡΗ [ΑΠΟ ΣΤΑΣΗ 1η ΚΡΥΟΝΕΡΙΟΥ]"
      },
      "geometry": {
        "type": "LineString",
        "coordinates": [
          [
            23.85682,
            38.14118
          ],
          [
            23.85705,
            38.14112
          ],
          [
            23.8573,
            38.14102
          ],
          [
            23.8577,
            38.14088
          ],
          [
            23.85821,
            38.14069
          ],
          [
            23.8588,
            38.14047
          ],
          [
            23.8589,
            38.14052
          ],
          [
            23.85934,
            38.14116
          ],
          [
            23.85962,
            38.14141
          ],
          [
            23.85981,
            38.14142
          ],
          [
            23.86006,
            38.14122
          ],
          [
            23.86006,
            38.14111
          ],
          [
            23.85962,
            38.14044
          ],
          [
            23.8596,
            38.1402
          ],
          [
            23.85908,
            38.13957
          ],
          [
            23.8576,
            38.13674
          ],
          [
            23.85724,
            38.13569
          ],
          [
            23.85724,
            38.13554
          ],
          [
            23.8594,
            38.13314
          ],
          [
            23.85962,
            38.13262
          ],
          [
            23.85951,
            38.13184
          ],
          [
            23.85907,
            38.1312
          ],
          [
            23.85799,
            38.12992
          ],
          [
            23.85754,
            38.12926
          ],
          [
            23.8569,
            38.12762
          ],
          [
            23.85618,
            38.12467
          ],
          [
            23.85641,
            38.12395
          ],
          [
            23.85697,
            38.12316
          ],
          [
            23.85816,
            38.12229
          ],
          [
            23.85842,
            38.12195
          ],
          [
            23.85843,
            38.12118
          ],
          [
            23.85823,
            38.12047
          ],
          [
            23.85811,
            38.12025
          ],
          [
            23.85765,
            38.11959
          ],
          [
            23.85704,
            38.11903
          ],
          [
            23.85622,
            38.11854
          ],
          [
            23.85562,
            38.11798
          ],
          [
            23.85515,
            38.1173
          ],
          [
            23.85446,
            38.11665
          ],
          [
            23.85222,
            38.11524
          ],
          [
            23.85049,
            38.11452
          ],
          [
            23.84794,
            38.11395
          ],
          [
            23.84707,
            38.11363
          ],
          [
            23.84618,
            38.11318
          ],
          [
            23.84541,
            38.11269
          ],
          [
            23.84481,
            38.11211
          ],
          [
            23.84406,
            38.11152
          ],
          [
            23.84333,
            38.11108
          ],
          [
            23.8422,
            38.1106
          ],
          [
            23.84159,
            38.11063
          ],
          [
            23.84143,
            38.11052
          ],
          [
            23.84136,
            38.11028
          ],
          [
            23.84135,
            38.1101
          ],
          [
            23.84126,
            38.11002
          ],
          [
            23.83794,
            38.10828
          ],
          [
            23.83526,
            38.10719
          ],
          [
            23.83214,
            38.10506
          ],
          [
            23.83014,
            38.10329
          ],
          [
            23.82933,
            38.10285
          ],
          [
            23.82515,
            38.09937
          ],
          [
            23.82479,
            38.09877
          ],
          [
            23.82449,
            38.09803
          ],
          [
            23.82384,
            38.09569
          ],
          [
            23.82357,
            38.09499
          ],
          [
            23.82138,
            38.0915
          ],
          [
            23.82035,
            38.09074
          ],
          [
            23.81912,
            38.0895
          ],
          [
            23.81896,
            38.08936
          ],
          [
            23.8182,
            38.08892
          ],
          [
            23.81766,
            38.08839
          ],
          [
            23.81721,
            38.08773
          ],
          [
            23.81641,
            38.08629
          ],
          [
            23.81647,
            38.08556
          ],
          [
            23.81645,
            38.08477
          ],
          [
            23.81589,
            38.08335
          ],
          [
            23.81535,
            38.08271
          ],
          [
            23.81491,
            38.08204
          ],
          [
            23.81426,
            38.07982
          ],
          [
            23.81355,
            38.07838
          ],
          [
            23.81299,
            38.07775
          ],
          [
            23.81217,
            38.07631
          ],
          [
            23.81208,
            38.07557
          ],
          [
            23.81241,
            38.07407
          ],
          [
            23.81239,
            38.07333
          ],
          [
            23.81194,
            38.0727
          ],
          [
            23.81168,
            38.07242
          ],
          [
            23.81121,
            38.07174
          ],
          [
            23.81107,
            38.07104
          ],
          [
            23.81106,
            38.0699
          ],
          [
            23.81105,
            38.06914
          ],
          [
            23.81104,
            38.06882
          ],
          [
            23.81103,
            38.06854
          ],
          [
            23.81101,
            38.06816
          ],
          [
            23.81094,
            38.06787
          ],
          [
            23.81083,
            38.06757
          ],
          [
            23.81051,
            38.06721
          ],
          [
            23.81021,
            38.06686
          ],
          [
            23.80999,
            38.06656
          ],
          [
            23.80962,
            38.0657
          ],
          [
            23.80944,
            38.06499
          ],
          [
            23.8085,
            38.05866
          ],
          [
            23.80865,
            38.05785
          ],
          [
            23.80924,
            38.05722
          ],
          [
            23.81104,
            38.05651
          ],
          [
            23.81178,
            38.05609
          ],
          [
            23.81193,
            38.05568
          ],
          [
            23.81167,
            38.05496
          ],
          [
            23.81069,
            38.05287
          ],
          [
            23.8095,
            38.05059
          ],
          [
            23.80881,
            38.05002
          ],
          [
            23.80826,
            38.04939
          ],
          [
            23.80793,
            38.04872
          ],
          [
            23.80751,
            38.04697
          ],
          [
            23.80725,
            38.04634
          ],
          [
            23.80673,
            38.04565
          ],
          [
            23.80534,
            38.04462
          ],
          [
            23.8047,
            38.04398
          ],
          [
            23.80417,
            38.04332
          ],
          [
            23.80393,
            38.0431
          ],
          [
            23.80305,
            38.04266
          ],
          [
            23.80273,
            38.04236
          ],
          [
            23.80267,
            38.04221
          ],
          [
            23.80265,
            38.04142
          ],
          [
            23.80249,
            38.04107
          ],
          [
            23.80095,
            38.03916
          ],
          [
            23.80054,
            38.03861
          ],
          [
            23.79721,
            38.03575
          ],
          [
            23.79288,
            38.03077
          ],
          [
            23.79015,
            38.02777
          ],
          [
            23.7897,
            38.02713
          ],
          [
            23.7895,
            38.02659
          ],
          [
            23.78926,
            38.02222
          ],
          [
            23.78909,
            38.02143
          ],
          [
            23.7882,
            38.01931
          ],
          [
            23.78776,
            38.01868
          ],
          [
            23.77666,
            38.0065
          ],
          [
            23.77574,
            38.00539
          ],
          [
            23.77377,
            38.00267
          ],
          [
            23.7717,
            38.00045
          ],
          [
            23.77004,
            37.99916
          ],
          [
            23.76948,
            37.99863
          ],
          [
            23.76913,
            37.99819
          ],
          [
            23.76797,
            37.99577
          ],
          [
            23.76591,
            37.9914
          ],
          [
            23.76388,
            37.9889
          ],
          [
            23.76258,
            37.98775
          ],
          [
            23.76203,
            37.98732
          ],
          [
            23.76182,
            37.98716
          ],
          [
            23.7614,
            37.98669
          ],
          [
            23.76128,
            37.98659
          ],
          [
            23.76097,
            37.98665
          ],
          [
            23.74729,
            37.98922
          ],
          [
            23.74714,
            37.98923
          ],
          [
            23.73157,
            37.99181
          ],
          [
            23.7313,
            37.99179
          ],
          [
            23.7312,
            37.99172
          ],
          [
            23.7304,
            37.98866
          ],
          [
            23.73024,
            37.98797
          ],
          [
            23.73009,
            37.98757
          ],
          [
            23.72976,
            37.98757
          ],
          [
            23.72911,
            37.98771
          ]
        ]
      }
    },
    {
      "type": "Feature",
      "properties": {
        "type": "stop",
        "stop_code": "11972",
        "stop_id": "252",
        "name": "1η ΚΡΥΟΝΕΡΙΟΥ",
        "order": "1"
      },
      "geometry": {
        "type": "Point",
        "coordinates": [
          23.857725,
          38.14074
        ]
      }
    },
    {
      "type": "Feature",
      "properties": {
        "type": "stop",
        "stop_code": "500049",
        "stop_id": "500049",
        "name": "ΣΙΔΕΡΑ",
        "order": "2"
      },
      "geometry": {
        "type": "Point",
        "coordinates": [
          23.859451,
          38.1411864
        ]
      }
    },
    {
      "type": "Feature",
      "properties": {
        "type": "stop",
        "stop_code": "500040",
        "stop_id": "500040",
        "name": "ΠΛ. ΑΓ. ΣΤΕΦΑΝΟΥ",
        "order": "3"
      },
      "geometry": {
        "type": "Point",
        "coordinates": [
          23.8594961,
          38.1402808
        ]
      }
    },
    {
      "type": "Feature",
      "properties": {
        "type": "stop",
        "stop_code": "510020",
        "stop_id": "510020",
        "name": "ΜΑΡΑΘΩΝΟΣ",
        "order": "4"
      },
      "geometry": {
        "type": "Point",
        "coordinates": [
          23.8580878,
          38.1380123
        ]
      }
    },
    {
      "type": "Feature",
      "properties": {
        "type": "stop",
        "stop_code": "510021",
        "stop_id": "510021",
        "name": "ΜΠΑΡΜΠΑΛΑΜΠΡΟΥ",
        "order": "5"
      },
      "geometry": {
        "type": "Point",
        "coordinates": [
          23.8572926,
          38.1361458
        ]
      }
    },
    {
      "type": "Feature",
      "properties": {
        "type": "stop",
        "stop_code": "510022",
        "stop_id": "510022",
        "name": "ΠΑΝΑΓΙΤΣΑ",
        "order": "6"
      },
      "geometry": {
        "type": "Point",
        "coordinates": [
          23.8585294,
          38.1338671
        ]
      }
    },
    {
      "type": "Feature",
      "properties": {
        "type": "stop",
        "stop_code": "510006",
        "stop_id": "510006",
        "name": "Ο.Τ.Ε",
        "order": "7"
      },
      "geometry": {
        "type": "Point",
        "coordinates": [
          23.858854,
          38.1312087
        ]
      }
    },
    {
      "type": "Feature",
      "properties": {
        "type": "stop",
        "stop_code": "510009",
        "stop_id": "510009",
        "name": "ΒΑΡΒΑΡΕΣΟΥ",
        "order": "8"
      },
      "geometry": {
        "type": "Point",
        "coordinates": [
          23.8570227,
          38.1282684
        ]
      }
    },
    {
      "type": "Feature",
      "properties": {
        "type": "stop",
        "stop_code": "510007",
        "stop_id": "510007",
        "name": "ΑΓ. ΘΕΟΔΩΡΟΙ",
        "order": "9"
      },
      "geometry": {
        "type": "Point",
        "coordinates": [
          23.8564109,
          38.1260415
        ]
      }
    },
    {
      "type": "Feature",
      "properties": {
        "type": "stop",
        "stop_code": "510008",
        "stop_id": "510008",
        "name": "ΑΡΣΑΚΕΙΟ",
        "order": "10"
      },
      "geometry": {
        "type": "Point",
        "coordinates": [
          23.857056,
          38.1228879
        ]
      }
    },
    {
      "type": "Feature",
      "properties": {
        "type": "stop",
        "stop_code": "570009",
        "stop_id": "570009",
        "name": "ΔΡΟΣΙΑ",
        "order": "11"
      },
      "geometry": {
        "type": "Point",
        "coordinates": [
          23.8582015,
          38.1204919
        ]
      }
    },
    {
      "type": "Feature",
      "properties": {
        "type": "stop",
        "stop_code": "580014",
        "stop_id": "580014",
        "name": "ΖΑΝΝΕΙΟ",
        "order": "12"
      },
      "geometry": {
        "type": "Point",
        "coordinates": [
          23.8554967,
          38.1180549
        ]
      }
    },
    {
      "type": "Feature",
      "properties": {
        "type": "stop",
        "stop_code": "580015",
        "stop_id": "580015",
        "name": "ΑΓ. ΠΑΡΑΣΚΕΥΗ",
        "order": "13"
      },
      "geometry": {
        "type": "Point",
        "coordinates": [
          23.8524563,
          38.1154795
        ]
      }
    },
    {
      "type": "Feature",
      "properties": {
        "type": "stop",
        "stop_code": "580016",
        "stop_id": "580016",
        "name": "ΠΛ. ΝΑΡΚΙΣΣΟΥ",
        "order": "14"
      },
      "geometry": {
        "type": "Point",
        "coordinates": [
          23.848945,
          38.1142642
        ]
      }
    },
    {
      "type": "Feature",
      "properties": {
        "type": "stop",
        "stop_code": "580017",
        "stop_id": "580017",
        "name": "ΝΑΡΚΙΣΣΟΣ",
        "order": "15"
      },
      "geometry": {
        "type": "Point",
        "coordinates": [
          23.8472416,
          38.1137552
        ]
      }
    },
    {
      "type": "Feature",
      "properties": {
        "type": "stop",
        "stop_code": "580018",
        "stop_id": "580018",
        "name": "ΠΛ. ΗΦΑΙΣΤΟΥ",
        "order": "16"
      },
      "geometry": {
        "type": "Point",
        "coordinates": [
          23.8448365,
          38.1123996
        ]
      }
    },
    {
      "type": "Feature",
      "properties": {
        "type": "stop",
        "stop_code": "580024",
        "stop_id": "580024",
        "name": "ΠΛ. ΒΑΣ.ΠΑΥΛΟΥ",
        "order": "17"
      },
      "geometry": {
        "type": "Point",
        "coordinates": [
          23.8412901,
          38.1105209
        ]
      }
    },
    {
      "type": "Feature",
      "properties": {
        "type": "stop",
        "stop_code": "580025",
        "stop_id": "580025",
        "name": "ΠΛ. ΚΕΝΝΕΝΤΥ",
        "order": "18"
      },
      "geometry": {
        "type": "Point",
        "coordinates": [
          23.8388021,
          38.10877
        ]
      }
    },
    {
      "type": "Feature",
      "properties": {
        "type": "stop",
        "stop_code": "660006",
        "stop_id": "660006",
        "name": "ΔΙΑΝΙΤΑ",
        "order": "19"
      },
      "geometry": {
        "type": "Point",
        "coordinates": [
          23.8348762,
          38.1070914
        ]
      }
    },
    {
      "type": "Feature",
      "properties": {
        "type": "stop",
        "stop_code": "660007",
        "stop_id": "660007",
        "name": "6η ΕΚΑΛΗΣ",
        "order": "20"
      },
      "geometry": {
        "type": "Point",
        "coordinates": [
          23.8322307,
          38.1052373
        ]
      }
    },
    {
      "type": "Feature",
      "properties": {
        "type": "stop",
        "stop_code": "660008",
        "stop_id": "660008",
        "name": "5η ΕΚΑΛΗΣ",
        "order": "21"
      },
      "geometry": {
        "type": "Point",
        "coordinates": [
          23.830322,
          38.1034884
        ]
      }
    },
    {
      "type": "Feature",
      "properties": {
        "type": "stop",
        "stop_code": "660009",
        "stop_id": "660009",
        "name": "4η ΕΚΑΛΗΣ",
        "order": "22"
      },
      "geometry": {
        "type": "Point",
        "coordinates": [
          23.827895,
          38.1018341
        ]
      }
    },
    {
      "type": "Feature",
      "properties": {
        "type": "stop",
        "stop_code": "660010",
        "stop_id": "660010",
        "name": "ΦΟΡΟΣ",
        "order": "23"
      },
      "geometry": {
        "type": "Point",
        "coordinates": [
          23.8246896,
          38.0988162
        ]
      }
    },
    {
      "type": "Feature",
      "properties": {
        "type": "stop",
        "stop_code": "660029",
        "stop_id": "660029",
        "name": "ΑΝΤΙΓΟΝΗΣ",
        "order": "24"
      },
      "geometry": {
        "type": "Point",
        "coordinates": [
          23.8238633,
          38.0961743
        ]
      }
    },
    {
      "type": "Feature",
      "properties": {
        "type": "stop",
        "stop_code": "660011",
        "stop_id": "660011",
        "name": "ΚΑΣΤΡΙ",
        "order": "25"
      },
      "geometry": {
        "type": "Point",
        "coordinates": [
          23.8232737,
          38.0947584
        ]
      }
    },
    {
      "type": "Feature",
      "properties": {
        "type": "stop",
        "stop_code": "660012",
        "stop_id": "660012",
        "name": "ΣΧΟΛΕΙΟ",
        "order": "26"
      },
      "geometry": {
        "type": "Point",
        "coordinates": [
          23.8220693,
          38.092918
        ]
      }
    },
    {
      "type": "Feature",
      "properties": {
        "type": "stop",
        "stop_code": "660013",
        "stop_id": "660013",
        "name": "ΠΛ. ΝΕΑΣ ΕΡΥΘΡΑΙΑΣ",
        "order": "27"
      },
      "geometry": {
        "type": "Point",
        "coordinates": [
          23.819476,
          38.0901291
        ]
      }
    },
    {
      "type": "Feature",
      "properties": {
        "type": "stop",
        "stop_code": "660014",
        "stop_id": "660014",
        "name": "ΕΡΥΘΡΑΙΑ",
        "order": "28"
      },
      "geometry": {
        "type": "Point",
        "coordinates": [
          23.8179168,
          38.0888559
        ]
      }
    },
    {
      "type": "Feature",
      "properties": {
        "type": "stop",
        "stop_code": "270008",
        "stop_id": "270008",
        "name": "ΣΑΡΑΝΤΑΠΟΡΟΥ",
        "order": "29"
      },
      "geometry": {
        "type": "Point",
        "coordinates": [
          23.8160635,
          38.0839678
        ]
      }
    },
    {
      "type": "Feature",
      "properties": {
        "type": "stop",
        "stop_code": "270009",
        "stop_id": "270009",
        "name": "ΚΑΝΑΡΗ",
        "order": "30"
      },
      "geometry": {
        "type": "Point",
        "coordinates": [
          23.814416,
          38.0806216
        ]
      }
    },
    {
      "type": "Feature",
      "properties": {
        "type": "stop",
        "stop_code": "270010",
        "stop_id": "270010",
        "name": "ΜΑΡΚΕΤΟΥ",
        "order": "31"
      },
      "geometry": {
        "type": "Point",
        "coordinates": [
          23.8131697,
          38.0780924
        ]
      }
    },
    {
      "type": "Feature",
      "properties": {
        "type": "stop",
        "stop_code": "270011",
        "stop_id": "270011",
        "name": "ΟΘΩΝΟΣ",
        "order": "32"
      },
      "geometry": {
        "type": "Point",
        "coordinates": [
          23.8120175,
          38.0755461
        ]
      }
    },
    {
      "type": "Feature",
      "properties": {
        "type": "stop",
        "stop_code": "270013",
        "stop_id": "270013",
        "name": "ΠΛ. ΚΗΦΙΣΙΑΣ",
        "order": "33"
      },
      "geometry": {
        "type": "Point",
        "coordinates": [
          23.8117774,
          38.0727405
        ]
      }
    },
    {
      "type": "Feature",
      "properties": {
        "type": "stop",
        "stop_code": "270015",
        "stop_id": "270015",
        "name": "ΚΑΤ",
        "order": "34"
      },
      "geometry": {
        "type": "Point",
        "coordinates": [
          23.8093012,
          38.0647963
        ]
      }
    },
    {
      "type": "Feature",
      "properties": {
        "type": "stop",
        "stop_code": "90156",
        "stop_id": "090156",
        "name": "ΣΧΟΛΕΙΑ",
        "order": "35"
      },
      "geometry": {
        "type": "Point",
        "coordinates": [
          23.8084185,
          38.0586987
        ]
      }
    },
    {
      "type": "Feature",
      "properties": {
        "type": "stop",
        "stop_code": "90013",
        "stop_id": "090013",
        "name": "ΑΓΓΕΙΟΠΛΑΣΤΙΚΗ",
        "order": "36"
      },
      "geometry": {
        "type": "Point",
        "coordinates": [
          23.8104623,
          38.0565966
        ]
      }
    },
    {
      "type": "Feature",
      "properties": {
        "type": "stop",
        "stop_code": "90014",
        "stop_id": "090014",
        "name": "ΔΙΑΣΤΑΥΡΩΣΗ ΜΕΛΙΣΣΙΩΝ",
        "order": "37"
      },
      "geometry": {
        "type": "Point",
        "coordinates": [
          23.8109432,
          38.0534423
        ]
      }
    },
    {
      "type": "Feature",
      "properties": {
        "type": "stop",
        "stop_code": "90015",
        "stop_id": "090015",
        "name": "ΔΙΑΣΤΑΥΡΩΣΗ ΑΜΑΡΟΥΣΙΟΥ",
        "order": "38"
      },
      "geometry": {
        "type": "Point",
        "coordinates": [
          23.8097087,
          38.0510157
        ]
      }
    },
    {
      "type": "Feature",
      "properties": {
        "type": "stop",
        "stop_code": "90016",
        "stop_id": "090016",
        "name": "ΚΑΝΑΤΑΔΙΚΑ",
        "order": "39"
      },
      "geometry": {
        "type": "Point",
        "coordinates": [
          23.8077711,
          38.0484137
        ]
      }
    },
    {
      "type": "Feature",
      "properties": {
        "type": "stop",
        "stop_code": "90017",
        "stop_id": "090017",
        "name": "ΗΒΗ",
        "order": "40"
      },
      "geometry": {
        "type": "Point",
        "coordinates": [
          23.807474,
          38.0470258
        ]
      }
    },
    {
      "type": "Feature",
      "properties": {
        "type": "stop",
        "stop_code": "90018",
        "stop_id": "090018",
        "name": "ΟΤΕ",
        "order": "41"
      },
      "geometry": {
        "type": "Point",
        "coordinates": [
          23.8064443,
          38.0455639
        ]
      }
    },
    {
      "type": "Feature",
      "properties": {
        "type": "stop",
        "stop_code": "90019",
        "stop_id": "090019",
        "name": "ΒΛΑΣΤΟΥ",
        "order": "42"
      },
      "geometry": {
        "type": "Point",
        "coordinates": [
          23.804307,
          38.0437703
        ]
      }
    },
    {
      "type": "Feature",
      "properties": {
        "type": "stop",
        "stop_code": "90138",
        "stop_id": "090138",
        "name": "ΑΤΤΙΚΗ ΟΔΟΣ",
        "order": "43"
      },
      "geometry": {
        "type": "Point",
        "coordinates": [
          23.8026135,
          38.0420731
        ]
      }
    },
    {
      "type": "Feature",
      "properties": {
        "type": "stop",
        "stop_code": "90020",
        "stop_id": "090020",
        "name": "ΙΩΑΝΝΙΔΟΥ",
        "order": "44"
      },
      "geometry": {
        "type": "Point",
        "coordinates": [
          23.8012636,
          38.0397726
        ]
      }
    },
    {
      "type": "Feature",
      "properties": {
        "type": "stop",
        "stop_code": "90021",
        "stop_id": "090021",
        "name": "ΠΑΡΑΔΕΙΣΟΣ",
        "order": "45"
      },
      "geometry": {
        "type": "Point",
        "coordinates": [
          23.7985417,
          38.0370218
        ]
      }
    },
    {
      "type": "Feature",
      "properties": {
        "type": "stop",
        "stop_code": "90022",
        "stop_id": "090022",
        "name": "ΕΚΘΕΣΙΑΚΟ ΚΕΝΤΡΟ",
        "order": "46"
      },
      "geometry": {
        "type": "Point",
        "coordinates": [
          23.7963651,
          38.0350145
        ]
      }
    },
    {
      "type": "Feature",
      "properties": {
        "type": "stop",
        "stop_code": "90089",
        "stop_id": "090089",
        "name": "ΟΛΥΜΠΙΑΚΟ ΣΤΑΔΙΟ",
        "order": "47"
      },
      "geometry": {
        "type": "Point",
        "coordinates": [
          23.7940478,
          38.0324057
        ]
      }
    },
    {
      "type": "Feature",
      "properties": {
        "type": "stop",
        "stop_code": "90024",
        "stop_id": "090024",
        "name": "ΑΣΤΥΝΟΜΙΑ",
        "order": "48"
      },
      "geometry": {
        "type": "Point",
        "coordinates": [
          23.7913442,
          38.0292382
        ]
      }
    },
    {
      "type": "Feature",
      "properties": {
        "type": "stop",
        "stop_code": "90025",
        "stop_id": "090025",
        "name": "ΥΓΕΙΑ",
        "order": "49"
      },
      "geometry": {
        "type": "Point",
        "coordinates": [
          23.7894577,
          38.026634
        ]
      }
    },
    {
      "type": "Feature",
      "properties": {
        "type": "stop",
        "stop_code": "750025",
        "stop_id": "750025",
        "name": "ΠΕΡΙΠΤΕΡΟ",
        "order": "50"
      },
      "geometry": {
        "type": "Point",
        "coordinates": [
          23.7887895,
          38.0207429
        ]
      }
    },
    {
      "type": "Feature",
      "properties": {
        "type": "stop",
        "stop_code": "750026",
        "stop_id": "750026",
        "name": "ΣΕΡΡΩΝ",
        "order": "51"
      },
      "geometry": {
        "type": "Point",
        "coordinates": [
          23.7868942,
          38.0177927
        ]
      }
    },
    {
      "type": "Feature",
      "properties": {
        "type": "stop",
        "stop_code": "770027",
        "stop_id": "770027",
        "name": "ΚΟΛΛΕΓΙΟ",
        "order": "52"
      },
      "geometry": {
        "type": "Point",
        "coordinates": [
          23.7841172,
          38.0149391
        ]
      }
    },
    {
      "type": "Feature",
      "properties": {
        "type": "stop",
        "stop_code": "770028",
        "stop_id": "770028",
        "name": "ΑΡΣΑΚΕΙΟ",
        "order": "53"
      },
      "geometry": {
        "type": "Point",
        "coordinates": [
          23.7826754,
          38.0132511
        ]
      }
    },
    {
      "type": "Feature",
      "properties": {
        "type": "stop",
        "stop_code": "770029",
        "stop_id": "770029",
        "name": "1η ΑΓ. ΒΑΡΒΑΡΑΣ",
        "order": "54"
      },
      "geometry": {
        "type": "Point",
        "coordinates": [
          23.7794292,
          38.0095411
        ]
      }
    },
    {
      "type": "Feature",
      "properties": {
        "type": "stop",
        "stop_code": "770030",
        "stop_id": "770030",
        "name": "ΦΑΡΟΣ",
        "order": "55"
      },
      "geometry": {
        "type": "Point",
        "coordinates": [
          23.7762036,
          38.0061368
        ]
      }
    },
    {
      "type": "Feature",
      "properties": {
        "type": "stop",
        "stop_code": "770019",
        "stop_id": "770019",
        "name": "ΣΚΑΛΑΚΙΑ",
        "order": "56"
      },
      "geometry": {
        "type": "Point",
        "coordinates": [
          23.773912,
          38.0031132
        ]
      }
    },
    {
      "type": "Feature",
      "properties": {
        "type": "stop",
        "stop_code": "770020",
        "stop_id": "770020",
        "name": "ΝΤΑΛΙΑ",
        "order": "57"
      },
      "geometry": {
        "type": "Point",
        "coordinates": [
          23.7727886,
          38.001732
        ]
      }
    },
    {
      "type": "Feature",
      "properties": {
        "type": "stop",
        "stop_code": "770021",
        "stop_id": "770021",
        "name": "ΚΑΤΕΧΑΚΗ",
        "order": "58"
      },
      "geometry": {
        "type": "Point",
        "coordinates": [
          23.7708129,
          37.9997634
        ]
      }
    },
    {
      "type": "Feature",
      "properties": {
        "type": "stop",
        "stop_code": "60607",
        "stop_id": "060607",
        "name": "ΓΗΡΟΚΟΜΕΙΟ",
        "order": "59"
      },
      "geometry": {
        "type": "Point",
        "coordinates": [
          23.7678869,
          37.995774
        ]
      }
    },
    {
      "type": "Feature",
      "properties": {
        "type": "stop",
        "stop_code": "60608",
        "stop_id": "060608",
        "name": "ΕΡΥΘΡΟΣ ΣΤΑΥΡΟΣ",
        "order": "60"
      },
      "geometry": {
        "type": "Point",
        "coordinates": [
          23.7663256,
          37.9924992
        ]
      }
    },
    {
      "type": "Feature",
      "properties": {
        "type": "stop",
        "stop_code": "60610",
        "stop_id": "060610",
        "name": "ΖΕΡΒΑ",
        "order": "61"
      },
      "geometry": {
        "type": "Point",
        "coordinates": [
          23.7643641,
          37.9897464
        ]
      }
    },
    {
      "type": "Feature",
      "properties": {
        "type": "stop",
        "stop_code": "60611",
        "stop_id": "060611",
        "name": "ΑΜΠΕΛΟΚΗΠΟΙ",
        "order": "62"
      },
      "geometry": {
        "type": "Point",
        "coordinates": [
          23.7619005,
          37.9873891
        ]
      }
    },
    {
      "type": "Feature",
      "properties": {
        "type": "stop",
        "stop_code": "61126",
        "stop_id": "061126",
        "name": "ΣΤ. ΑΜΠΕΛΟΚΗΠΟΙ",
        "order": "63"
      },
      "geometry": {
        "type": "Point",
        "coordinates": [
          23.7571058,
          37.9875145
        ]
      }
    },
    {
      "type": "Feature",
      "properties": {
        "type": "stop",
        "stop_code": "60614",
        "stop_id": "060614",
        "name": "ΝΟΣΟΚΟΜΕΙΟ ΑΓ. ΣΑΒΒΑΣ",
        "order": "64"
      },
      "geometry": {
        "type": "Point",
        "coordinates": [
          23.7551573,
          37.987889
        ]
      }
    },
    {
      "type": "Feature",
      "properties": {
        "type": "stop",
        "stop_code": "60616",
        "stop_id": "060616",
        "name": "ΙΚΑ",
        "order": "65"
      },
      "geometry": {
        "type": "Point",
        "coordinates": [
          23.7510778,
          37.9886465
        ]
      }
    },
    {
      "type": "Feature",
      "properties": {
        "type": "stop",
        "stop_code": "60617",
        "stop_id": "060617",
        "name": "ΙΠΠΟΚΡΑΤΟΥΣ",
        "order": "66"
      },
      "geometry": {
        "type": "Point",
        "coordinates": [
          23.7474427,
          37.9893237
        ]
      }
    },
    {
      "type": "Feature",
      "properties": {
        "type": "stop",
        "stop_code": "60618",
        "stop_id": "060618",
        "name": "ΠΑΝΑΘΗΝΑΙΑ",
        "order": "67"
      },
      "geometry": {
        "type": "Point",
        "coordinates": [
          23.744161,
          37.9898935
        ]
      }
    },
    {
      "type": "Feature",
      "properties": {
        "type": "stop",
        "stop_code": "60619",
        "stop_id": "060619",
        "name": "ΣΟΝΙΑ",
        "order": "68"
      },
      "geometry": {
        "type": "Point",
        "coordinates": [
          23.742246,
          37.99015
        ]
      }
    },
    {
      "type": "Feature",
      "properties": {
        "type": "stop",
        "stop_code": "60058",
        "stop_id": "060058",
        "name": "ΠΑΡΚΟ",
        "order": "69"
      },
      "geometry": {
        "type": "Point",
        "coordinates": [
          23.7382584,
          37.9908629
        ]
      }
    },
    {
      "type": "Feature",
      "properties": {
        "type": "stop",
        "stop_code": "60620",
        "stop_id": "060620",
        "name": "ΠΕΔΙΟΝ ΑΡΕΩΣ",
        "order": "70"
      },
      "geometry": {
        "type": "Point",
        "coordinates": [
          23.7331268,
          37.9915954
        ]
      }
    },
    {
      "type": "Feature",
      "properties": {
        "type": "stop",
        "stop_code": "61011",
        "stop_id": "061011",
        "name": "ΠΟΛΥΤΕΧΝΕΙΟ",
        "order": "71"
      },
      "geometry": {
        "type": "Point",
        "coordinates": [
          23.7303264,
          37.9884693
        ]
      }
    },
    {
      "type": "Feature",
      "properties": {
        "type": "stop",
        "stop_code": "10374",
        "stop_id": "000168",
        "name": "ΣΤΟΥΡΝΑΡΗ",
        "order": "72"
      },
      "geometry": {
        "type": "Point",
        "coordinates": [
          23.729313,
          37.987833
        ]
      }
    }
  ]
}