{
  "type": "FeatureCollection",
  "properties": {
    "LineCode": "954",
    "LineID": "305",
    "LineDescr": "ΣΤ. ΝΟΜΙΣΜΑΤΟΚΟΠΕΙΟ - ΑΡΤΕΜΙΣ (ΑΓ. ΝΙΚΟΛΑΟΣ)",
    "RouteCode": "2037",
    "RouteDescr": "ΣΤ. ΝΟΜΙΣΜΑΤΟΚΟΠΕΙΟ - ΑΡΤΕΜΙΣ [ΑΓ. ΝΙΚΟΛΑΟΣ]",
    "RouteType": "1"
  },
  "features": [
    {
      "type": "Feature",
      "geometry": {
        "type": "LineString",
        "coordinates": [
          [
            23.80593,
            38.00977
          ],
          [
            23.80604,
            38.0101
          ],
          [
            23.80624,
            38.01005
          ],
          [
            23.80627,
            38.00996
          ],
          [
            23.80621,
            38.00943
          ],
          [
            23.80636,
            38.00932
          ],
          [
            23.8065,
            38.00933
          ],
          [
            23.8098,
            38.01081
          ],
          [
            23.82074,
            38.0135
          ],
          [
            23.83009,
            38.01378
          ],
          [
            23.83048,
            38.01375
          ],
          [
            23.83609,
            38.01256
          ],
          [
            23.83954,
            38.011
          ],
          [
            23.84052,
            38.01075
          ],
          [
            23.85384,
            38.00881
          ],
          [
            23.85819,
            38.00753
          ],
          [
            23.87336,
            38.00473
          ],
          [
            23.87706,
            38.00376
          ],
          [
            23.88046,
            38.00375
          ],
          [
            23.88082,
            38.00354
          ],
          [
            23.88077,
            38.00281
          ],
          [
            23.88073,
            38.0026
          ],
          [
            23.88063,
            38.00129
          ],
          [
            23.88016,
            37.99926
          ],
          [
            23.88017,
            37.99851
          ],
          [
            23.88026,
            37.99777
          ],
          [
            23.88309,
            37.98766
          ],
          [
            23.88394,
            37.98729
          ],
          [
            23.88946,
            37.9842
          ],
          [
            23.89304,
            37.98165
          ],
          [
            23.89641,
            37.97945
          ],
          [
            23.90245,
            37.97564
          ],
          [
            23.90378,
            37.97437
          ],
          [
            23.90428,
            37.97375
          ],
          [
            23.90552,
            37.97119
          ],
          [
            23.90567,
            37.96887
          ],
          [
            23.90627,
            37.96619
          ],
          [
            23.90666,
            37.96497
          ],
          [
            23.90735,
            37.96442
          ],
          [
            23.90815,
            37.96426
          ],
          [
            23.90873,
            37.96427
          ],
          [
            23.90881,
            37.96413
          ],
          [
            23.90897,
            37.96337
          ],
          [
            23.90937,
            37.96272
          ],
          [
            23.90962,
            37.96254
          ],
          [
            23.91054,
            37.96241
          ],
          [
            23.91212,
            37.96245
          ],
          [
            23.91319,
            37.96226
          ],
          [
            23.91407,
            37.96219
          ],
          [
            23.91737,
            37.96118
          ],
          [
            23.91971,
            37.96065
          ],
          [
            23.92443,
            37.96038
          ],
          [
            23.92765,
            37.95972
          ],
          [
            23.93342,
            37.95979
          ],
          [
            23.93772,
            37.9604
          ],
          [
            23.9523,
            37.95909
          ],
          [
            23.95427,
            37.95872
          ],
          [
            23.95847,
            37.95888
          ],
          [
            23.96482,
            37.95992
          ],
          [
            23.96588,
            37.95995
          ],
          [
            23.96692,
            37.95985
          ],
          [
            23.96791,
            37.95963
          ],
          [
            23.97177,
            37.95827
          ],
          [
            23.97278,
            37.95823
          ],
          [
            23.97387,
            37.95834
          ],
          [
            23.97466,
            37.9586
          ],
          [
            23.976,
            37.95953
          ],
          [
            23.97703,
            37.96003
          ],
          [
            23.9788,
            37.96058
          ],
          [
            23.97925,
            37.96062
          ],
          [
            23.97953,
            37.9606
          ],
          [
            23.97984,
            37.96069
          ],
          [
            23.98,
            37.96079
          ],
          [
            23.987,
            37.96595
          ],
          [
            23.99788,
            37.96812
          ],
          [
            24.00681,
            37.97009
          ],
          [
            24.00755,
            37.97018
          ],
          [
            24.00769,
            37.97017
          ],
          [
            24.00777,
            37.97024
          ],
          [
            24.0083,
            37.97107
          ],
          [
            24.00839,
            37.97153
          ],
          [
            24.00837,
            37.97213
          ],
          [
            24.00837,
            37.97505
          ],
          [
            24.00839,
            37.97514
          ],
          [
            24.00838,
            37.97768
          ],
          [
            24.00823,
            37.97797
          ],
          [
            24.00814,
            37.97829
          ],
          [
            24.00826,
            37.97905
          ],
          [
            24.00851,
            37.97977
          ],
          [
            24.01013,
            37.98256
          ],
          [
            24.01236,
            37.98521
          ],
          [
            24.01332,
            37.98743
          ],
          [
            24.01375,
            37.98814
          ],
          [
            24.01431,
            37.9887
          ],
          [
            24.01479,
            37.9893
          ],
          [
            24.01518,
            37.98999
          ],
          [
            24.01641,
            37.99114
          ],
          [
            24.01835,
            37.99191
          ],
          [
            24.019,
            37.99202
          ],
          [
            24.01972,
            37.99202
          ],
          [
            24.02027,
            37.99167
          ],
          [
            24.02056,
            37.99109
          ],
          [
            24.02042,
            37.99036
          ],
          [
            24.02042,
            37.99026
          ]
        ]
      },
      "properties": {
        "type": "route_path",
        "RouteCode": "2037"
      }
    },
    {
      "type": "Feature",
      "geometry": {
        "type": "Point",
        "coordinates": [
          23.806072,
          38.009866
        ]
      },
      "properties": {
        "type": "stop",
        "StopCode": "10306",
        "StopID": "000106",
        "StopDescr": "ΣΤ. ΝΟΜΙΣΜΑΤΟΚΟΠΕΙΟ",
        "StopOrder": "1",
        "StopType": "0"
      }
    },
    {
      "type": "Feature",
      "geometry": {
        "type": "Point",
        "coordinates": [
          23.8073089,
          38.0096583
        ]
      },
      "properties": {
        "type": "stop",
        "StopCode": "30413",
        "StopID": "030413",
        "StopDescr": "ΣΤ. ΝΟΜΙΣΜΑΤΟΚΟΠΕΙΟ",
        "StopOrder": "2",
        "StopType": "0"
      }
    },
    {
      "type": "Feature",
      "geometry": {
        "type": "Point",
        "coordinates": [
          23.8105383,
          38.010908
        ]
      },
      "properties": {
        "type": "stop",
        "StopCode": "30001",
        "StopID": "030001",
        "StopDescr": "9η ΜΕΣΟΓΕΙΩΝ",
        "StopOrder": "3",
        "StopType": "0"
      }
    },
    {
      "type": "Feature",
      "geometry": {
        "type": "Point",
        "coordinates": [
          23.8133875,
          38.0116207
        ]
      },
      "properties": {
        "type": "stop",
        "StopCode": "30002",
        "StopID": "030002",
        "StopDescr": "ΤΟΜΠΡΑ",
        "StopOrder": "4",
        "StopType": "0"
      }
    },
    {
      "type": "Feature",
      "geometry": {
        "type": "Point",
        "coordinates": [
          23.815589,
          38.012107
        ]
      },
      "properties": {
        "type": "stop",
        "StopCode": "30003",
        "StopID": "030003",
        "StopDescr": "11η ΑΓ. ΠΑΡΑΣΚΕΥΗΣ",
        "StopOrder": "5",
        "StopType": "0"
      }
    },
    {
      "type": "Feature",
      "geometry": {
        "type": "Point",
        "coordinates": [
          23.817303,
          38.0125796
        ]
      },
      "properties": {
        "type": "stop",
        "StopCode": "30004",
        "StopID": "030004",
        "StopDescr": "12η ΑΓ. ΠΑΡΑΣΚΕΥΗΣ",
        "StopOrder": "6",
        "StopType": "0"
      }
    },
    {
      "type": "Feature",
      "geometry": {
        "type": "Point",
        "coordinates": [
          23.8207502,
          38.0134167
        ]
      },
      "properties": {
        "type": "stop",
        "StopCode": "30005",
        "StopID": "030005",
        "StopDescr": "ΠΛ. ΑΓ. ΠΑΡΑΣΚΕΥΗΣ",
        "StopOrder": "7",
        "StopType": "0"
      }
    },
    {
      "type": "Feature",
      "geometry": {
        "type": "Point",
        "coordinates": [
          23.8259654,
          38.0137064
        ]
      },
      "properties": {
        "type": "stop",
        "StopCode": "30006",
        "StopID": "030006",
        "StopDescr": "ΕΡΤ",
        "StopOrder": "8",
        "StopType": "0"
      }
    },
    {
      "type": "Feature",
      "geometry": {
        "type": "Point",
        "coordinates": [
          23.8300992,
          38.0137245
        ]
      },
      "properties": {
        "type": "stop",
        "StopCode": "30008",
        "StopID": "030008",
        "StopDescr": "ΙΚΑ",
        "StopOrder": "9",
        "StopType": "0"
      }
    },
    {
      "type": "Feature",
      "geometry": {
        "type": "Point",
        "coordinates": [
          23.8341278,
          38.0129625
        ]
      },
      "properties": {
        "type": "stop",
        "StopCode": "30009",
        "StopID": "030009",
        "StopDescr": "ΔΗΜΗΤΡΑΣ",
        "StopOrder": "10",
        "StopType": "0"
      }
    },
    {
      "type": "Feature",
      "geometry": {
        "type": "Point",
        "coordinates": [
          23.8376977,
          38.0117615
        ]
      },
      "properties": {
        "type": "stop",
        "StopCode": "30010",
        "StopID": "030010",
        "StopDescr": "ΓΕΛΑΔΑΚΗ",
        "StopOrder": "11",
        "StopType": "0"
      }
    },
    {
      "type": "Feature",
      "geometry": {
        "type": "Point",
        "coordinates": [
          23.8422512,
          38.0104952
        ]
      },
      "properties": {
        "type": "stop",
        "StopCode": "30107",
        "StopID": "030107",
        "StopDescr": "ΣΤΑΥΡΟΣ",
        "StopOrder": "12",
        "StopType": "0"
      }
    },
    {
      "type": "Feature",
      "geometry": {
        "type": "Point",
        "coordinates": [
          23.8471513,
          38.0098469
        ]
      },
      "properties": {
        "type": "stop",
        "StopCode": "560002",
        "StopID": "560002",
        "StopDescr": "ΠΕΤΡΟΓΙΑΝΝΗ",
        "StopOrder": "13",
        "StopType": "0"
      }
    },
    {
      "type": "Feature",
      "geometry": {
        "type": "Point",
        "coordinates": [
          23.8524103,
          38.0089688
        ]
      },
      "properties": {
        "type": "stop",
        "StopCode": "560003",
        "StopID": "560003",
        "StopDescr": "ΠΑΝΑΓΙΤΣΑ",
        "StopOrder": "14",
        "StopType": "0"
      }
    },
    {
      "type": "Feature",
      "geometry": {
        "type": "Point",
        "coordinates": [
          23.8558665,
          38.0081632
        ]
      },
      "properties": {
        "type": "stop",
        "StopCode": "800010",
        "StopID": "800010",
        "StopDescr": "2η ΓΕΡΑΚΑ",
        "StopOrder": "15",
        "StopType": "0"
      }
    },
    {
      "type": "Feature",
      "geometry": {
        "type": "Point",
        "coordinates": [
          23.8578592,
          38.007551
        ]
      },
      "properties": {
        "type": "stop",
        "StopCode": "800222",
        "StopID": "800222",
        "StopDescr": "Β. ΡΩΤΑ",
        "StopOrder": "16",
        "StopType": "0"
      }
    },
    {
      "type": "Feature",
      "geometry": {
        "type": "Point",
        "coordinates": [
          23.8611542,
          38.0070159
        ]
      },
      "properties": {
        "type": "stop",
        "StopCode": "800078",
        "StopID": "800078",
        "StopDescr": "1η ΓΕΡΑΚΑ",
        "StopOrder": "17",
        "StopType": "0"
      }
    },
    {
      "type": "Feature",
      "geometry": {
        "type": "Point",
        "coordinates": [
          23.8651775,
          38.0062265
        ]
      },
      "properties": {
        "type": "stop",
        "StopCode": "800011",
        "StopID": "800011",
        "StopDescr": "ΠΥΡΓΟΣ",
        "StopOrder": "18",
        "StopType": "0"
      }
    },
    {
      "type": "Feature",
      "geometry": {
        "type": "Point",
        "coordinates": [
          23.8706574,
          38.0051971
        ]
      },
      "properties": {
        "type": "stop",
        "StopCode": "700001",
        "StopID": "700001",
        "StopDescr": "ΓΕΦΥΡΑ",
        "StopOrder": "19",
        "StopType": "0"
      }
    },
    {
      "type": "Feature",
      "geometry": {
        "type": "Point",
        "coordinates": [
          23.874836,
          38.004202
        ]
      },
      "properties": {
        "type": "stop",
        "StopCode": "700002",
        "StopID": "700002",
        "StopDescr": "ΑΣΥΡΜΑΤΟΣ",
        "StopOrder": "20",
        "StopType": "0"
      }
    },
    {
      "type": "Feature",
      "geometry": {
        "type": "Point",
        "coordinates": [
          23.8776143,
          38.0036869
        ]
      },
      "properties": {
        "type": "stop",
        "StopCode": "700003",
        "StopID": "700003",
        "StopDescr": "ΣΙΝΕ ΠΑΛΛΗΝΗ",
        "StopOrder": "21",
        "StopType": "0"
      }
    },
    {
      "type": "Feature",
      "geometry": {
        "type": "Point",
        "coordinates": [
          23.8807067,
          38.0034502
        ]
      },
      "properties": {
        "type": "stop",
        "StopCode": "700004",
        "StopID": "700004",
        "StopDescr": "ΣΤΡΟΦΗ ΠΑΛΛΗΝΗΣ",
        "StopOrder": "22",
        "StopType": "0"
      }
    },
    {
      "type": "Feature",
      "geometry": {
        "type": "Point",
        "coordinates": [
          23.8805394,
          38.0012689
        ]
      },
      "properties": {
        "type": "stop",
        "StopCode": "700006",
        "StopID": "700006",
        "StopDescr": "ΣΧΟΛΕΙΟ",
        "StopOrder": "23",
        "StopType": "0"
      }
    },
    {
      "type": "Feature",
      "geometry": {
        "type": "Point",
        "coordinates": [
          23.880297,
          37.997437
        ]
      },
      "properties": {
        "type": "stop",
        "StopCode": "700008",
        "StopID": "700008",
        "StopDescr": "ΕΦΟΡΙΑ",
        "StopOrder": "24",
        "StopType": "0"
      }
    },
    {
      "type": "Feature",
      "geometry": {
        "type": "Point",
        "coordinates": [
          23.8802271,
          37.9972219
        ]
      },
      "properties": {
        "type": "stop",
        "StopCode": "700007",
        "StopID": "700007",
        "StopDescr": "ΟΡΦΑΝΟΤΡΟΦΕΙΟ",
        "StopOrder": "25",
        "StopType": "0"
      }
    },
    {
      "type": "Feature",
      "geometry": {
        "type": "Point",
        "coordinates": [
          23.8821211,
          37.9906898
        ]
      },
      "properties": {
        "type": "stop",
        "StopCode": "700009",
        "StopID": "700009",
        "StopDescr": "ΤΑΒΕΡΝΑ",
        "StopOrder": "26",
        "StopType": "0"
      }
    },
    {
      "type": "Feature",
      "geometry": {
        "type": "Point",
        "coordinates": [
          23.8847225,
          37.9867869
        ]
      },
      "properties": {
        "type": "stop",
        "StopCode": "700010",
        "StopID": "700010",
        "StopDescr": "ΓΡΗΓΟΡΗΣ ΛΑΜΠΡΑΚΗΣ",
        "StopOrder": "27",
        "StopType": "0"
      }
    },
    {
      "type": "Feature",
      "geometry": {
        "type": "Point",
        "coordinates": [
          23.8888364,
          37.9845251
        ]
      },
      "properties": {
        "type": "stop",
        "StopCode": "700011",
        "StopID": "700011",
        "StopDescr": "ΓΑΒΑΛΑ",
        "StopOrder": "28",
        "StopType": "0"
      }
    },
    {
      "type": "Feature",
      "geometry": {
        "type": "Point",
        "coordinates": [
          23.8937211,
          37.9812173
        ]
      },
      "properties": {
        "type": "stop",
        "StopCode": "440001",
        "StopID": "440001",
        "StopDescr": "ΞΗΡΟΤΥΡΙ",
        "StopOrder": "29",
        "StopType": "0"
      }
    },
    {
      "type": "Feature",
      "geometry": {
        "type": "Point",
        "coordinates": [
          23.8971681,
          37.9789883
        ]
      },
      "properties": {
        "type": "stop",
        "StopCode": "440002",
        "StopID": "440002",
        "StopDescr": "ΚΑΤΣΑΟΥΝΗ",
        "StopOrder": "30",
        "StopType": "0"
      }
    },
    {
      "type": "Feature",
      "geometry": {
        "type": "Point",
        "coordinates": [
          23.899965,
          37.9771932
        ]
      },
      "properties": {
        "type": "stop",
        "StopCode": "440003",
        "StopID": "440003",
        "StopDescr": "ΕΙΚΟΝΟΣΤΑΣΙ",
        "StopOrder": "31",
        "StopType": "0"
      }
    },
    {
      "type": "Feature",
      "geometry": {
        "type": "Point",
        "coordinates": [
          23.9018156,
          37.9758633
        ]
      },
      "properties": {
        "type": "stop",
        "StopCode": "440004",
        "StopID": "440004",
        "StopDescr": "ΦΟΥΡΝΟΣ",
        "StopOrder": "32",
        "StopType": "0"
      }
    },
    {
      "type": "Feature",
      "geometry": {
        "type": "Point",
        "coordinates": [
          23.9042327,
          37.9733958
        ]
      },
      "properties": {
        "type": "stop",
        "StopCode": "440005",
        "StopID": "440005",
        "StopDescr": "ΑΓ. ΝΙΚΟΛΑΟΣ",
        "StopOrder": "33",
        "StopType": "0"
      }
    },
    {
      "type": "Feature",
      "geometry": {
        "type": "Point",
        "coordinates": [
          23.905129,
          37.971943
        ]
      },
      "properties": {
        "type": "stop",
        "StopCode": "440006",
        "StopID": "440006",
        "StopDescr": "ΖΩΗΣ",
        "StopOrder": "34",
        "StopType": "0"
      }
    },
    {
      "type": "Feature",
      "geometry": {
        "type": "Point",
        "coordinates": [
          23.9056259,
          37.9688411
        ]
      },
      "properties": {
        "type": "stop",
        "StopCode": "440007",
        "StopID": "440007",
        "StopDescr": "ΓΗΠΕΔΟ",
        "StopOrder": "35",
        "StopType": "0"
      }
    },
    {
      "type": "Feature",
      "geometry": {
        "type": "Point",
        "coordinates": [
          23.906187,
          37.9662971
        ]
      },
      "properties": {
        "type": "stop",
        "StopCode": "440008",
        "StopID": "440008",
        "StopDescr": "ΧΡΙΣΤΟΣ",
        "StopOrder": "36",
        "StopType": "0"
      }
    },
    {
      "type": "Feature",
      "geometry": {
        "type": "Point",
        "coordinates": [
          23.9076154,
          37.9642846
        ]
      },
      "properties": {
        "type": "stop",
        "StopCode": "440009",
        "StopID": "440009",
        "StopDescr": "ΒΡΥΣΗ",
        "StopOrder": "37",
        "StopType": "0"
      }
    },
    {
      "type": "Feature",
      "geometry": {
        "type": "Point",
        "coordinates": [
          23.9108499,
          37.9623306
        ]
      },
      "properties": {
        "type": "stop",
        "StopCode": "440010",
        "StopID": "440010",
        "StopDescr": "ΠΑΝΑΓΙΑ",
        "StopOrder": "38",
        "StopType": "0"
      }
    },
    {
      "type": "Feature",
      "geometry": {
        "type": "Point",
        "coordinates": [
          23.9143376,
          37.9620097
        ]
      },
      "properties": {
        "type": "stop",
        "StopCode": "440012",
        "StopID": "440012",
        "StopDescr": "ΔΗΜΑΡΧΕΙΟ",
        "StopOrder": "39",
        "StopType": "0"
      }
    },
    {
      "type": "Feature",
      "geometry": {
        "type": "Point",
        "coordinates": [
          23.9160295,
          37.9615204
        ]
      },
      "properties": {
        "type": "stop",
        "StopCode": "440013",
        "StopID": "440013",
        "StopDescr": "ΠΛΑΤΕΙΑ",
        "StopOrder": "40",
        "StopType": "0"
      }
    },
    {
      "type": "Feature",
      "geometry": {
        "type": "Point",
        "coordinates": [
          23.9197882,
          37.9605099
        ]
      },
      "properties": {
        "type": "stop",
        "StopCode": "440015",
        "StopID": "440015",
        "StopDescr": "ΠΕΡΙΠΤΕΡΟ",
        "StopOrder": "41",
        "StopType": "0"
      }
    },
    {
      "type": "Feature",
      "geometry": {
        "type": "Point",
        "coordinates": [
          23.9226798,
          37.9603767
        ]
      },
      "properties": {
        "type": "stop",
        "StopCode": "440095",
        "StopID": "440095",
        "StopDescr": "ΚΕΚΡΟΠΟΣ",
        "StopOrder": "42",
        "StopType": "0"
      }
    },
    {
      "type": "Feature",
      "geometry": {
        "type": "Point",
        "coordinates": [
          23.9281301,
          37.9596336
        ]
      },
      "properties": {
        "type": "stop",
        "StopCode": "440011",
        "StopID": "440011",
        "StopDescr": "ΔΙΑΣΤΑΥΡΩΣΗ",
        "StopOrder": "43",
        "StopType": "0"
      }
    },
    {
      "type": "Feature",
      "geometry": {
        "type": "Point",
        "coordinates": [
          23.9333939,
          37.9597532
        ]
      },
      "properties": {
        "type": "stop",
        "StopCode": "440057",
        "StopID": "440057",
        "StopDescr": "ΑΓ. ΠΕΤΡΟΣ",
        "StopOrder": "44",
        "StopType": "0"
      }
    },
    {
      "type": "Feature",
      "geometry": {
        "type": "Point",
        "coordinates": [
          23.9359038,
          37.9601385
        ]
      },
      "properties": {
        "type": "stop",
        "StopCode": "440061",
        "StopID": "440061",
        "StopDescr": "ΤΑΧ. ΘΥΡΙΔΕΣ",
        "StopOrder": "45",
        "StopType": "0"
      }
    },
    {
      "type": "Feature",
      "geometry": {
        "type": "Point",
        "coordinates": [
          23.9387465,
          37.9603718
        ]
      },
      "properties": {
        "type": "stop",
        "StopCode": "440016",
        "StopID": "440016",
        "StopDescr": "ΑΓ. ΚΩΝ/ΝΟΣ",
        "StopOrder": "46",
        "StopType": "0"
      }
    },
    {
      "type": "Feature",
      "geometry": {
        "type": "Point",
        "coordinates": [
          23.9425358,
          37.9599843
        ]
      },
      "properties": {
        "type": "stop",
        "StopCode": "440049",
        "StopID": "440049",
        "StopDescr": "ΚΟΛΙΚΡΕΠΙ",
        "StopOrder": "47",
        "StopType": "0"
      }
    },
    {
      "type": "Feature",
      "geometry": {
        "type": "Point",
        "coordinates": [
          23.9501809,
          37.9592752
        ]
      },
      "properties": {
        "type": "stop",
        "StopCode": "440017",
        "StopID": "440017",
        "StopDescr": "1η ΑΕΡΟΔΡΟΜΙΟΥ",
        "StopOrder": "48",
        "StopType": "0"
      }
    },
    {
      "type": "Feature",
      "geometry": {
        "type": "Point",
        "coordinates": [
          23.958431,
          37.9588131
        ]
      },
      "properties": {
        "type": "stop",
        "StopCode": "440025",
        "StopID": "440025",
        "StopDescr": "2η ΑΕΡΟΔΡΟΜΙΟΥ",
        "StopOrder": "49",
        "StopType": "0"
      }
    },
    {
      "type": "Feature",
      "geometry": {
        "type": "Point",
        "coordinates": [
          23.9685129,
          37.9594215
        ]
      },
      "properties": {
        "type": "stop",
        "StopCode": "440018",
        "StopID": "440018",
        "StopDescr": "ΣΥΝΕΤΑΙΡΙΣΜΟΣ ΘΥΡΩΡΩΝ",
        "StopOrder": "50",
        "StopType": "0"
      }
    },
    {
      "type": "Feature",
      "geometry": {
        "type": "Point",
        "coordinates": [
          23.9764385,
          37.9596199
        ]
      },
      "properties": {
        "type": "stop",
        "StopCode": "790001",
        "StopID": "790001",
        "StopDescr": "ΑΠΟΣΠΟΡΗ",
        "StopOrder": "51",
        "StopType": "0"
      }
    },
    {
      "type": "Feature",
      "geometry": {
        "type": "Point",
        "coordinates": [
          23.9808434,
          37.9613737
        ]
      },
      "properties": {
        "type": "stop",
        "StopCode": "790002",
        "StopID": "790002",
        "StopDescr": "ΑΓ. ΙΩΑΝΝΗΣ",
        "StopOrder": "52",
        "StopType": "0"
      }
    },
    {
      "type": "Feature",
      "geometry": {
        "type": "Point",
        "coordinates": [
          23.9834801,
          37.963331
        ]
      },
      "properties": {
        "type": "stop",
        "StopCode": "790003",
        "StopID": "790003",
        "StopDescr": "ΑΓ. ΚΥΡΙΑΚΗ",
        "StopOrder": "53",
        "StopType": "0"
      }
    },
    {
      "type": "Feature",
      "geometry": {
        "type": "Point",
        "coordinates": [
          23.984955,
          37.964467
        ]
      },
      "properties": {
        "type": "stop",
        "StopCode": "790004",
        "StopID": "790004",
        "StopDescr": "ΓΙΟΥΡΓΑ",
        "StopOrder": "54",
        "StopType": "0"
      }
    },
    {
      "type": "Feature",
      "geometry": {
        "type": "Point",
        "coordinates": [
          23.9902881,
          37.9665796
        ]
      },
      "properties": {
        "type": "stop",
        "StopCode": "790005",
        "StopID": "790005",
        "StopDescr": "ΑΓ. ΝΕΚΤΑΡΙΟΣ",
        "StopOrder": "55",
        "StopType": "0"
      }
    },
    {
      "type": "Feature",
      "geometry": {
        "type": "Point",
        "coordinates": [
          23.9954312,
          37.9676063
        ]
      },
      "properties": {
        "type": "stop",
        "StopCode": "790006",
        "StopID": "790006",
        "StopDescr": "ΟΤΕ",
        "StopOrder": "56",
        "StopType": "0"
      }
    },
    {
      "type": "Feature",
      "geometry": {
        "type": "Point",
        "coordinates": [
          23.9981884,
          37.9681106
        ]
      },
      "properties": {
        "type": "stop",
        "StopCode": "790007",
        "StopID": "790007",
        "StopDescr": "ΞΕΝΟΦΩΝΤΟΣ",
        "StopOrder": "57",
        "StopType": "0"
      }
    },
    {
      "type": "Feature",
      "geometry": {
        "type": "Point",
        "coordinates": [
          24.0010305,
          37.9687504
        ]
      },
      "properties": {
        "type": "stop",
        "StopCode": "790008",
        "StopID": "790008",
        "StopDescr": "ΧΑΡΟΥΛΑ",
        "StopOrder": "58",
        "StopType": "0"
      }
    },
    {
      "type": "Feature",
      "geometry": {
        "type": "Point",
        "coordinates": [
          24.0034481,
          37.969282
        ]
      },
      "properties": {
        "type": "stop",
        "StopCode": "790009",
        "StopID": "790009",
        "StopDescr": "ΜΑΚΡΗ",
        "StopOrder": "59",
        "StopType": "0"
      }
    },
    {
      "type": "Feature",
      "geometry": {
        "type": "Point",
        "coordinates": [
          24.0082635,
          37.9708478
        ]
      },
      "properties": {
        "type": "stop",
        "StopCode": "790010",
        "StopID": "790010",
        "StopDescr": "ΣΤΡΟΦΗ",
        "StopOrder": "60",
        "StopType": "0"
      }
    },
    {
      "type": "Feature",
      "geometry": {
        "type": "Point",
        "coordinates": [
          24.0084133,
          37.9729644
        ]
      },
      "properties": {
        "type": "stop",
        "StopCode": "11612",
        "StopID": "792010",
        "StopDescr": "ΔΗΜΑΡΧΕΙΟ",
        "StopOrder": "61",
        "StopType": "0"
      }
    },
    {
      "type": "Feature",
      "geometry": {
        "type": "Point",
        "coordinates": [
          24.0084917,
          37.9749847
        ]
      },
      "properties": {
        "type": "stop",
        "StopCode": "790012",
        "StopID": "790012",
        "StopDescr": "ΑΓ. ΜΑΡΙΝΑ",
        "StopOrder": "62",
        "StopType": "0"
      }
    },
    {
      "type": "Feature",
      "geometry": {
        "type": "Point",
        "coordinates": [
          24.0082643,
          37.978013
        ]
      },
      "properties": {
        "type": "stop",
        "StopCode": "790013",
        "StopID": "790013",
        "StopDescr": "ΠΛ. ΕΘΝ. ΑΝΤΙΣΤΑΣΗΣ",
        "StopOrder": "63",
        "StopType": "0"
      }
    },
    {
      "type": "Feature",
      "geometry": {
        "type": "Point",
        "coordinates": [
          24.0088339,
          37.9802662
        ]
      },
      "properties": {
        "type": "stop",
        "StopCode": "790014",
        "StopID": "790014",
        "StopDescr": "ΤΟΥΝΤΑ",
        "StopOrder": "64",
        "StopType": "0"
      }
    },
    {
      "type": "Feature",
      "geometry": {
        "type": "Point",
        "coordinates": [
          24.0105993,
          37.983024
        ]
      },
      "properties": {
        "type": "stop",
        "StopCode": "790015",
        "StopID": "790015",
        "StopDescr": "ΔΗΜΟΤΙΚΑ ΙΑΤΡΕΙΑ",
        "StopOrder": "65",
        "StopType": "0"
      }
    },
    {
      "type": "Feature",
      "geometry": {
        "type": "Point",
        "coordinates": [
          24.0126152,
          37.9856195
        ]
      },
      "properties": {
        "type": "stop",
        "StopCode": "790052",
        "StopID": "790052",
        "StopDescr": "ΠΑΛ.ΤΕΡΜΑ",
        "StopOrder": "66",
        "StopType": "0"
      }
    },
    {
      "type": "Feature",
      "geometry": {
        "type": "Point",
        "coordinates": [
          24.0134811,
          37.9876022
        ]
      },
      "properties": {
        "type": "stop",
        "StopCode": "790064",
        "StopID": "790064",
        "StopDescr": "ΓΗΠΕΔΟ",
        "StopOrder": "67",
        "StopType": "0"
      }
    },
    {
      "type": "Feature",
      "geometry": {
        "type": "Point",
        "coordinates": [
          24.0143126,
          37.9885936
        ]
      },
      "properties": {
        "type": "stop",
        "StopCode": "790053",
        "StopID": "790053",
        "StopDescr": "ΔΑΙΔΑΛΟΥ",
        "StopOrder": "68",
        "StopType": "0"
      }
    },
    {
      "type": "Feature",
      "geometry": {
        "type": "Point",
        "coordinates": [
          24.0154792,
          37.9902294
        ]
      },
      "properties": {
        "type": "stop",
        "StopCode": "790054",
        "StopID": "790054",
        "StopDescr": "ΔΗΜΟΚΡΙΤΟΥ",
        "StopOrder": "69",
        "StopType": "0"
      }
    },
    {
      "type": "Feature",
      "geometry": {
        "type": "Point",
        "coordinates": [
          24.020604,
          37.9905235
        ]
      },
      "properties": {
        "type": "stop",
        "StopCode": "10356",
        "StopID": "000151",
        "StopDescr": "ΑΡΤΕΜΙΣ (ΑΓ. ΝΙΚΟΛΑΟΣ)",
        "StopOrder": "70",
        "StopType": "0"
      }
    }
  ]
}