{
  "type": "FeatureCollection",
  "features": [
    {
      "type": "Feature",
      "properties": {
        "type": "route_path",
        "route_code": "2056",
        "descr": "ΑΡΤΕΜΙΣ [ΒΡΑΥΡΩΝΑ] - ΣΤ. ΝΟΜΙΣΜΑΤΟΚΟΠΕΙΟ"
      },
      "geometry": {
        "type": "LineString",
        "coordinates": [
          [
            24.00539,
            37.93127
          ],
          [
            24.00571,
            37.93189
          ],
          [
            24.00614,
            37.93253
          ],
          [
            24.00639,
            37.93275
          ],
          [
            24.00771,
            37.93263
          ],
          [
            24.00983,
            37.93276
          ],
          [
            24.01099,
            37.93266
          ],
          [
            24.01182,
            37.93409
          ],
          [
            24.01195,
            37.93478
          ],
          [
            24.01195,
            37.93489
          ],
          [
            24.0121,
            37.93567
          ],
          [
            24.01262,
            37.93699
          ],
          [
            24.01249,
            37.9372
          ],
          [
            24.0122,
            37.93745
          ],
          [
            24.01151,
            37.93793
          ],
          [
            24.011,
            37.93858
          ],
          [
            24.01051,
            37.93942
          ],
          [
            24.01018,
            37.93987
          ],
          [
            24.00966,
            37.94032
          ],
          [
            24.00969,
            37.94067
          ],
          [
            24.00964,
            37.94091
          ],
          [
            24.00948,
            37.94116
          ],
          [
            24.00927,
            37.94128
          ],
          [
            24.009,
            37.94133
          ],
          [
            24.00863,
            37.94145
          ],
          [
            24.00843,
            37.94156
          ],
          [
            24.00833,
            37.94186
          ],
          [
            24.00831,
            37.94215
          ],
          [
            24.00814,
            37.94273
          ],
          [
            24.00776,
            37.94519
          ],
          [
            24.00775,
            37.94608
          ],
          [
            24.00767,
            37.9469
          ],
          [
            24.00782,
            37.9484
          ],
          [
            24.00738,
            37.94987
          ],
          [
            24.00733,
            37.95116
          ],
          [
            24.0068,
            37.95254
          ],
          [
            24.00615,
            37.9534
          ],
          [
            24.00646,
            37.95415
          ],
          [
            24.00654,
            37.95462
          ],
          [
            24.0062,
            37.95533
          ],
          [
            24.00597,
            37.95589
          ],
          [
            24.00576,
            37.95649
          ],
          [
            24.0055,
            37.95737
          ],
          [
            24.00541,
            37.95795
          ],
          [
            24.0058,
            37.96412
          ],
          [
            24.0063,
            37.96722
          ],
          [
            24.00766,
            37.97017
          ],
          [
            24.0075,
            37.97025
          ],
          [
            23.98889,
            37.9664
          ],
          [
            23.98621,
            37.96552
          ],
          [
            23.97995,
            37.9608
          ],
          [
            23.97939,
            37.96063
          ],
          [
            23.97745,
            37.96025
          ],
          [
            23.97646,
            37.95977
          ],
          [
            23.97427,
            37.95844
          ],
          [
            23.97253,
            37.95824
          ],
          [
            23.97174,
            37.95838
          ],
          [
            23.96904,
            37.95938
          ],
          [
            23.96607,
            37.95996
          ],
          [
            23.96492,
            37.96006
          ],
          [
            23.95744,
            37.95881
          ],
          [
            23.95404,
            37.95875
          ],
          [
            23.95129,
            37.95924
          ],
          [
            23.9462,
            37.95961
          ],
          [
            23.93948,
            37.96047
          ],
          [
            23.93757,
            37.96051
          ],
          [
            23.93624,
            37.96032
          ],
          [
            23.93338,
            37.9599
          ],
          [
            23.92842,
            37.95976
          ],
          [
            23.92739,
            37.95984
          ],
          [
            23.92697,
            37.95997
          ],
          [
            23.92692,
            37.96008
          ],
          [
            23.92701,
            37.96097
          ],
          [
            23.92675,
            37.96165
          ],
          [
            23.92459,
            37.96477
          ],
          [
            23.92391,
            37.9654
          ],
          [
            23.91313,
            37.9681
          ],
          [
            23.91211,
            37.96821
          ],
          [
            23.90618,
            37.96814
          ],
          [
            23.90591,
            37.96819
          ],
          [
            23.90574,
            37.96871
          ],
          [
            23.9056,
            37.97076
          ],
          [
            23.90544,
            37.97149
          ],
          [
            23.9047,
            37.973
          ],
          [
            23.90413,
            37.97404
          ],
          [
            23.90314,
            37.97505
          ],
          [
            23.90173,
            37.97615
          ],
          [
            23.88862,
            37.98476
          ],
          [
            23.88396,
            37.98732
          ],
          [
            23.88305,
            37.98769
          ],
          [
            23.88211,
            37.98798
          ],
          [
            23.8748,
            37.99234
          ],
          [
            23.87277,
            37.9898
          ],
          [
            23.87262,
            37.98969
          ],
          [
            23.87085,
            37.99006
          ],
          [
            23.87004,
            37.99047
          ],
          [
            23.86993,
            37.9908
          ],
          [
            23.87024,
            37.99097
          ],
          [
            23.87223,
            37.99329
          ],
          [
            23.87224,
            37.99341
          ],
          [
            23.87202,
            37.99398
          ],
          [
            23.87052,
            37.99493
          ],
          [
            23.87024,
            37.99542
          ],
          [
            23.87033,
            37.99587
          ],
          [
            23.87027,
            37.99595
          ],
          [
            23.86943,
            37.99628
          ],
          [
            23.86471,
            37.99891
          ],
          [
            23.86141,
            38.00023
          ],
          [
            23.85853,
            38.00211
          ],
          [
            23.85538,
            38.00373
          ],
          [
            23.8548,
            38.00418
          ],
          [
            23.85355,
            38.00717
          ],
          [
            23.85341,
            38.0079
          ],
          [
            23.8534,
            38.00811
          ],
          [
            23.85358,
            38.00891
          ],
          [
            23.85351,
            38.009
          ],
          [
            23.85296,
            38.00915
          ],
          [
            23.84044,
            38.01105
          ],
          [
            23.83956,
            38.0113
          ],
          [
            23.83626,
            38.01272
          ],
          [
            23.82952,
            38.01398
          ],
          [
            23.82064,
            38.01365
          ],
          [
            23.81975,
            38.01348
          ],
          [
            23.80977,
            38.01099
          ],
          [
            23.80862,
            38.01057
          ],
          [
            23.80579,
            38.00918
          ],
          [
            23.80568,
            38.00942
          ],
          [
            23.80563,
            38.00964
          ],
          [
            23.80569,
            38.00979
          ],
          [
            23.80573,
            38.00996
          ]
        ]
      }
    },
    {
      "type": "Feature",
      "properties": {
        "type": "stop",
        "stop_code": "10362",
        "stop_id": "000157",
        "name": "ΑΡΤΕΜΙΣ",
        "order": "1"
      },
      "geometry": {
        "type": "Point",
        "coordinates": [
          24.001648,
          37.929294
        ]
      }
    },
    {
      "type": "Feature",
      "properties": {
        "type": "stop",
        "stop_code": "790062",
        "stop_id": "790062",
        "name": "12η ΒΡΑΥΡΩΝΟΣ",
        "order": "2"
      },
      "geometry": {
        "type": "Point",
        "coordinates": [
          24.0087913,
          37.9326554
        ]
      }
    },
    {
      "type": "Feature",
      "properties": {
        "type": "stop",
        "stop_code": "790063",
        "stop_id": "790063",
        "name": "11η ΒΡΑΥΡΩΝΟΣ",
        "order": "3"
      },
      "geometry": {
        "type": "Point",
        "coordinates": [
          24.0119495,
          37.9342414
        ]
      }
    },
    {
      "type": "Feature",
      "properties": {
        "type": "stop",
        "stop_code": "790032",
        "stop_id": "790032",
        "name": "10η ΒΡΑΥΡΩΝΟΣ",
        "order": "4"
      },
      "geometry": {
        "type": "Point",
        "coordinates": [
          24.0122181,
          37.9358152
        ]
      }
    },
    {
      "type": "Feature",
      "properties": {
        "type": "stop",
        "stop_code": "10711",
        "stop_id": "790136",
        "name": "2ο ΛΥΚΕΙΟ",
        "order": "5"
      },
      "geometry": {
        "type": "Point",
        "coordinates": [
          24.0108588,
          37.938991
        ]
      }
    },
    {
      "type": "Feature",
      "properties": {
        "type": "stop",
        "stop_code": "790033",
        "stop_id": "790033",
        "name": "9η ΒΡΑΥΡΩΝΟΣ",
        "order": "6"
      },
      "geometry": {
        "type": "Point",
        "coordinates": [
          24.0097092,
          37.9409444
        ]
      }
    },
    {
      "type": "Feature",
      "properties": {
        "type": "stop",
        "stop_code": "790034",
        "stop_id": "790034",
        "name": "8η ΒΡΑΥΡΩΝΟΣ",
        "order": "7"
      },
      "geometry": {
        "type": "Point",
        "coordinates": [
          24.0081034,
          37.9431827
        ]
      }
    },
    {
      "type": "Feature",
      "properties": {
        "type": "stop",
        "stop_code": "790035",
        "stop_id": "790035",
        "name": "7η ΒΡΑΥΡΩΝΟΣ",
        "order": "8"
      },
      "geometry": {
        "type": "Point",
        "coordinates": [
          24.0078002,
          37.9461619
        ]
      }
    },
    {
      "type": "Feature",
      "properties": {
        "type": "stop",
        "stop_code": "790036",
        "stop_id": "790036",
        "name": "6η ΒΡΑΥΡΩΝΟΣ",
        "order": "9"
      },
      "geometry": {
        "type": "Point",
        "coordinates": [
          24.0075474,
          37.9495178
        ]
      }
    },
    {
      "type": "Feature",
      "properties": {
        "type": "stop",
        "stop_code": "790037",
        "stop_id": "790037",
        "name": "5η ΒΡΑΥΡΩΝΟΣ",
        "order": "10"
      },
      "geometry": {
        "type": "Point",
        "coordinates": [
          24.0068693,
          37.9525371
        ]
      }
    },
    {
      "type": "Feature",
      "properties": {
        "type": "stop",
        "stop_code": "790038",
        "stop_id": "790038",
        "name": "4η ΒΡΑΥΡΩΝΟΣ",
        "order": "11"
      },
      "geometry": {
        "type": "Point",
        "coordinates": [
          24.0058926,
          37.9562989
        ]
      }
    },
    {
      "type": "Feature",
      "properties": {
        "type": "stop",
        "stop_code": "790039",
        "stop_id": "790039",
        "name": "3η ΒΡΑΥΡΩΝΟΣ",
        "order": "12"
      },
      "geometry": {
        "type": "Point",
        "coordinates": [
          24.0055982,
          37.9595331
        ]
      }
    },
    {
      "type": "Feature",
      "properties": {
        "type": "stop",
        "stop_code": "790040",
        "stop_id": "790040",
        "name": "2η ΒΡΑΥΡΩΝΟΣ",
        "order": "13"
      },
      "geometry": {
        "type": "Point",
        "coordinates": [
          24.0058564,
          37.9637858
        ]
      }
    },
    {
      "type": "Feature",
      "properties": {
        "type": "stop",
        "stop_code": "790041",
        "stop_id": "790041",
        "name": "1η ΒΡΑΥΡΩΝΟΣ",
        "order": "14"
      },
      "geometry": {
        "type": "Point",
        "coordinates": [
          24.0066831,
          37.9678893
        ]
      }
    },
    {
      "type": "Feature",
      "properties": {
        "type": "stop",
        "stop_code": "790042",
        "stop_id": "790042",
        "name": "ΣΤΡΟΦΗ",
        "order": "15"
      },
      "geometry": {
        "type": "Point",
        "coordinates": [
          24.0067186,
          37.9701179
        ]
      }
    },
    {
      "type": "Feature",
      "properties": {
        "type": "stop",
        "stop_code": "790043",
        "stop_id": "790043",
        "name": "ΜΑΚΡΗ",
        "order": "16"
      },
      "geometry": {
        "type": "Point",
        "coordinates": [
          24.0037075,
          37.9694835
        ]
      }
    },
    {
      "type": "Feature",
      "properties": {
        "type": "stop",
        "stop_code": "790044",
        "stop_id": "790044",
        "name": "ΧΑΡΟΥΛΑ",
        "order": "17"
      },
      "geometry": {
        "type": "Point",
        "coordinates": [
          24.0007437,
          37.9688301
        ]
      }
    },
    {
      "type": "Feature",
      "properties": {
        "type": "stop",
        "stop_code": "790045",
        "stop_id": "790045",
        "name": "ΞΕΝΟΦΩΝΤΟΣ",
        "order": "18"
      },
      "geometry": {
        "type": "Point",
        "coordinates": [
          23.9983028,
          37.9683397
        ]
      }
    },
    {
      "type": "Feature",
      "properties": {
        "type": "stop",
        "stop_code": "790046",
        "stop_id": "790046",
        "name": "ΟΤΕ",
        "order": "19"
      },
      "geometry": {
        "type": "Point",
        "coordinates": [
          23.9956129,
          37.9677967
        ]
      }
    },
    {
      "type": "Feature",
      "properties": {
        "type": "stop",
        "stop_code": "790047",
        "stop_id": "790047",
        "name": "ΑΓ.  ΝΕΚΤΑΡΙΟΣ",
        "order": "20"
      },
      "geometry": {
        "type": "Point",
        "coordinates": [
          23.9899575,
          37.9666541
        ]
      }
    },
    {
      "type": "Feature",
      "properties": {
        "type": "stop",
        "stop_code": "790048",
        "stop_id": "790048",
        "name": "ΓΙΟΥΡΓΑ",
        "order": "21"
      },
      "geometry": {
        "type": "Point",
        "coordinates": [
          23.9860756,
          37.9654766
        ]
      }
    },
    {
      "type": "Feature",
      "properties": {
        "type": "stop",
        "stop_code": "790049",
        "stop_id": "790049",
        "name": "ΑΓ. ΚΥΡΙΑΚΗ",
        "order": "22"
      },
      "geometry": {
        "type": "Point",
        "coordinates": [
          23.9823096,
          37.9627014
        ]
      }
    },
    {
      "type": "Feature",
      "properties": {
        "type": "stop",
        "stop_code": "790050",
        "stop_id": "790050",
        "name": "ΑΓ. ΙΩΑΝΝΗΣ",
        "order": "23"
      },
      "geometry": {
        "type": "Point",
        "coordinates": [
          23.9782986,
          37.9605041
        ]
      }
    },
    {
      "type": "Feature",
      "properties": {
        "type": "stop",
        "stop_code": "790051",
        "stop_id": "790051",
        "name": "ΑΠΟΣΠΟΡΗ",
        "order": "24"
      },
      "geometry": {
        "type": "Point",
        "coordinates": [
          23.9757306,
          37.95955
        ]
      }
    },
    {
      "type": "Feature",
      "properties": {
        "type": "stop",
        "stop_code": "440019",
        "stop_id": "440019",
        "name": "ΣΥΝΕΤΑΙΡΙΣΜΟΣ ΘΥΡΩΡΩΝ",
        "order": "25"
      },
      "geometry": {
        "type": "Point",
        "coordinates": [
          23.9670868,
          37.9599871
        ]
      }
    },
    {
      "type": "Feature",
      "properties": {
        "type": "stop",
        "stop_code": "440055",
        "stop_id": "440055",
        "name": "2η ΑΕΡΟΔΡΟΜΙΟΥ",
        "order": "26"
      },
      "geometry": {
        "type": "Point",
        "coordinates": [
          23.9584122,
          37.9590428
        ]
      }
    },
    {
      "type": "Feature",
      "properties": {
        "type": "stop",
        "stop_code": "440020",
        "stop_id": "440020",
        "name": "1η ΑΕΡΟΔΡΟΜΙΟΥ",
        "order": "27"
      },
      "geometry": {
        "type": "Point",
        "coordinates": [
          23.9483463,
          37.9595681
        ]
      }
    },
    {
      "type": "Feature",
      "properties": {
        "type": "stop",
        "stop_code": "440050",
        "stop_id": "440050",
        "name": "ΚΟΛΙΚΡΕΠΙ",
        "order": "28"
      },
      "geometry": {
        "type": "Point",
        "coordinates": [
          23.9418612,
          37.9602493
        ]
      }
    },
    {
      "type": "Feature",
      "properties": {
        "type": "stop",
        "stop_code": "440021",
        "stop_id": "440021",
        "name": "ΑΓ. ΚΩΝ/ΝΟΣ",
        "order": "29"
      },
      "geometry": {
        "type": "Point",
        "coordinates": [
          23.9382321,
          37.9605722
        ]
      }
    },
    {
      "type": "Feature",
      "properties": {
        "type": "stop",
        "stop_code": "440065",
        "stop_id": "440065",
        "name": "ΤΑΧ. ΘΥΡΙΔΕΣ",
        "order": "30"
      },
      "geometry": {
        "type": "Point",
        "coordinates": [
          23.935859,
          37.9603083
        ]
      }
    },
    {
      "type": "Feature",
      "properties": {
        "type": "stop",
        "stop_code": "440056",
        "stop_id": "440056",
        "name": "ΑΓ. ΠΕΤΡΟΣ",
        "order": "31"
      },
      "geometry": {
        "type": "Point",
        "coordinates": [
          23.9327789,
          37.9599521
        ]
      }
    },
    {
      "type": "Feature",
      "properties": {
        "type": "stop",
        "stop_code": "440036",
        "stop_id": "440036",
        "name": "ΔΙΑΣΤΑΥΡΩΣΗ",
        "order": "32"
      },
      "geometry": {
        "type": "Point",
        "coordinates": [
          23.9270118,
          37.9604505
        ]
      }
    },
    {
      "type": "Feature",
      "properties": {
        "type": "stop",
        "stop_code": "440066",
        "stop_id": "440066",
        "name": "ΦΟΥΡΝΟΣ",
        "order": "33"
      },
      "geometry": {
        "type": "Point",
        "coordinates": [
          23.925795,
          37.9632636
        ]
      }
    },
    {
      "type": "Feature",
      "properties": {
        "type": "stop",
        "stop_code": "440052",
        "stop_id": "440052",
        "name": "ΣΤΡΟΦΗ",
        "order": "34"
      },
      "geometry": {
        "type": "Point",
        "coordinates": [
          23.9216947,
          37.9660812
        ]
      }
    },
    {
      "type": "Feature",
      "properties": {
        "type": "stop",
        "stop_code": "440053",
        "stop_id": "440053",
        "name": "Ο.Τ.Ε",
        "order": "35"
      },
      "geometry": {
        "type": "Point",
        "coordinates": [
          23.9176521,
          37.9670789
        ]
      }
    },
    {
      "type": "Feature",
      "properties": {
        "type": "stop",
        "stop_code": "440060",
        "stop_id": "440060",
        "name": "ΣΤΡΟΦΗ ΠΛΑΣΤΗΡΑ",
        "order": "36"
      },
      "geometry": {
        "type": "Point",
        "coordinates": [
          23.914714,
          37.9677437
        ]
      }
    },
    {
      "type": "Feature",
      "properties": {
        "type": "stop",
        "stop_code": "440046",
        "stop_id": "440046",
        "name": "ΑΓΙΟΥ ΔΗΜΗΤΡΙΟΥ",
        "order": "37"
      },
      "geometry": {
        "type": "Point",
        "coordinates": [
          23.9088192,
          37.9682435
        ]
      }
    },
    {
      "type": "Feature",
      "properties": {
        "type": "stop",
        "stop_code": "440029",
        "stop_id": "440029",
        "name": "ΓΗΠΕΔΟ",
        "order": "38"
      },
      "geometry": {
        "type": "Point",
        "coordinates": [
          23.9059236,
          37.9687735
        ]
      }
    },
    {
      "type": "Feature",
      "properties": {
        "type": "stop",
        "stop_code": "440030",
        "stop_id": "440030",
        "name": "ΖΩΗ",
        "order": "39"
      },
      "geometry": {
        "type": "Point",
        "coordinates": [
          23.9057274,
          37.9708644
        ]
      }
    },
    {
      "type": "Feature",
      "properties": {
        "type": "stop",
        "stop_code": "440031",
        "stop_id": "440031",
        "name": "ΑΓ. ΝΙΚΟΛΑΟΣ",
        "order": "40"
      },
      "geometry": {
        "type": "Point",
        "coordinates": [
          23.904574,
          37.9735673
        ]
      }
    },
    {
      "type": "Feature",
      "properties": {
        "type": "stop",
        "stop_code": "440032",
        "stop_id": "440032",
        "name": "ΦΟΥΡΝΟΣ",
        "order": "41"
      },
      "geometry": {
        "type": "Point",
        "coordinates": [
          23.9020621,
          37.9760476
        ]
      }
    },
    {
      "type": "Feature",
      "properties": {
        "type": "stop",
        "stop_code": "440033",
        "stop_id": "440033",
        "name": "ΑΓ. ΘΕΜΙΣΤΟΚΛΗΣ",
        "order": "42"
      },
      "geometry": {
        "type": "Point",
        "coordinates": [
          23.9002408,
          37.9772962
        ]
      }
    },
    {
      "type": "Feature",
      "properties": {
        "type": "stop",
        "stop_code": "440034",
        "stop_id": "440034",
        "name": "ΚΑΤΣΑΟΥΝΗ",
        "order": "43"
      },
      "geometry": {
        "type": "Point",
        "coordinates": [
          23.8978049,
          37.9787762
        ]
      }
    },
    {
      "type": "Feature",
      "properties": {
        "type": "stop",
        "stop_code": "440035",
        "stop_id": "440035",
        "name": "ΞΗΡΟΤΥΡΙ",
        "order": "44"
      },
      "geometry": {
        "type": "Point",
        "coordinates": [
          23.8937565,
          37.9813557
        ]
      }
    },
    {
      "type": "Feature",
      "properties": {
        "type": "stop",
        "stop_code": "700012",
        "stop_id": "700012",
        "name": "ΓΑΒΑΛΑ",
        "order": "45"
      },
      "geometry": {
        "type": "Point",
        "coordinates": [
          23.8886633,
          37.9847739
        ]
      }
    },
    {
      "type": "Feature",
      "properties": {
        "type": "stop",
        "stop_code": "700013",
        "stop_id": "700013",
        "name": "ΓΡΗΓΟΡΗΣ ΛΑΜΠΡΑΚΗΣ",
        "order": "46"
      },
      "geometry": {
        "type": "Point",
        "coordinates": [
          23.8848259,
          37.9868943
        ]
      }
    },
    {
      "type": "Feature",
      "properties": {
        "type": "stop",
        "stop_code": "700074",
        "stop_id": "700074",
        "name": "ΠΡΕΜΙΞ",
        "order": "47"
      },
      "geometry": {
        "type": "Point",
        "coordinates": [
          23.8799048,
          37.9891856
        ]
      }
    },
    {
      "type": "Feature",
      "properties": {
        "type": "stop",
        "stop_code": "700075",
        "stop_id": "700075",
        "name": "ΦΥΤΩΡΙΟ",
        "order": "48"
      },
      "geometry": {
        "type": "Point",
        "coordinates": [
          23.8775744,
          37.9905948
        ]
      }
    },
    {
      "type": "Feature",
      "properties": {
        "type": "stop",
        "stop_code": "700022",
        "stop_id": "700022",
        "name": "ΠΑΛΑΙΟΠΑΝΑΓΙΑΣ",
        "order": "49"
      },
      "geometry": {
        "type": "Point",
        "coordinates": [
          23.8761515,
          37.9915717
        ]
      }
    },
    {
      "type": "Feature",
      "properties": {
        "type": "stop",
        "stop_code": "700038",
        "stop_id": "700038",
        "name": "2η ΠΑΛΑΙΟΠΑΝΑΓΙΑΣ",
        "order": "50"
      },
      "geometry": {
        "type": "Point",
        "coordinates": [
          23.8731374,
          37.990284
        ]
      }
    },
    {
      "type": "Feature",
      "properties": {
        "type": "stop",
        "stop_code": "700082",
        "stop_id": "700082",
        "name": "1η ΠΑΛΛΗΝΗ",
        "order": "51"
      },
      "geometry": {
        "type": "Point",
        "coordinates": [
          23.8711513,
          37.9918752
        ]
      }
    },
    {
      "type": "Feature",
      "properties": {
        "type": "stop",
        "stop_code": "700076",
        "stop_id": "700076",
        "name": "2η ΠΑΛΛΗΝΗ",
        "order": "52"
      },
      "geometry": {
        "type": "Point",
        "coordinates": [
          23.8713044,
          37.9945125
        ]
      }
    },
    {
      "type": "Feature",
      "properties": {
        "type": "stop",
        "stop_code": "700023",
        "stop_id": "700023",
        "name": "ΡΕΚΟΡ",
        "order": "53"
      },
      "geometry": {
        "type": "Point",
        "coordinates": [
          23.8672176,
          37.99767
        ]
      }
    },
    {
      "type": "Feature",
      "properties": {
        "type": "stop",
        "stop_code": "700044",
        "stop_id": "700044",
        "name": "ΜΙΛΗΣΗ",
        "order": "54"
      },
      "geometry": {
        "type": "Point",
        "coordinates": [
          23.8641696,
          37.9992238
        ]
      }
    },
    {
      "type": "Feature",
      "properties": {
        "type": "stop",
        "stop_code": "700024",
        "stop_id": "700024",
        "name": "ΣΟΛΩΜΟΥ",
        "order": "55"
      },
      "geometry": {
        "type": "Point",
        "coordinates": [
          23.8618734,
          38.0000805
        ]
      }
    },
    {
      "type": "Feature",
      "properties": {
        "type": "stop",
        "stop_code": "700081",
        "stop_id": "700081",
        "name": "ΒΑΣΙΛΟΠΟΥΛΟΣ",
        "order": "56"
      },
      "geometry": {
        "type": "Point",
        "coordinates": [
          23.8604547,
          38.00091
        ]
      }
    },
    {
      "type": "Feature",
      "properties": {
        "type": "stop",
        "stop_code": "700025",
        "stop_id": "700025",
        "name": "ΚΑΖΑΝΤΖΑΚΗ",
        "order": "57"
      },
      "geometry": {
        "type": "Point",
        "coordinates": [
          23.8574623,
          38.0027586
        ]
      }
    },
    {
      "type": "Feature",
      "properties": {
        "type": "stop",
        "stop_code": "700063",
        "stop_id": "700063",
        "name": "ΒΙΚΕΛΑ",
        "order": "58"
      },
      "geometry": {
        "type": "Point",
        "coordinates": [
          23.8558087,
          38.0035722
        ]
      }
    },
    {
      "type": "Feature",
      "properties": {
        "type": "stop",
        "stop_code": "700064",
        "stop_id": "700064",
        "name": "ΜΙΑΟΥΛΗ",
        "order": "59"
      },
      "geometry": {
        "type": "Point",
        "coordinates": [
          23.8542156,
          38.0056586
        ]
      }
    },
    {
      "type": "Feature",
      "properties": {
        "type": "stop",
        "stop_code": "700078",
        "stop_id": "700078",
        "name": "ΓΑΖΗ",
        "order": "60"
      },
      "geometry": {
        "type": "Point",
        "coordinates": [
          23.8534485,
          38.0079914
        ]
      }
    },
    {
      "type": "Feature",
      "properties": {
        "type": "stop",
        "stop_code": "800014",
        "stop_id": "800014",
        "name": "ΠΑΝΑΓΙΤΣΑ",
        "order": "61"
      },
      "geometry": {
        "type": "Point",
        "coordinates": [
          23.853068,
          38.0092121
        ]
      }
    },
    {
      "type": "Feature",
      "properties": {
        "type": "stop",
        "stop_code": "800018",
        "stop_id": "800018",
        "name": "ΠΕΤΡΟΓΙΑΝΝΗ",
        "order": "62"
      },
      "geometry": {
        "type": "Point",
        "coordinates": [
          23.8486128,
          38.0099836
        ]
      }
    },
    {
      "type": "Feature",
      "properties": {
        "type": "stop",
        "stop_code": "30011",
        "stop_id": "030011",
        "name": "ΣΤΑΥΡΟΣ",
        "order": "63"
      },
      "geometry": {
        "type": "Point",
        "coordinates": [
          23.8424452,
          38.0108444
        ]
      }
    },
    {
      "type": "Feature",
      "properties": {
        "type": "stop",
        "stop_code": "30012",
        "stop_id": "030012",
        "name": "ΓΕΛΑΔΑΚΗ",
        "order": "64"
      },
      "geometry": {
        "type": "Point",
        "coordinates": [
          23.8378804,
          38.0121242
        ]
      }
    },
    {
      "type": "Feature",
      "properties": {
        "type": "stop",
        "stop_code": "30013",
        "stop_id": "030013",
        "name": "ΔΗΜΗΤΡΑΣ",
        "order": "65"
      },
      "geometry": {
        "type": "Point",
        "coordinates": [
          23.8341049,
          38.0132438
        ]
      }
    },
    {
      "type": "Feature",
      "properties": {
        "type": "stop",
        "stop_code": "30014",
        "stop_id": "030014",
        "name": "ΙΚΑ",
        "order": "66"
      },
      "geometry": {
        "type": "Point",
        "coordinates": [
          23.8293743,
          38.0140285
        ]
      }
    },
    {
      "type": "Feature",
      "properties": {
        "type": "stop",
        "stop_code": "30015",
        "stop_id": "030015",
        "name": "ΣΑΛΑΜΙΝΟΣ",
        "order": "67"
      },
      "geometry": {
        "type": "Point",
        "coordinates": [
          23.8275307,
          38.0140541
        ]
      }
    },
    {
      "type": "Feature",
      "properties": {
        "type": "stop",
        "stop_code": "30100",
        "stop_id": "030100",
        "name": "ΕΡΤ",
        "order": "68"
      },
      "geometry": {
        "type": "Point",
        "coordinates": [
          23.8229296,
          38.013828
        ]
      }
    },
    {
      "type": "Feature",
      "properties": {
        "type": "stop",
        "stop_code": "30017",
        "stop_id": "030017",
        "name": "ΠΛ. ΑΓ. ΠΑΡΑΣΚΕΥΗΣ",
        "order": "69"
      },
      "geometry": {
        "type": "Point",
        "coordinates": [
          23.8192695,
          38.0134032
        ]
      }
    },
    {
      "type": "Feature",
      "properties": {
        "type": "stop",
        "stop_code": "30019",
        "stop_id": "030019",
        "name": "11η ΑΓ. ΠΑΡΑΣΚΕΥΗΣ",
        "order": "70"
      },
      "geometry": {
        "type": "Point",
        "coordinates": [
          23.816624,
          38.0126609
        ]
      }
    },
    {
      "type": "Feature",
      "properties": {
        "type": "stop",
        "stop_code": "30415",
        "stop_id": "030415",
        "name": "ΜΙΛΤΙΑΔΟΥ",
        "order": "71"
      },
      "geometry": {
        "type": "Point",
        "coordinates": [
          23.8136285,
          38.011941
        ]
      }
    },
    {
      "type": "Feature",
      "properties": {
        "type": "stop",
        "stop_code": "30020",
        "stop_id": "030020",
        "name": "ΤΟΜΠΡΑ",
        "order": "72"
      },
      "geometry": {
        "type": "Point",
        "coordinates": [
          23.8107158,
          38.011285
        ]
      }
    },
    {
      "type": "Feature",
      "properties": {
        "type": "stop",
        "stop_code": "30021",
        "stop_id": "030021",
        "name": "9η ΜΕΣΟΓΕΙΩΝ",
        "order": "73"
      },
      "geometry": {
        "type": "Point",
        "coordinates": [
          23.8076899,
          38.0101366
        ]
      }
    },
    {
      "type": "Feature",
      "properties": {
        "type": "stop",
        "stop_code": "481194",
        "stop_id": "481194",
        "name": "ΝΟΜΙΣΜΑΤΟΚΟΠΕΙΟ",
        "order": "74"
      },
      "geometry": {
        "type": "Point",
        "coordinates": [
          23.8058321,
          38.0092501
        ]
      }
    },
    {
      "type": "Feature",
      "properties": {
        "type": "stop",
        "stop_code": "10306",
        "stop_id": "000106",
        "name": "ΣΤ. ΝΟΜΙΣΜΑΤΟΚΟΠΕΙΟ",
        "order": "75"
      },
      "geometry": {
        "type": "Point",
        "coordinates": [
          23.806072,
          38.009866
        ]
      }
    }
  ]
}