{
  "type": "FeatureCollection",
  "features": [
    {
      "type": "Feature",
      "properties": {
        "type": "route_path",
        "route_code": "3198",
        "descr": "ΤΟΠΙΚΗ ΗΡΑΚΛΕΙΟΥ"
      },
      "geometry": {
        "type": "LineString",
        "coordinates": [
          [
            23.76575,
            38.04652
          ],
          [
            23.7661,
            38.04633
          ],
          [
            23.76622,
            38.04649
          ],
          [
            23.76675,
            38.04709
          ],
          [
            23.76728,
            38.04762
          ],
          [
            23.76979,
            38.04668
          ],
          [
            23.77145,
            38.046
          ],
          [
            23.7717,
            38.04595
          ],
          [
            23.77287,
            38.04755
          ],
          [
            23.77465,
            38.04652
          ],
          [
            23.77558,
            38.04607
          ],
          [
            23.77632,
            38.04763
          ],
          [
            23.77666,
            38.04833
          ],
          [
            23.77729,
            38.04938
          ],
          [
            23.77818,
            38.05076
          ],
          [
            23.77454,
            38.05238
          ],
          [
            23.77548,
            38.05363
          ],
          [
            23.77613,
            38.05418
          ],
          [
            23.7775,
            38.05488
          ],
          [
            23.77905,
            38.05562
          ],
          [
            23.77932,
            38.05581
          ],
          [
            23.77894,
            38.05637
          ],
          [
            23.77839,
            38.05702
          ],
          [
            23.77786,
            38.05764
          ],
          [
            23.77692,
            38.05872
          ],
          [
            23.77649,
            38.05938
          ],
          [
            23.77621,
            38.05987
          ],
          [
            23.77545,
            38.05893
          ],
          [
            23.77435,
            38.05967
          ],
          [
            23.77303,
            38.06015
          ],
          [
            23.77201,
            38.0586
          ],
          [
            23.7713,
            38.05711
          ],
          [
            23.77058,
            38.05606
          ],
          [
            23.76995,
            38.05552
          ],
          [
            23.76935,
            38.05498
          ],
          [
            23.76893,
            38.05456
          ],
          [
            23.76819,
            38.05348
          ],
          [
            23.76768,
            38.05304
          ],
          [
            23.76713,
            38.05239
          ],
          [
            23.76678,
            38.05206
          ],
          [
            23.76435,
            38.05332
          ],
          [
            23.76216,
            38.05483
          ],
          [
            23.76152,
            38.05524
          ],
          [
            23.76047,
            38.05384
          ],
          [
            23.75922,
            38.05205
          ],
          [
            23.75869,
            38.05149
          ],
          [
            23.75776,
            38.05069
          ],
          [
            23.7555,
            38.04825
          ],
          [
            23.75551,
            38.04809
          ],
          [
            23.75635,
            38.04774
          ],
          [
            23.75708,
            38.0475
          ],
          [
            23.75798,
            38.04732
          ],
          [
            23.75899,
            38.04712
          ],
          [
            23.75962,
            38.04702
          ],
          [
            23.76017,
            38.04698
          ],
          [
            23.76056,
            38.04701
          ],
          [
            23.76304,
            38.04728
          ],
          [
            23.76395,
            38.04721
          ],
          [
            23.76477,
            38.04701
          ],
          [
            23.76559,
            38.0466
          ]
        ]
      }
    },
    {
      "type": "Feature",
      "properties": {
        "type": "stop",
        "stop_code": "10653",
        "stop_id": "640",
        "name": "ΗΡΑΚΛΕΙΟ 640",
        "order": "1"
      },
      "geometry": {
        "type": "Point",
        "coordinates": [
          23.7657525,
          38.0465275
        ]
      }
    },
    {
      "type": "Feature",
      "properties": {
        "type": "stop",
        "stop_code": "220005",
        "stop_id": "220005",
        "name": "7η ΗΡΑΚΛΕΙΟΥ",
        "order": "2"
      },
      "geometry": {
        "type": "Point",
        "coordinates": [
          23.7679182,
          38.0472462
        ]
      }
    },
    {
      "type": "Feature",
      "properties": {
        "type": "stop",
        "stop_code": "220006",
        "stop_id": "220006",
        "name": "8η ΗΡΑΚΛΕΙΟΥ",
        "order": "3"
      },
      "geometry": {
        "type": "Point",
        "coordinates": [
          23.7699837,
          38.0464301
        ]
      }
    },
    {
      "type": "Feature",
      "properties": {
        "type": "stop",
        "stop_code": "220007",
        "stop_id": "220007",
        "name": "9η ΗΡΑΚΛΕΙΟΥ",
        "order": "4"
      },
      "geometry": {
        "type": "Point",
        "coordinates": [
          23.7711477,
          38.0459456
        ]
      }
    },
    {
      "type": "Feature",
      "properties": {
        "type": "stop",
        "stop_code": "220008",
        "stop_id": "220008",
        "name": "10η ΗΡΑΚΛΕΙΟΥ",
        "order": "5"
      },
      "geometry": {
        "type": "Point",
        "coordinates": [
          23.7734463,
          38.0470857
        ]
      }
    },
    {
      "type": "Feature",
      "properties": {
        "type": "stop",
        "stop_code": "220009",
        "stop_id": "220009",
        "name": "11η ΗΡΑΚΛΕΙΟΥ",
        "order": "6"
      },
      "geometry": {
        "type": "Point",
        "coordinates": [
          23.7750219,
          38.0461875
        ]
      }
    },
    {
      "type": "Feature",
      "properties": {
        "type": "stop",
        "stop_code": "220010",
        "stop_id": "220010",
        "name": "12η ΗΡΑΚΛΕΙΟΥ",
        "order": "7"
      },
      "geometry": {
        "type": "Point",
        "coordinates": [
          23.7768014,
          38.048412
        ]
      }
    },
    {
      "type": "Feature",
      "properties": {
        "type": "stop",
        "stop_code": "220011",
        "stop_id": "220011",
        "name": "ΠΑΛ.ΤΕΡΜΑ",
        "order": "8"
      },
      "geometry": {
        "type": "Point",
        "coordinates": [
          23.7782909,
          38.0505919
        ]
      }
    },
    {
      "type": "Feature",
      "properties": {
        "type": "stop",
        "stop_code": "220047",
        "stop_id": "220047",
        "name": "ΑΓ.  ΛΑΥΡΑΣ",
        "order": "9"
      },
      "geometry": {
        "type": "Point",
        "coordinates": [
          23.7752418,
          38.0521434
        ]
      }
    },
    {
      "type": "Feature",
      "properties": {
        "type": "stop",
        "stop_code": "220069",
        "stop_id": "220069",
        "name": "ΒΑΛΤΕΤΣΙΟΥ",
        "order": "10"
      },
      "geometry": {
        "type": "Point",
        "coordinates": [
          23.7755696,
          38.0534348
        ]
      }
    },
    {
      "type": "Feature",
      "properties": {
        "type": "stop",
        "stop_code": "220070",
        "stop_id": "220070",
        "name": "ΓΕΦΥΡΑ",
        "order": "11"
      },
      "geometry": {
        "type": "Point",
        "coordinates": [
          23.7775376,
          38.0547003
        ]
      }
    },
    {
      "type": "Feature",
      "properties": {
        "type": "stop",
        "stop_code": "220037",
        "stop_id": "220037",
        "name": "6η ΠΕΥΚΗΣ",
        "order": "12"
      },
      "geometry": {
        "type": "Point",
        "coordinates": [
          23.7793113,
          38.0561727
        ]
      }
    },
    {
      "type": "Feature",
      "properties": {
        "type": "stop",
        "stop_code": "220038",
        "stop_id": "220038",
        "name": "5η ΠΕΥΚΗΣ",
        "order": "13"
      },
      "geometry": {
        "type": "Point",
        "coordinates": [
          23.7774698,
          38.0582872
        ]
      }
    },
    {
      "type": "Feature",
      "properties": {
        "type": "stop",
        "stop_code": "220039",
        "stop_id": "220039",
        "name": "4η ΠΕΥΚΗΣ",
        "order": "14"
      },
      "geometry": {
        "type": "Point",
        "coordinates": [
          23.7755403,
          38.059293
        ]
      }
    },
    {
      "type": "Feature",
      "properties": {
        "type": "stop",
        "stop_code": "220063",
        "stop_id": "220063",
        "name": "ΤΡΟΙΑΣ",
        "order": "15"
      },
      "geometry": {
        "type": "Point",
        "coordinates": [
          23.7727113,
          38.0598786
        ]
      }
    },
    {
      "type": "Feature",
      "properties": {
        "type": "stop",
        "stop_code": "220059",
        "stop_id": "220059",
        "name": "ΣΤ. ΠΡΟΑΣΤ. ΗΡΑΚΛΕΙΟ",
        "order": "16"
      },
      "geometry": {
        "type": "Point",
        "coordinates": [
          23.7712032,
          38.057401
        ]
      }
    },
    {
      "type": "Feature",
      "properties": {
        "type": "stop",
        "stop_code": "220042",
        "stop_id": "220042",
        "name": "ΣΤΡΟΦΗ ΠΕΥΚΗΣ",
        "order": "17"
      },
      "geometry": {
        "type": "Point",
        "coordinates": [
          23.7690112,
          38.0548731
        ]
      }
    },
    {
      "type": "Feature",
      "properties": {
        "type": "stop",
        "stop_code": "220043",
        "stop_id": "220043",
        "name": "3η ΑΜΑΡΟΥΣΙΟΥ",
        "order": "18"
      },
      "geometry": {
        "type": "Point",
        "coordinates": [
          23.7677281,
          38.0533024
        ]
      }
    },
    {
      "type": "Feature",
      "properties": {
        "type": "stop",
        "stop_code": "220044",
        "stop_id": "220044",
        "name": "6η ΚΑΝΑΠΙΤΣΑΣ",
        "order": "19"
      },
      "geometry": {
        "type": "Point",
        "coordinates": [
          23.7663468,
          38.0523957
        ]
      }
    },
    {
      "type": "Feature",
      "properties": {
        "type": "stop",
        "stop_code": "220045",
        "stop_id": "220045",
        "name": "5η ΚΑΝΑΠΙΤΣΑΣ",
        "order": "20"
      },
      "geometry": {
        "type": "Point",
        "coordinates": [
          23.7648561,
          38.0532155
        ]
      }
    },
    {
      "type": "Feature",
      "properties": {
        "type": "stop",
        "stop_code": "220071",
        "stop_id": "220071",
        "name": "4η ΚΑΝΑΠΙΤΣΑΣ",
        "order": "21"
      },
      "geometry": {
        "type": "Point",
        "coordinates": [
          23.761852,
          38.0551833
        ]
      }
    },
    {
      "type": "Feature",
      "properties": {
        "type": "stop",
        "stop_code": "220072",
        "stop_id": "220072",
        "name": "3η ΚΑΝΑΠΙΤΣΑΣ",
        "order": "22"
      },
      "geometry": {
        "type": "Point",
        "coordinates": [
          23.7601928,
          38.0536928
        ]
      }
    },
    {
      "type": "Feature",
      "properties": {
        "type": "stop",
        "stop_code": "220048",
        "stop_id": "220048",
        "name": "2η ΑΓ. ΝΕΚΤΑΡΙΟΥ",
        "order": "23"
      },
      "geometry": {
        "type": "Point",
        "coordinates": [
          23.7585696,
          38.0516436
        ]
      }
    },
    {
      "type": "Feature",
      "properties": {
        "type": "stop",
        "stop_code": "220049",
        "stop_id": "220049",
        "name": "1η ΑΓ. ΝΕΚΤΑΡΙΟΥ",
        "order": "24"
      },
      "geometry": {
        "type": "Point",
        "coordinates": [
          23.7566499,
          38.0496478
        ]
      }
    },
    {
      "type": "Feature",
      "properties": {
        "type": "stop",
        "stop_code": "220064",
        "stop_id": "220064",
        "name": "ΣΧΟΛΕΙΑ",
        "order": "25"
      },
      "geometry": {
        "type": "Point",
        "coordinates": [
          23.7565086,
          38.0475746
        ]
      }
    },
    {
      "type": "Feature",
      "properties": {
        "type": "stop",
        "stop_code": "220074",
        "stop_id": "220074",
        "name": "ΑΓ. ΘΗΡΕΣΙΑ",
        "order": "26"
      },
      "geometry": {
        "type": "Point",
        "coordinates": [
          23.7588013,
          38.0470205
        ]
      }
    },
    {
      "type": "Feature",
      "properties": {
        "type": "stop",
        "stop_code": "220065",
        "stop_id": "220065",
        "name": "ΤΕΡΜΑ (ΣΙΔΕΡΑ)",
        "order": "27"
      },
      "geometry": {
        "type": "Point",
        "coordinates": [
          23.7605338,
          38.046961
        ]
      }
    },
    {
      "type": "Feature",
      "properties": {
        "type": "stop",
        "stop_code": "10653",
        "stop_id": "640",
        "name": "ΗΡΑΚΛΕΙΟ 640",
        "order": "28"
      },
      "geometry": {
        "type": "Point",
        "coordinates": [
          23.7657525,
          38.0465275
        ]
      }
    }
  ]
}