{
  "type": "FeatureCollection",
  "features": [
    {
      "type": "Feature",
      "properties": {
        "type": "route_path",
        "route_code": "4528",
        "descr": "ΑΙΓΑΛΕΩ - ΠΕΙΡΑΙΑΣ [ΕΝΑΛΛΑΚΤΙΚΗ ΛΟΓΩ ΛΑΪΚΗΣ ΚΑΘΕ ΠΕΜΠΤΗ 05:00-17:00]"
      },
      "geometry": {
        "type": "LineString",
        "coordinates": [
          [
            23.66933,
            38.00242
          ],
          [
            23.66989,
            38.00352
          ],
          [
            23.67133,
            38.00331
          ],
          [
            23.67222,
            38.00305
          ],
          [
            23.67359,
            38.00163
          ],
          [
            23.67357,
            38.00132
          ],
          [
            23.6732,
            38.00054
          ],
          [
            23.67054,
            37.99619
          ],
          [
            23.67046,
            37.99586
          ],
          [
            23.67177,
            37.99524
          ],
          [
            23.67565,
            37.99362
          ],
          [
            23.67571,
            37.99349
          ],
          [
            23.6754,
            37.99322
          ],
          [
            23.67453,
            37.99294
          ],
          [
            23.66641,
            37.9903
          ],
          [
            23.66221,
            37.98888
          ],
          [
            23.66188,
            37.9888
          ],
          [
            23.66125,
            37.98862
          ],
          [
            23.66045,
            37.98839
          ],
          [
            23.65964,
            37.98807
          ],
          [
            23.65901,
            37.98782
          ],
          [
            23.65877,
            37.98746
          ],
          [
            23.65839,
            37.98691
          ],
          [
            23.65824,
            37.98657
          ],
          [
            23.65805,
            37.9863
          ],
          [
            23.65654,
            37.98408
          ],
          [
            23.65484,
            37.98118
          ],
          [
            23.65471,
            37.98099
          ],
          [
            23.651,
            37.97763
          ],
          [
            23.64977,
            37.97755
          ],
          [
            23.64985,
            37.9766
          ],
          [
            23.65113,
            37.97664
          ],
          [
            23.65229,
            37.97578
          ],
          [
            23.65266,
            37.97121
          ],
          [
            23.65258,
            37.97104
          ],
          [
            23.65228,
            37.97083
          ],
          [
            23.65178,
            37.96982
          ],
          [
            23.64958,
            37.96465
          ],
          [
            23.64923,
            37.96356
          ],
          [
            23.64941,
            37.96202
          ],
          [
            23.64943,
            37.96172
          ],
          [
            23.64938,
            37.96078
          ],
          [
            23.64923,
            37.96038
          ],
          [
            23.649,
            37.96011
          ],
          [
            23.64924,
            37.95895
          ],
          [
            23.64953,
            37.95766
          ],
          [
            23.64968,
            37.95634
          ],
          [
            23.6497,
            37.95578
          ],
          [
            23.64947,
            37.95549
          ],
          [
            23.64843,
            37.95469
          ],
          [
            23.64821,
            37.95446
          ],
          [
            23.64725,
            37.95223
          ],
          [
            23.6472,
            37.9491
          ],
          [
            23.64711,
            37.94881
          ],
          [
            23.64694,
            37.94856
          ],
          [
            23.64697,
            37.94846
          ],
          [
            23.64716,
            37.94807
          ],
          [
            23.64702,
            37.94776
          ],
          [
            23.64595,
            37.94719
          ],
          [
            23.64275,
            37.94562
          ],
          [
            23.64249,
            37.94542
          ],
          [
            23.6425,
            37.94533
          ],
          [
            23.64268,
            37.94518
          ],
          [
            23.64349,
            37.94475
          ],
          [
            23.64365,
            37.94429
          ],
          [
            23.64375,
            37.94358
          ],
          [
            23.6401,
            37.93928
          ],
          [
            23.63944,
            37.93877
          ],
          [
            23.63928,
            37.93841
          ],
          [
            23.63947,
            37.9374
          ],
          [
            23.63938,
            37.9373
          ],
          [
            23.63796,
            37.93695
          ],
          [
            23.63705,
            37.93681
          ],
          [
            23.63639,
            37.93679
          ],
          [
            23.63606,
            37.93688
          ],
          [
            23.63497,
            37.93735
          ],
          [
            23.63352,
            37.93816
          ],
          [
            23.63336,
            37.93824
          ],
          [
            23.63288,
            37.93846
          ],
          [
            23.63211,
            37.93853
          ]
        ]
      }
    },
    {
      "type": "Feature",
      "properties": {
        "type": "stop",
        "stop_code": "10629",
        "stop_id": "000227",
        "name": "ΑΙΓΑΛΕΩ",
        "order": "1"
      },
      "geometry": {
        "type": "Point",
        "coordinates": [
          23.6693515,
          38.002452
        ]
      }
    },
    {
      "type": "Feature",
      "properties": {
        "type": "stop",
        "stop_code": "70128",
        "stop_id": "070128",
        "name": "ΠΡΕΒΕΖΗΣ",
        "order": "2"
      },
      "geometry": {
        "type": "Point",
        "coordinates": [
          23.6714678,
          38.00316
        ]
      }
    },
    {
      "type": "Feature",
      "properties": {
        "type": "stop",
        "stop_code": "70116",
        "stop_id": "070116",
        "name": "ΔΕΛΦΩΝ",
        "order": "3"
      },
      "geometry": {
        "type": "Point",
        "coordinates": [
          23.6733537,
          38.0016962
        ]
      }
    },
    {
      "type": "Feature",
      "properties": {
        "type": "stop",
        "stop_code": "70114",
        "stop_id": "070114",
        "name": "ΑΓ. ΤΡΙΑΔΑ",
        "order": "4"
      },
      "geometry": {
        "type": "Point",
        "coordinates": [
          23.6727008,
          37.9999459
        ]
      }
    },
    {
      "type": "Feature",
      "properties": {
        "type": "stop",
        "stop_code": "70073",
        "stop_id": "070073",
        "name": "2η ΚΟΡΥΤΣΑΣ",
        "order": "5"
      },
      "geometry": {
        "type": "Point",
        "coordinates": [
          23.6720222,
          37.9988715
        ]
      }
    },
    {
      "type": "Feature",
      "properties": {
        "type": "stop",
        "stop_code": "70074",
        "stop_id": "070074",
        "name": "1η ΚΟΡΥΤΣΑΣ",
        "order": "6"
      },
      "geometry": {
        "type": "Point",
        "coordinates": [
          23.67078,
          37.9966937
        ]
      }
    },
    {
      "type": "Feature",
      "properties": {
        "type": "stop",
        "stop_code": "70011",
        "stop_id": "070011",
        "name": "ΠΛ. ΔΑΒΑΚΗ",
        "order": "7"
      },
      "geometry": {
        "type": "Point",
        "coordinates": [
          23.671707,
          37.9952088
        ]
      }
    },
    {
      "type": "Feature",
      "properties": {
        "type": "stop",
        "stop_code": "70012",
        "stop_id": "070012",
        "name": "ΟΤΕ",
        "order": "8"
      },
      "geometry": {
        "type": "Point",
        "coordinates": [
          23.6745346,
          37.9940551
        ]
      }
    },
    {
      "type": "Feature",
      "properties": {
        "type": "stop",
        "stop_code": "70058",
        "stop_id": "070058",
        "name": "1η ΚΟΡΥΔΑΛΛΟΥ",
        "order": "9"
      },
      "geometry": {
        "type": "Point",
        "coordinates": [
          23.6747243,
          37.9930927
        ]
      }
    },
    {
      "type": "Feature",
      "properties": {
        "type": "stop",
        "stop_code": "70059",
        "stop_id": "070059",
        "name": "ΛΕΛΑΣ ΚΑΡΑΓΙΑΝΝΗ",
        "order": "10"
      },
      "geometry": {
        "type": "Point",
        "coordinates": [
          23.6721087,
          37.9922292
        ]
      }
    },
    {
      "type": "Feature",
      "properties": {
        "type": "stop",
        "stop_code": "70060",
        "stop_id": "070060",
        "name": "3η ΚΟΡΥΔΑΛΛΟΥ",
        "order": "11"
      },
      "geometry": {
        "type": "Point",
        "coordinates": [
          23.6693451,
          37.9913833
        ]
      }
    },
    {
      "type": "Feature",
      "properties": {
        "type": "stop",
        "stop_code": "70061",
        "stop_id": "070061",
        "name": "4η ΚΟΡΥΔΑΛΛΟΥ",
        "order": "12"
      },
      "geometry": {
        "type": "Point",
        "coordinates": [
          23.6672984,
          37.9906745
        ]
      }
    },
    {
      "type": "Feature",
      "properties": {
        "type": "stop",
        "stop_code": "10037",
        "stop_id": "010037",
        "name": "5η ΚΟΡΥΔΑΛΛΟΥ",
        "order": "13"
      },
      "geometry": {
        "type": "Point",
        "coordinates": [
          23.6637052,
          37.9894746
        ]
      }
    },
    {
      "type": "Feature",
      "properties": {
        "type": "stop",
        "stop_code": "10040",
        "stop_id": "010040",
        "name": "6η ΚΟΡΥΔΑΛΛΟΥ",
        "order": "14"
      },
      "geometry": {
        "type": "Point",
        "coordinates": [
          23.6623745,
          37.9890923
        ]
      }
    },
    {
      "type": "Feature",
      "properties": {
        "type": "stop",
        "stop_code": "10032",
        "stop_id": "010032",
        "name": "ΒΕΝΕΤΙΑ",
        "order": "15"
      },
      "geometry": {
        "type": "Point",
        "coordinates": [
          23.6577651,
          37.9860416
        ]
      }
    },
    {
      "type": "Feature",
      "properties": {
        "type": "stop",
        "stop_code": "280073",
        "stop_id": "280073",
        "name": "ΟΡΙΩΝ",
        "order": "16"
      },
      "geometry": {
        "type": "Point",
        "coordinates": [
          23.6568713,
          37.9847953
        ]
      }
    },
    {
      "type": "Feature",
      "properties": {
        "type": "stop",
        "stop_code": "280001",
        "stop_id": "280001",
        "name": "ΠΕΛΟΠΟΝΝΗΣΟΥ",
        "order": "17"
      },
      "geometry": {
        "type": "Point",
        "coordinates": [
          23.6559105,
          37.9832693
        ]
      }
    },
    {
      "type": "Feature",
      "properties": {
        "type": "stop",
        "stop_code": "280037",
        "stop_id": "280037",
        "name": "ΤΑΞΙΑΡΧΩΝ",
        "order": "18"
      },
      "geometry": {
        "type": "Point",
        "coordinates": [
          23.6550971,
          37.9818879
        ]
      }
    },
    {
      "type": "Feature",
      "properties": {
        "type": "stop",
        "stop_code": "280002",
        "stop_id": "280002",
        "name": "ΑΓ. ΑΡΤΕΜΙΟΣ",
        "order": "19"
      },
      "geometry": {
        "type": "Point",
        "coordinates": [
          23.6532619,
          37.9798637
        ]
      }
    },
    {
      "type": "Feature",
      "properties": {
        "type": "stop",
        "stop_code": "280003",
        "stop_id": "280003",
        "name": "ΣΤ. ΚΟΡΥΔΑΛΛΟΣ",
        "order": "20"
      },
      "geometry": {
        "type": "Point",
        "coordinates": [
          23.6511191,
          37.9779106
        ]
      }
    },
    {
      "type": "Feature",
      "properties": {
        "type": "stop",
        "stop_code": "280054",
        "stop_id": "280054",
        "name": "ΠΛ. ΕΛΕΥΘΕΡΙΑΣ",
        "order": "21"
      },
      "geometry": {
        "type": "Point",
        "coordinates": [
          23.6507491,
          37.9765557
        ]
      }
    },
    {
      "type": "Feature",
      "properties": {
        "type": "stop",
        "stop_code": "280055",
        "stop_id": "280055",
        "name": "ΠΑΛ. ΤΕΡΜΑ",
        "order": "22"
      },
      "geometry": {
        "type": "Point",
        "coordinates": [
          23.6522872,
          37.9753811
        ]
      }
    },
    {
      "type": "Feature",
      "properties": {
        "type": "stop",
        "stop_code": "280056",
        "stop_id": "280056",
        "name": "ΣΤΕΡΓΙΟΠΟΥΛΟΥ",
        "order": "23"
      },
      "geometry": {
        "type": "Point",
        "coordinates": [
          23.6523842,
          37.972822
        ]
      }
    },
    {
      "type": "Feature",
      "properties": {
        "type": "stop",
        "stop_code": "370077",
        "stop_id": "370077",
        "name": "ΠΕΡΙΒΟΛΑΚΙ",
        "order": "24"
      },
      "geometry": {
        "type": "Point",
        "coordinates": [
          23.6516352,
          37.9698906
        ]
      }
    },
    {
      "type": "Feature",
      "properties": {
        "type": "stop",
        "stop_code": "370078",
        "stop_id": "370078",
        "name": "ΑΓ. ΙΩΑΝΝΗΣ",
        "order": "25"
      },
      "geometry": {
        "type": "Point",
        "coordinates": [
          23.6506222,
          37.9674361
        ]
      }
    },
    {
      "type": "Feature",
      "properties": {
        "type": "stop",
        "stop_code": "370079",
        "stop_id": "370079",
        "name": "ΓΕΦΥΡΑ",
        "order": "26"
      },
      "geometry": {
        "type": "Point",
        "coordinates": [
          23.6493839,
          37.9644943
        ]
      }
    },
    {
      "type": "Feature",
      "properties": {
        "type": "stop",
        "stop_code": "400239",
        "stop_id": "400239",
        "name": "ΑΓ. ΑΝΑΡΓΥΡΟΙ",
        "order": "27"
      },
      "geometry": {
        "type": "Point",
        "coordinates": [
          23.6491849,
          37.9608435
        ]
      }
    },
    {
      "type": "Feature",
      "properties": {
        "type": "stop",
        "stop_code": "400240",
        "stop_id": "400240",
        "name": "ΣΧΟΛΕΙΟ",
        "order": "28"
      },
      "geometry": {
        "type": "Point",
        "coordinates": [
          23.6492325,
          37.9586746
        ]
      }
    },
    {
      "type": "Feature",
      "properties": {
        "type": "stop",
        "stop_code": "400329",
        "stop_id": "400329",
        "name": "ΛΕΥΚΑ",
        "order": "29"
      },
      "geometry": {
        "type": "Point",
        "coordinates": [
          23.6493472,
          37.9554452
        ]
      }
    },
    {
      "type": "Feature",
      "properties": {
        "type": "stop",
        "stop_code": "400243",
        "stop_id": "400243",
        "name": "ΡΕΤΣΙΝΑ",
        "order": "30"
      },
      "geometry": {
        "type": "Point",
        "coordinates": [
          23.647435,
          37.9530421
        ]
      }
    },
    {
      "type": "Feature",
      "properties": {
        "type": "stop",
        "stop_code": "400495",
        "stop_id": "400495",
        "name": "ΑΓ.  ΔΙΟΝΥΣΙΟΣ",
        "order": "31"
      },
      "geometry": {
        "type": "Point",
        "coordinates": [
          23.6471304,
          37.9497971
        ]
      }
    },
    {
      "type": "Feature",
      "properties": {
        "type": "stop",
        "stop_code": "400452",
        "stop_id": "400452",
        "name": "ΓΟΥΝΑΡΗ",
        "order": "32"
      },
      "geometry": {
        "type": "Point",
        "coordinates": [
          23.6452784,
          37.947033
        ]
      }
    },
    {
      "type": "Feature",
      "properties": {
        "type": "stop",
        "stop_code": "400299",
        "stop_id": "400299",
        "name": "ΑΓ. ΣΠΥΡΙΔΩΝΑΣ ",
        "order": "33"
      },
      "geometry": {
        "type": "Point",
        "coordinates": [
          23.6435778,
          37.9440179
        ]
      }
    },
    {
      "type": "Feature",
      "properties": {
        "type": "stop",
        "stop_code": "400301",
        "stop_id": "400301",
        "name": "ΟΛΥΜΠΙΑΚΗ",
        "order": "34"
      },
      "geometry": {
        "type": "Point",
        "coordinates": [
          23.6414944,
          37.9411001
        ]
      }
    },
    {
      "type": "Feature",
      "properties": {
        "type": "stop",
        "stop_code": "400302",
        "stop_id": "400302",
        "name": "ΑΓ. ΝΙΚΟΛΑΟΣ",
        "order": "35"
      },
      "geometry": {
        "type": "Point",
        "coordinates": [
          23.6398658,
          37.9391971
        ]
      }
    },
    {
      "type": "Feature",
      "properties": {
        "type": "stop",
        "stop_code": "400303",
        "stop_id": "400303",
        "name": "ΤΕΛΩΝΕΙΟ",
        "order": "36"
      },
      "geometry": {
        "type": "Point",
        "coordinates": [
          23.6384413,
          37.937089
        ]
      }
    },
    {
      "type": "Feature",
      "properties": {
        "type": "stop",
        "stop_code": "10183",
        "stop_id": "25",
        "name": "ΠΕΙΡΑΙΑΣ",
        "order": "37"
      },
      "geometry": {
        "type": "Point",
        "coordinates": [
          23.6318845,
          37.9384348
        ]
      }
    }
  ]
}