{
  "type": "FeatureCollection",
  "features": [
    {
      "type": "Feature",
      "properties": {
        "type": "route_path",
        "route_code": "3620",
        "descr": "ΣΤ. ΔΟΥΚ. ΠΛΑΚΕΝΤΙΑΣ - ΠΑΛΛΗΝΗ - ΕΚΠΤ. ΧΩΡΙΟ [ΑΠΟ ΓΗΠΕΔΟ ΣΠΑΤΩΝ ΕΩΣ ΣΤ.ΔΟΥΚ.ΠΛΑΚΕΝΤΙΑΣ]"
      },
      "geometry": {
        "type": "LineString",
        "coordinates": [
          [
            23.90616,
            37.96563
          ],
          [
            23.90669,
            37.965
          ],
          [
            23.90711,
            37.96463
          ],
          [
            23.90734,
            37.96445
          ],
          [
            23.90799,
            37.96425
          ],
          [
            23.90878,
            37.96432
          ],
          [
            23.90914,
            37.96302
          ],
          [
            23.90956,
            37.96261
          ],
          [
            23.9125,
            37.96231
          ],
          [
            23.91429,
            37.96206
          ],
          [
            23.91655,
            37.96142
          ],
          [
            23.91974,
            37.96065
          ],
          [
            23.9237,
            37.9604
          ],
          [
            23.92508,
            37.96024
          ],
          [
            23.92496,
            37.95937
          ],
          [
            23.92656,
            37.95898
          ],
          [
            23.92685,
            37.95976
          ],
          [
            23.9269,
            37.95995
          ],
          [
            23.92701,
            37.961
          ],
          [
            23.92673,
            37.9617
          ],
          [
            23.92432,
            37.9651
          ],
          [
            23.92359,
            37.96553
          ],
          [
            23.91254,
            37.9682
          ],
          [
            23.90991,
            37.96818
          ],
          [
            23.91144,
            37.97002
          ],
          [
            23.91223,
            37.97136
          ],
          [
            23.91239,
            37.97217
          ],
          [
            23.91267,
            37.97458
          ],
          [
            23.91297,
            37.97537
          ],
          [
            23.91584,
            37.97952
          ],
          [
            23.91608,
            37.98022
          ],
          [
            23.91604,
            37.98066
          ],
          [
            23.91612,
            37.98141
          ],
          [
            23.91623,
            37.98194
          ],
          [
            23.91623,
            37.98194
          ],
          [
            23.91623,
            37.98194
          ],
          [
            23.91625,
            37.98207
          ],
          [
            23.91619,
            37.98214
          ],
          [
            23.90886,
            37.98538
          ],
          [
            23.90854,
            37.98556
          ],
          [
            23.9099,
            37.98731
          ],
          [
            23.9101,
            37.98732
          ],
          [
            23.91632,
            37.98464
          ],
          [
            23.91678,
            37.98449
          ],
          [
            23.91689,
            37.98455
          ],
          [
            23.91722,
            37.98544
          ],
          [
            23.91768,
            37.98839
          ],
          [
            23.91789,
            37.98911
          ],
          [
            23.91984,
            37.99173
          ],
          [
            23.92034,
            37.99326
          ],
          [
            23.92123,
            37.99478
          ],
          [
            23.9226,
            37.99592
          ],
          [
            23.92315,
            37.99652
          ],
          [
            23.92339,
            37.9969
          ],
          [
            23.92357,
            37.99742
          ],
          [
            23.92356,
            37.99763
          ],
          [
            23.92347,
            37.99769
          ],
          [
            23.92159,
            37.99787
          ],
          [
            23.91379,
            37.99983
          ],
          [
            23.91294,
            38.00033
          ],
          [
            23.9121,
            38.00169
          ],
          [
            23.91185,
            38.00199
          ],
          [
            23.91126,
            38.00236
          ],
          [
            23.91032,
            38.00259
          ],
          [
            23.90456,
            38.00264
          ],
          [
            23.90132,
            38.00305
          ],
          [
            23.89801,
            38.00351
          ],
          [
            23.89145,
            38.00457
          ],
          [
            23.89122,
            38.00457
          ],
          [
            23.88472,
            38.00363
          ],
          [
            23.88359,
            38.00354
          ],
          [
            23.88268,
            38.00373
          ],
          [
            23.88201,
            38.0038
          ],
          [
            23.8803,
            38.00378
          ],
          [
            23.87725,
            38.00384
          ],
          [
            23.87444,
            38.00449
          ],
          [
            23.87215,
            38.00512
          ],
          [
            23.87215,
            38.00512
          ],
          [
            23.86255,
            38.00697
          ],
          [
            23.85748,
            38.00781
          ],
          [
            23.85386,
            38.00895
          ],
          [
            23.84401,
            38.01062
          ],
          [
            23.84401,
            38.01063
          ],
          [
            23.84379,
            38.01069
          ],
          [
            23.84374,
            38.01085
          ],
          [
            23.8435,
            38.01256
          ],
          [
            23.8436,
            38.0137
          ],
          [
            23.84328,
            38.01443
          ],
          [
            23.84268,
            38.01503
          ],
          [
            23.84038,
            38.01702
          ],
          [
            23.83652,
            38.02113
          ],
          [
            23.83639,
            38.02113
          ],
          [
            23.83593,
            38.02088
          ],
          [
            23.83582,
            38.02094
          ],
          [
            23.83457,
            38.02213
          ],
          [
            23.83399,
            38.02278
          ],
          [
            23.83399,
            38.0231
          ],
          [
            23.83396,
            38.02325
          ],
          [
            23.83366,
            38.02364
          ],
          [
            23.83389,
            38.02403
          ],
          [
            23.83414,
            38.02401
          ]
        ]
      }
    },
    {
      "type": "Feature",
      "properties": {
        "type": "stop",
        "stop_code": "11555",
        "stop_id": "993",
        "name": "ΓΗΠΕΔΟ ΣΠΑΤΩΝ",
        "order": "1"
      },
      "geometry": {
        "type": "Point",
        "coordinates": [
          23.9062515,
          37.9660085
        ]
      }
    },
    {
      "type": "Feature",
      "properties": {
        "type": "stop",
        "stop_code": "440009",
        "stop_id": "440009",
        "name": "ΒΡΥΣΗ",
        "order": "2"
      },
      "geometry": {
        "type": "Point",
        "coordinates": [
          23.9076154,
          37.9642846
        ]
      }
    },
    {
      "type": "Feature",
      "properties": {
        "type": "stop",
        "stop_code": "440010",
        "stop_id": "440010",
        "name": "ΠΑΝΑΓΙΑ",
        "order": "3"
      },
      "geometry": {
        "type": "Point",
        "coordinates": [
          23.9108499,
          37.9623306
        ]
      }
    },
    {
      "type": "Feature",
      "properties": {
        "type": "stop",
        "stop_code": "440012",
        "stop_id": "440012",
        "name": "ΔΗΜΑΡΧΕΙΟ",
        "order": "4"
      },
      "geometry": {
        "type": "Point",
        "coordinates": [
          23.9143376,
          37.9620097
        ]
      }
    },
    {
      "type": "Feature",
      "properties": {
        "type": "stop",
        "stop_code": "440013",
        "stop_id": "440013",
        "name": "ΠΛΑΤΕΙΑ",
        "order": "5"
      },
      "geometry": {
        "type": "Point",
        "coordinates": [
          23.9160295,
          37.9615204
        ]
      }
    },
    {
      "type": "Feature",
      "properties": {
        "type": "stop",
        "stop_code": "440015",
        "stop_id": "440015",
        "name": "ΠΕΡΙΠΤΕΡΟ",
        "order": "6"
      },
      "geometry": {
        "type": "Point",
        "coordinates": [
          23.9197882,
          37.9605099
        ]
      }
    },
    {
      "type": "Feature",
      "properties": {
        "type": "stop",
        "stop_code": "440095",
        "stop_id": "440095",
        "name": "ΚΕΚΡΟΠΟΣ",
        "order": "7"
      },
      "geometry": {
        "type": "Point",
        "coordinates": [
          23.9226798,
          37.9603767
        ]
      }
    },
    {
      "type": "Feature",
      "properties": {
        "type": "stop",
        "stop_code": "440114",
        "stop_id": "440114",
        "name": "ΜΙΧΑΛΑΚΗ",
        "order": "8"
      },
      "geometry": {
        "type": "Point",
        "coordinates": [
          23.924866,
          37.9598013
        ]
      }
    },
    {
      "type": "Feature",
      "properties": {
        "type": "stop",
        "stop_code": "440036",
        "stop_id": "440036",
        "name": "ΔΙΑΣΤΑΥΡΩΣΗ",
        "order": "9"
      },
      "geometry": {
        "type": "Point",
        "coordinates": [
          23.9270118,
          37.9604505
        ]
      }
    },
    {
      "type": "Feature",
      "properties": {
        "type": "stop",
        "stop_code": "440066",
        "stop_id": "440066",
        "name": "ΦΟΥΡΝΟΣ",
        "order": "10"
      },
      "geometry": {
        "type": "Point",
        "coordinates": [
          23.925795,
          37.9632636
        ]
      }
    },
    {
      "type": "Feature",
      "properties": {
        "type": "stop",
        "stop_code": "440052",
        "stop_id": "440052",
        "name": "ΣΤΡΟΦΗ",
        "order": "11"
      },
      "geometry": {
        "type": "Point",
        "coordinates": [
          23.9216947,
          37.9660812
        ]
      }
    },
    {
      "type": "Feature",
      "properties": {
        "type": "stop",
        "stop_code": "440053",
        "stop_id": "440053",
        "name": "Ο.Τ.Ε",
        "order": "12"
      },
      "geometry": {
        "type": "Point",
        "coordinates": [
          23.9176521,
          37.9670789
        ]
      }
    },
    {
      "type": "Feature",
      "properties": {
        "type": "stop",
        "stop_code": "440060",
        "stop_id": "440060",
        "name": "ΣΤΡΟΦΗ ΠΛΑΣΤΗΡΑ",
        "order": "13"
      },
      "geometry": {
        "type": "Point",
        "coordinates": [
          23.914714,
          37.9677437
        ]
      }
    },
    {
      "type": "Feature",
      "properties": {
        "type": "stop",
        "stop_code": "440125",
        "stop_id": "440125",
        "name": "ΔΙΑΣΤΑΥΡΩΣΗ",
        "order": "15"
      },
      "geometry": {
        "type": "Point",
        "coordinates": [
          23.9106144,
          37.9686961
        ]
      }
    },
    {
      "type": "Feature",
      "properties": {
        "type": "stop",
        "stop_code": "440040",
        "stop_id": "440040",
        "name": "ΝΕΚΡΟΤΑΦΕΙΟ",
        "order": "16"
      },
      "geometry": {
        "type": "Point",
        "coordinates": [
          23.9125525,
          37.9725566
        ]
      }
    },
    {
      "type": "Feature",
      "properties": {
        "type": "stop",
        "stop_code": "440041",
        "stop_id": "440041",
        "name": "ΖΗΝΩΝΟΣ",
        "order": "17"
      },
      "geometry": {
        "type": "Point",
        "coordinates": [
          23.916087,
          37.9796736
        ]
      }
    },
    {
      "type": "Feature",
      "properties": {
        "type": "stop",
        "stop_code": "440121",
        "stop_id": "440121",
        "name": "3η ΕΜΠΟΡΙΚΟ ΠΑΡΚΟ (ΠΡΟΣ ΣΤ.ΔΟΥΚ.ΠΛΑΚΕΝΤΙΑΣ)",
        "order": "18"
      },
      "geometry": {
        "type": "Point",
        "coordinates": [
          23.9128621,
          37.9837853
        ]
      }
    },
    {
      "type": "Feature",
      "properties": {
        "type": "stop",
        "stop_code": "440122",
        "stop_id": "440122",
        "name": "2η ΕΜΠΟΡΙΚΟ ΠΑΡΚΟ (ΠΡΟΣ ΣΤ.ΔΟΥΚ.ΠΛΑΚΕΝΤΙΑΣ)",
        "order": "19"
      },
      "geometry": {
        "type": "Point",
        "coordinates": [
          23.9096078,
          37.9866872
        ]
      }
    },
    {
      "type": "Feature",
      "properties": {
        "type": "stop",
        "stop_code": "440123",
        "stop_id": "440123",
        "name": "1η ΕΜΠΟΡΙΚΟ ΠΑΡΚΟ (ΠΡΟΣ ΣΤ.ΔΟΥΚ.ΠΛΑΚΕΝΤΙΑΣ)",
        "order": "20"
      },
      "geometry": {
        "type": "Point",
        "coordinates": [
          23.9140584,
          37.985565
        ]
      }
    },
    {
      "type": "Feature",
      "properties": {
        "type": "stop",
        "stop_code": "440120",
        "stop_id": "440120",
        "name": "ΠΥΡΙΖΑ",
        "order": "21"
      },
      "geometry": {
        "type": "Point",
        "coordinates": [
          23.9179467,
          37.9887371
        ]
      }
    },
    {
      "type": "Feature",
      "properties": {
        "type": "stop",
        "stop_code": "440124",
        "stop_id": "440124",
        "name": "ΠΕΤΣΑ",
        "order": "22"
      },
      "geometry": {
        "type": "Point",
        "coordinates": [
          23.9232731,
          37.9964777
        ]
      }
    },
    {
      "type": "Feature",
      "properties": {
        "type": "stop",
        "stop_code": "700111",
        "stop_id": "700111",
        "name": "ΠΕΥΚΟ",
        "order": "23"
      },
      "geometry": {
        "type": "Point",
        "coordinates": [
          23.921854,
          37.9979232
        ]
      }
    },
    {
      "type": "Feature",
      "properties": {
        "type": "stop",
        "stop_code": "700086",
        "stop_id": "700086",
        "name": "ΓΙΑΝΝΑ",
        "order": "24"
      },
      "geometry": {
        "type": "Point",
        "coordinates": [
          23.9194644,
          37.9984247
        ]
      }
    },
    {
      "type": "Feature",
      "properties": {
        "type": "stop",
        "stop_code": "700050",
        "stop_id": "700050",
        "name": "ΦΑΡΜΑΚΕΥΤΙΚΗ",
        "order": "25"
      },
      "geometry": {
        "type": "Point",
        "coordinates": [
          23.9143947,
          37.9997252
        ]
      }
    },
    {
      "type": "Feature",
      "properties": {
        "type": "stop",
        "stop_code": "700051",
        "stop_id": "700051",
        "name": "ΜΠΑΡΜΠΑΓΙΑΝΝΗ",
        "order": "26"
      },
      "geometry": {
        "type": "Point",
        "coordinates": [
          23.9100261,
          38.0027113
        ]
      }
    },
    {
      "type": "Feature",
      "properties": {
        "type": "stop",
        "stop_code": "700087",
        "stop_id": "700087",
        "name": "ΠΛΟΥΤΑΡΧΟΥ",
        "order": "27"
      },
      "geometry": {
        "type": "Point",
        "coordinates": [
          23.9055904,
          38.0027693
        ]
      }
    },
    {
      "type": "Feature",
      "properties": {
        "type": "stop",
        "stop_code": "700053",
        "stop_id": "700053",
        "name": "1η ΝΟΜΑΡΧΙΑ",
        "order": "28"
      },
      "geometry": {
        "type": "Point",
        "coordinates": [
          23.8986602,
          38.00345
        ]
      }
    },
    {
      "type": "Feature",
      "properties": {
        "type": "stop",
        "stop_code": "700119",
        "stop_id": "700119",
        "name": "ΜΟΥΣΙΚΟ ΓΥΜΝΑΣΙΟ ΠΑΛΛΗΝΗΣ",
        "order": "29"
      },
      "geometry": {
        "type": "Point",
        "coordinates": [
          23.8962731,
          38.0038692
        ]
      }
    },
    {
      "type": "Feature",
      "properties": {
        "type": "stop",
        "stop_code": "700054",
        "stop_id": "700054",
        "name": "ΤΣΙΡΙΚΟΥ",
        "order": "30"
      },
      "geometry": {
        "type": "Point",
        "coordinates": [
          23.8955905,
          38.003943
        ]
      }
    },
    {
      "type": "Feature",
      "properties": {
        "type": "stop",
        "stop_code": "700055",
        "stop_id": "700055",
        "name": "ΓΥΜΝΑΣΙΟ",
        "order": "31"
      },
      "geometry": {
        "type": "Point",
        "coordinates": [
          23.8884781,
          38.0042914
        ]
      }
    },
    {
      "type": "Feature",
      "properties": {
        "type": "stop",
        "stop_code": "700056",
        "stop_id": "700056",
        "name": "ΤΗΝΟΥ",
        "order": "32"
      },
      "geometry": {
        "type": "Point",
        "coordinates": [
          23.8861654,
          38.0038807
        ]
      }
    },
    {
      "type": "Feature",
      "properties": {
        "type": "stop",
        "stop_code": "700118",
        "stop_id": "700118",
        "name": "ΓΕΦΥΡΑΚΙ",
        "order": "33"
      },
      "geometry": {
        "type": "Point",
        "coordinates": [
          23.8821332,
          38.0038627
        ]
      }
    },
    {
      "type": "Feature",
      "properties": {
        "type": "stop",
        "stop_code": "700018",
        "stop_id": "700018",
        "name": "ΣΤΡΟΦΗ ΠΑΛΛΗΝΗΣ",
        "order": "34"
      },
      "geometry": {
        "type": "Point",
        "coordinates": [
          23.87995,
          38.0038347
        ]
      }
    },
    {
      "type": "Feature",
      "properties": {
        "type": "stop",
        "stop_code": "700019",
        "stop_id": "700019",
        "name": "ΣΙΝΕ ΠΑΛΛΗΝΗ",
        "order": "35"
      },
      "geometry": {
        "type": "Point",
        "coordinates": [
          23.8776604,
          38.0038678
        ]
      }
    },
    {
      "type": "Feature",
      "properties": {
        "type": "stop",
        "stop_code": "700020",
        "stop_id": "700020",
        "name": "ΑΣΥΡΜΑΤΟΣ",
        "order": "36"
      },
      "geometry": {
        "type": "Point",
        "coordinates": [
          23.873805,
          38.0047793
        ]
      }
    },
    {
      "type": "Feature",
      "properties": {
        "type": "stop",
        "stop_code": "700021",
        "stop_id": "700021",
        "name": "ΓΕΦΥΡΑ",
        "order": "37"
      },
      "geometry": {
        "type": "Point",
        "coordinates": [
          23.8698509,
          38.0056419
        ]
      }
    },
    {
      "type": "Feature",
      "properties": {
        "type": "stop",
        "stop_code": "800012",
        "stop_id": "800012",
        "name": "ΠΥΡΓΟΣ",
        "order": "38"
      },
      "geometry": {
        "type": "Point",
        "coordinates": [
          23.864261,
          38.0066886
        ]
      }
    },
    {
      "type": "Feature",
      "properties": {
        "type": "stop",
        "stop_code": "800013",
        "stop_id": "800013",
        "name": "1η ΓΕΡΑΚΑ",
        "order": "39"
      },
      "geometry": {
        "type": "Point",
        "coordinates": [
          23.8609799,
          38.0072552
        ]
      }
    },
    {
      "type": "Feature",
      "properties": {
        "type": "stop",
        "stop_code": "800019",
        "stop_id": "800019",
        "name": "2η ΓΕΡΑΚΑ",
        "order": "40"
      },
      "geometry": {
        "type": "Point",
        "coordinates": [
          23.8555013,
          38.0085322
        ]
      }
    },
    {
      "type": "Feature",
      "properties": {
        "type": "stop",
        "stop_code": "800014",
        "stop_id": "800014",
        "name": "ΠΑΝΑΓΙΤΣΑ",
        "order": "41"
      },
      "geometry": {
        "type": "Point",
        "coordinates": [
          23.853068,
          38.0092121
        ]
      }
    },
    {
      "type": "Feature",
      "properties": {
        "type": "stop",
        "stop_code": "800018",
        "stop_id": "800018",
        "name": "ΠΕΤΡΟΓΙΑΝΝΗ",
        "order": "42"
      },
      "geometry": {
        "type": "Point",
        "coordinates": [
          23.8486128,
          38.0099836
        ]
      }
    },
    {
      "type": "Feature",
      "properties": {
        "type": "stop",
        "stop_code": "800001",
        "stop_id": "800001",
        "name": "ΥΠΟΥΡΓΕΙΟ",
        "order": "43"
      },
      "geometry": {
        "type": "Point",
        "coordinates": [
          23.843751,
          38.0113923
        ]
      }
    },
    {
      "type": "Feature",
      "properties": {
        "type": "stop",
        "stop_code": "30122",
        "stop_id": "030122",
        "name": "ΚΕΑΣ",
        "order": "44"
      },
      "geometry": {
        "type": "Point",
        "coordinates": [
          23.8427521,
          38.0150772
        ]
      }
    },
    {
      "type": "Feature",
      "properties": {
        "type": "stop",
        "stop_code": "30123",
        "stop_id": "030123",
        "name": "ΑΓ.  ΑΝΑΡΓΥΡΩΝ",
        "order": "45"
      },
      "geometry": {
        "type": "Point",
        "coordinates": [
          23.8406177,
          38.016922
        ]
      }
    },
    {
      "type": "Feature",
      "properties": {
        "type": "stop",
        "stop_code": "30124",
        "stop_id": "030124",
        "name": "ΑΓ.  ΔΗΜΗΤΡΙΟΣ",
        "order": "46"
      },
      "geometry": {
        "type": "Point",
        "coordinates": [
          23.8389275,
          38.0188214
        ]
      }
    },
    {
      "type": "Feature",
      "properties": {
        "type": "stop",
        "stop_code": "30126",
        "stop_id": "030126",
        "name": "ΠΑΠΑΡΗΓΟΠΟΥΛΟΥ",
        "order": "47"
      },
      "geometry": {
        "type": "Point",
        "coordinates": [
          23.8357779,
          38.0211423
        ]
      }
    },
    {
      "type": "Feature",
      "properties": {
        "type": "stop",
        "stop_code": "10365",
        "stop_id": "000160",
        "name": "ΣΤ. ΔΟΥΚ. ΠΛΑΚΕΝΤΙΑΣ",
        "order": "48"
      },
      "geometry": {
        "type": "Point",
        "coordinates": [
          23.8340165,
          38.0238155
        ]
      }
    }
  ]
}