{
  "type": "FeatureCollection",
  "properties": {
    "LineCode": "1537",
    "LineID": "171",
    "LineDescr": "ΒΑΡΚΙΖΑ - ΣΤ. ΑΡΓΥΡΟΥΠΟΛΗ (ΑΠΟ ΒΑΡΚΙΖΑ ΕΩΣ ΣΤ. ΑΡΓΥΡΟΥΠΟΛΗ)",
    "RouteCode": "4015",
    "RouteDescr": "ΒΑΡΚΙΖΑ - ΣΤ. ΑΡΓΥΡΟΥΠΟΛΗ [ΑΠΟ ΒΑΡΚΙΖΑ ΕΩΣ ΣΤ. ΑΡΓΥΡΟΥΠΟΛΗ]",
    "RouteType": "1"
  },
  "features": [
    {
      "type": "Feature",
      "geometry": {
        "type": "LineString",
        "coordinates": [
          [
            23.81352,
            37.82236
          ],
          [
            23.81233,
            37.8222
          ],
          [
            23.81204,
            37.82207
          ],
          [
            23.8117,
            37.82182
          ],
          [
            23.81001,
            37.82158
          ],
          [
            23.80992,
            37.8219
          ],
          [
            23.80595,
            37.82129
          ],
          [
            23.8055,
            37.82109
          ],
          [
            23.80479,
            37.82066
          ],
          [
            23.80465,
            37.8206
          ],
          [
            23.80393,
            37.82136
          ],
          [
            23.80379,
            37.82183
          ],
          [
            23.80423,
            37.82444
          ],
          [
            23.80384,
            37.82748
          ],
          [
            23.80305,
            37.82975
          ],
          [
            23.80311,
            37.83051
          ],
          [
            23.80293,
            37.83091
          ],
          [
            23.80257,
            37.83158
          ],
          [
            23.8029,
            37.8327
          ],
          [
            23.80282,
            37.83298
          ],
          [
            23.80286,
            37.83328
          ],
          [
            23.80272,
            37.83339
          ],
          [
            23.79725,
            37.8343
          ],
          [
            23.79699,
            37.83438
          ],
          [
            23.79686,
            37.83458
          ],
          [
            23.7907,
            37.83511
          ],
          [
            23.78981,
            37.83504
          ],
          [
            23.78626,
            37.83373
          ],
          [
            23.78581,
            37.83368
          ],
          [
            23.78541,
            37.83438
          ],
          [
            23.78491,
            37.83501
          ],
          [
            23.78451,
            37.83532
          ],
          [
            23.78369,
            37.83567
          ],
          [
            23.78078,
            37.83617
          ],
          [
            23.77977,
            37.83644
          ],
          [
            23.77871,
            37.83689
          ],
          [
            23.77764,
            37.83758
          ],
          [
            23.77383,
            37.84125
          ],
          [
            23.77321,
            37.84148
          ],
          [
            23.77227,
            37.84149
          ],
          [
            23.77195,
            37.84157
          ],
          [
            23.77014,
            37.84552
          ],
          [
            23.76663,
            37.85472
          ],
          [
            23.76256,
            37.8623
          ],
          [
            23.75875,
            37.87152
          ],
          [
            23.75576,
            37.87696
          ],
          [
            23.74968,
            37.88869
          ],
          [
            23.74795,
            37.892
          ],
          [
            23.74748,
            37.89295
          ],
          [
            23.74725,
            37.89414
          ],
          [
            23.74674,
            37.89758
          ],
          [
            23.74629,
            37.9009
          ],
          [
            23.74607,
            37.90261
          ]
        ]
      },
      "properties": {
        "type": "route_path",
        "RouteCode": "4015"
      }
    },
    {
      "type": "Feature",
      "geometry": {
        "type": "Point",
        "coordinates": [
          23.813711,
          37.822126
        ]
      },
      "properties": {
        "type": "stop",
        "StopCode": "10347",
        "StopID": "000142",
        "StopDescr": "ΒΑΡΚΙΖΑ",
        "StopOrder": "1",
        "StopType": "0"
      }
    },
    {
      "type": "Feature",
      "geometry": {
        "type": "Point",
        "coordinates": [
          23.8120859,
          37.8221997
        ]
      },
      "properties": {
        "type": "stop",
        "StopCode": "520041",
        "StopID": "520041",
        "StopDescr": "ΛΟΥΝΑ - ΠΑΡΚ",
        "StopOrder": "2",
        "StopType": "0"
      }
    },
    {
      "type": "Feature",
      "geometry": {
        "type": "Point",
        "coordinates": [
          23.8091325,
          37.8218705
        ]
      },
      "properties": {
        "type": "stop",
        "StopCode": "520046",
        "StopID": "520046",
        "StopDescr": "ΒΑΡΚΙΖΑ",
        "StopOrder": "3",
        "StopType": "0"
      }
    },
    {
      "type": "Feature",
      "geometry": {
        "type": "Point",
        "coordinates": [
          23.8039402,
          37.8222748
        ]
      },
      "properties": {
        "type": "stop",
        "StopCode": "520048",
        "StopID": "520048",
        "StopDescr": "ΣΟΥΝΙΟΥ",
        "StopOrder": "4",
        "StopType": "0"
      }
    },
    {
      "type": "Feature",
      "geometry": {
        "type": "Point",
        "coordinates": [
          23.8040989,
          37.8232954
        ]
      },
      "properties": {
        "type": "stop",
        "StopCode": "520012",
        "StopID": "520012",
        "StopDescr": "ΑΡΙΣΤΟΓΕΙΤΟΝΟΣ",
        "StopOrder": "5",
        "StopType": "0"
      }
    },
    {
      "type": "Feature",
      "geometry": {
        "type": "Point",
        "coordinates": [
          23.8040212,
          37.8267167
        ]
      },
      "properties": {
        "type": "stop",
        "StopCode": "520013",
        "StopID": "520013",
        "StopDescr": "ΚΥΠΡΟΥ",
        "StopOrder": "6",
        "StopType": "0"
      }
    },
    {
      "type": "Feature",
      "geometry": {
        "type": "Point",
        "coordinates": [
          23.8034048,
          37.8287843
        ]
      },
      "properties": {
        "type": "stop",
        "StopCode": "520014",
        "StopID": "520014",
        "StopDescr": "ΔΗΜΑΡΧΕΙΟ",
        "StopOrder": "7",
        "StopType": "0"
      }
    },
    {
      "type": "Feature",
      "geometry": {
        "type": "Point",
        "coordinates": [
          23.8030576,
          37.8307378
        ]
      },
      "properties": {
        "type": "stop",
        "StopCode": "520015",
        "StopID": "520015",
        "StopDescr": "ΠΛ. ΔΗΜΑ",
        "StopOrder": "8",
        "StopType": "0"
      }
    },
    {
      "type": "Feature",
      "geometry": {
        "type": "Point",
        "coordinates": [
          23.8020621,
          37.8335982
        ]
      },
      "properties": {
        "type": "stop",
        "StopCode": "520036",
        "StopID": "520036",
        "StopDescr": "ΕΚΚΛΗΣΙΑ",
        "StopOrder": "9",
        "StopType": "0"
      }
    },
    {
      "type": "Feature",
      "geometry": {
        "type": "Point",
        "coordinates": [
          23.7960305,
          37.8346922
        ]
      },
      "properties": {
        "type": "stop",
        "StopCode": "520042",
        "StopID": "520042",
        "StopDescr": "Β' ΓΥΜΝΑΣΙΟ",
        "StopOrder": "10",
        "StopType": "0"
      }
    },
    {
      "type": "Feature",
      "geometry": {
        "type": "Point",
        "coordinates": [
          23.7893703,
          37.8349419
        ]
      },
      "properties": {
        "type": "stop",
        "StopCode": "520017",
        "StopID": "520017",
        "StopDescr": "ΔΙΛΟΦΟ",
        "StopOrder": "11",
        "StopType": "0"
      }
    },
    {
      "type": "Feature",
      "geometry": {
        "type": "Point",
        "coordinates": [
          23.7842659,
          37.8355636
        ]
      },
      "properties": {
        "type": "stop",
        "StopCode": "530078",
        "StopID": "530078",
        "StopDescr": "ΔΡΑΓΑΤΣΑΝΙΟΥ",
        "StopOrder": "12",
        "StopType": "0"
      }
    },
    {
      "type": "Feature",
      "geometry": {
        "type": "Point",
        "coordinates": [
          23.7792767,
          37.8367058
        ]
      },
      "properties": {
        "type": "stop",
        "StopCode": "530079",
        "StopID": "530079",
        "StopDescr": "ΞΑΝΘΟΥ",
        "StopOrder": "13",
        "StopType": "0"
      }
    },
    {
      "type": "Feature",
      "geometry": {
        "type": "Point",
        "coordinates": [
          23.7748867,
          37.8404762
        ]
      },
      "properties": {
        "type": "stop",
        "StopCode": "530081",
        "StopID": "530081",
        "StopDescr": "ΜΕΓ. ΒΑΣΙΛΕΙΟΥ",
        "StopOrder": "14",
        "StopType": "0"
      }
    },
    {
      "type": "Feature",
      "geometry": {
        "type": "Point",
        "coordinates": [
          23.7718348,
          37.8424081
        ]
      },
      "properties": {
        "type": "stop",
        "StopCode": "530075",
        "StopID": "530075",
        "StopDescr": "ΚΑΛΥΜΝΟΥ",
        "StopOrder": "15",
        "StopType": "0"
      }
    },
    {
      "type": "Feature",
      "geometry": {
        "type": "Point",
        "coordinates": [
          23.7701436,
          37.8458299
        ]
      },
      "properties": {
        "type": "stop",
        "StopCode": "530049",
        "StopID": "530049",
        "StopDescr": "ΑΓ. ΙΩΑΝΝΗΣ",
        "StopOrder": "16",
        "StopType": "0"
      }
    },
    {
      "type": "Feature",
      "geometry": {
        "type": "Point",
        "coordinates": [
          23.7693843,
          37.8482799
        ]
      },
      "properties": {
        "type": "stop",
        "StopCode": "530076",
        "StopID": "530076",
        "StopDescr": "ΠΑΛΑΜΑ",
        "StopOrder": "17",
        "StopType": "0"
      }
    },
    {
      "type": "Feature",
      "geometry": {
        "type": "Point",
        "coordinates": [
          23.7681941,
          37.8508733
        ]
      },
      "properties": {
        "type": "stop",
        "StopCode": "530051",
        "StopID": "530051",
        "StopDescr": "ΠΡΟΟΔΟΥ",
        "StopOrder": "18",
        "StopType": "0"
      }
    },
    {
      "type": "Feature",
      "geometry": {
        "type": "Point",
        "coordinates": [
          23.7667252,
          37.8547128
        ]
      },
      "properties": {
        "type": "stop",
        "StopCode": "530077",
        "StopID": "530077",
        "StopDescr": "ΝΙΡΒΑΝΑ",
        "StopOrder": "19",
        "StopType": "0"
      }
    },
    {
      "type": "Feature",
      "geometry": {
        "type": "Point",
        "coordinates": [
          23.7652188,
          37.8575779
        ]
      },
      "properties": {
        "type": "stop",
        "StopCode": "160356",
        "StopID": "160356",
        "StopDescr": "ΣΩΚΡΑΤΟΥΣ",
        "StopOrder": "20",
        "StopType": "0"
      }
    },
    {
      "type": "Feature",
      "geometry": {
        "type": "Point",
        "coordinates": [
          23.7631476,
          37.8614266
        ]
      },
      "properties": {
        "type": "stop",
        "StopCode": "160237",
        "StopID": "160237",
        "StopDescr": "ΑΡΤΕΜΙΔΟΣ",
        "StopOrder": "21",
        "StopType": "0"
      }
    },
    {
      "type": "Feature",
      "geometry": {
        "type": "Point",
        "coordinates": [
          23.7611824,
          37.865878
        ]
      },
      "properties": {
        "type": "stop",
        "StopCode": "160051",
        "StopID": "160051",
        "StopDescr": "ΚΡΙΤΩΝΟΣ",
        "StopOrder": "22",
        "StopType": "0"
      }
    },
    {
      "type": "Feature",
      "geometry": {
        "type": "Point",
        "coordinates": [
          23.7598025,
          37.8692882
        ]
      },
      "properties": {
        "type": "stop",
        "StopCode": "160154",
        "StopID": "160154",
        "StopDescr": "ΙΛΙΟΥ",
        "StopOrder": "23",
        "StopType": "0"
      }
    },
    {
      "type": "Feature",
      "geometry": {
        "type": "Point",
        "coordinates": [
          23.7588324,
          37.8715057
        ]
      },
      "properties": {
        "type": "stop",
        "StopCode": "160118",
        "StopID": "160118",
        "StopDescr": "ΑΝΘΕΩΝ",
        "StopOrder": "24",
        "StopType": "0"
      }
    },
    {
      "type": "Feature",
      "geometry": {
        "type": "Point",
        "coordinates": [
          23.7577069,
          37.8738355
        ]
      },
      "properties": {
        "type": "stop",
        "StopCode": "160351",
        "StopID": "160351",
        "StopDescr": "ΑΡΙΣΤΙΠΠΟΥ",
        "StopOrder": "25",
        "StopType": "0"
      }
    },
    {
      "type": "Feature",
      "geometry": {
        "type": "Point",
        "coordinates": [
          23.7558138,
          37.8771777
        ]
      },
      "properties": {
        "type": "stop",
        "StopCode": "160155",
        "StopID": "160155",
        "StopDescr": "ΑΧΙΛΛΕΩΣ",
        "StopOrder": "26",
        "StopType": "0"
      }
    },
    {
      "type": "Feature",
      "geometry": {
        "type": "Point",
        "coordinates": [
          23.754664,
          37.8793992
        ]
      },
      "properties": {
        "type": "stop",
        "StopCode": "160360",
        "StopID": "160360",
        "StopDescr": "ΚΑΡΑΓΙΩΡΓΑ",
        "StopOrder": "27",
        "StopType": "0"
      }
    },
    {
      "type": "Feature",
      "geometry": {
        "type": "Point",
        "coordinates": [
          23.75351,
          37.8815358
        ]
      },
      "properties": {
        "type": "stop",
        "StopCode": "160156",
        "StopID": "160156",
        "StopDescr": "ΤΡΟΧΑΙΑ",
        "StopOrder": "28",
        "StopType": "0"
      }
    },
    {
      "type": "Feature",
      "geometry": {
        "type": "Point",
        "coordinates": [
          23.7517802,
          37.884828
        ]
      },
      "properties": {
        "type": "stop",
        "StopCode": "160032",
        "StopID": "160032",
        "StopDescr": "ΣΟΦΙΑΣ ΒΕΜΠΟ",
        "StopOrder": "29",
        "StopType": "0"
      }
    },
    {
      "type": "Feature",
      "geometry": {
        "type": "Point",
        "coordinates": [
          23.7511733,
          37.8860795
        ]
      },
      "properties": {
        "type": "stop",
        "StopCode": "160123",
        "StopID": "160123",
        "StopDescr": "ΙΣΜΗΝΗΣ",
        "StopOrder": "30",
        "StopType": "0"
      }
    },
    {
      "type": "Feature",
      "geometry": {
        "type": "Point",
        "coordinates": [
          23.7496508,
          37.8890236
        ]
      },
      "properties": {
        "type": "stop",
        "StopCode": "590029",
        "StopID": "590029",
        "StopDescr": "ΓΕΦΥΡΑ",
        "StopOrder": "31",
        "StopType": "0"
      }
    },
    {
      "type": "Feature",
      "geometry": {
        "type": "Point",
        "coordinates": [
          23.7484486,
          37.8914094
        ]
      },
      "properties": {
        "type": "stop",
        "StopCode": "590030",
        "StopID": "590030",
        "StopDescr": "ΣΤ. ΕΛΛΗΝΙΚΟ",
        "StopOrder": "32",
        "StopType": "0"
      }
    },
    {
      "type": "Feature",
      "geometry": {
        "type": "Point",
        "coordinates": [
          23.74737,
          37.8941922
        ]
      },
      "properties": {
        "type": "stop",
        "StopCode": "590031",
        "StopID": "590031",
        "StopDescr": "ΑΜΕΡΙΚΑΝΙΚΗ ΒΑΣΗ",
        "StopOrder": "33",
        "StopType": "0"
      }
    },
    {
      "type": "Feature",
      "geometry": {
        "type": "Point",
        "coordinates": [
          23.7469371,
          37.8977153
        ]
      },
      "properties": {
        "type": "stop",
        "StopCode": "590032",
        "StopID": "590032",
        "StopDescr": "ΛΑΒΑΣΣΑ",
        "StopOrder": "34",
        "StopType": "0"
      }
    },
    {
      "type": "Feature",
      "geometry": {
        "type": "Point",
        "coordinates": [
          23.7464597,
          37.9009409
        ]
      },
      "properties": {
        "type": "stop",
        "StopCode": "590033",
        "StopID": "590033",
        "StopDescr": "6η ΑΡΓΥΡΟΥΠΟΛΕΩΣ",
        "StopOrder": "35",
        "StopType": "0"
      }
    },
    {
      "type": "Feature",
      "geometry": {
        "type": "Point",
        "coordinates": [
          23.7461835,
          37.903039
        ]
      },
      "properties": {
        "type": "stop",
        "StopCode": "10317",
        "StopID": "000113",
        "StopDescr": "ΣΤ. ΑΡΓΥΡΟΥΠΟΛΗ",
        "StopOrder": "36",
        "StopType": "0"
      }
    }
  ]
}