{
  "type": "FeatureCollection",
  "features": [
    {
      "type": "Feature",
      "properties": {
        "type": "route_path",
        "route_code": "5074",
        "descr": "ΠΕΙΡΑΙΑΣ - ΠΑΛΑΣΚΑ"
      },
      "geometry": {
        "type": "LineString",
        "coordinates": [
          [
            23.64129,
            37.94576
          ],
          [
            23.64183,
            37.94562
          ],
          [
            23.64278,
            37.94521
          ],
          [
            23.64435,
            37.94434
          ],
          [
            23.64456,
            37.94437
          ],
          [
            23.64719,
            37.9474
          ],
          [
            23.64738,
            37.94849
          ],
          [
            23.64738,
            37.94884
          ],
          [
            23.64768,
            37.94902
          ],
          [
            23.64762,
            37.94938
          ],
          [
            23.64801,
            37.94939
          ],
          [
            23.64813,
            37.95189
          ],
          [
            23.64804,
            37.95204
          ],
          [
            23.64781,
            37.95201
          ],
          [
            23.64733,
            37.95223
          ],
          [
            23.648,
            37.95372
          ],
          [
            23.64817,
            37.95426
          ],
          [
            23.64841,
            37.9547
          ],
          [
            23.64912,
            37.95522
          ],
          [
            23.65026,
            37.95654
          ],
          [
            23.65315,
            37.95834
          ],
          [
            23.65518,
            37.96011
          ],
          [
            23.65637,
            37.96124
          ],
          [
            23.65713,
            37.96186
          ],
          [
            23.65799,
            37.96312
          ],
          [
            23.65859,
            37.96371
          ],
          [
            23.66077,
            37.96642
          ],
          [
            23.662,
            37.96758
          ],
          [
            23.66275,
            37.96812
          ],
          [
            23.66334,
            37.96869
          ],
          [
            23.66503,
            37.97254
          ],
          [
            23.66541,
            37.97321
          ],
          [
            23.66767,
            37.97604
          ],
          [
            23.66865,
            37.97674
          ],
          [
            23.66896,
            37.9774
          ],
          [
            23.66924,
            37.9782
          ],
          [
            23.67074,
            37.98012
          ],
          [
            23.67425,
            37.98572
          ],
          [
            23.67529,
            37.98745
          ],
          [
            23.67817,
            37.99238
          ],
          [
            23.67802,
            37.99248
          ],
          [
            23.67544,
            37.99385
          ],
          [
            23.66809,
            37.9971
          ],
          [
            23.66744,
            37.99761
          ],
          [
            23.66568,
            37.99891
          ],
          [
            23.66328,
            38.00022
          ],
          [
            23.66262,
            38.00078
          ],
          [
            23.66157,
            38.00169
          ],
          [
            23.65871,
            38.00369
          ],
          [
            23.65704,
            38.00408
          ],
          [
            23.65599,
            38.00397
          ],
          [
            23.65545,
            38.00409
          ],
          [
            23.65281,
            38.00585
          ],
          [
            23.65239,
            38.00633
          ],
          [
            23.6515,
            38.0077
          ],
          [
            23.65085,
            38.00831
          ],
          [
            23.6485,
            38.00962
          ],
          [
            23.64756,
            38.00998
          ],
          [
            23.64542,
            38.01021
          ],
          [
            23.64066,
            38.01198
          ],
          [
            23.64062,
            38.01245
          ],
          [
            23.63618,
            38.01355
          ],
          [
            23.63517,
            38.01368
          ],
          [
            23.62522,
            38.0136
          ],
          [
            23.62236,
            38.01328
          ],
          [
            23.6115,
            38.01165
          ],
          [
            23.61056,
            38.01162
          ],
          [
            23.60765,
            38.0121
          ],
          [
            23.6067,
            38.01238
          ],
          [
            23.60525,
            38.01335
          ],
          [
            23.60465,
            38.01325
          ],
          [
            23.60447,
            38.01302
          ],
          [
            23.60415,
            38.01214
          ],
          [
            23.60419,
            38.01181
          ],
          [
            23.60418,
            38.01067
          ],
          [
            23.60413,
            38.01046
          ],
          [
            23.60374,
            38.01014
          ],
          [
            23.60196,
            38.0091
          ],
          [
            23.59705,
            38.0024
          ],
          [
            23.5965,
            38.00179
          ],
          [
            23.59498,
            38.00091
          ],
          [
            23.59415,
            38.00054
          ],
          [
            23.5869,
            37.99696
          ],
          [
            23.5854,
            37.99652
          ],
          [
            23.58069,
            37.9941
          ],
          [
            23.57972,
            37.99379
          ],
          [
            23.5785,
            37.99305
          ],
          [
            23.57772,
            37.99216
          ],
          [
            23.57724,
            37.99191
          ],
          [
            23.57509,
            37.99287
          ],
          [
            23.57372,
            37.99347
          ],
          [
            23.57279,
            37.99379
          ],
          [
            23.57206,
            37.99384
          ],
          [
            23.57054,
            37.99498
          ],
          [
            23.56983,
            37.99501
          ],
          [
            23.57001,
            37.99486
          ]
        ]
      }
    },
    {
      "type": "Feature",
      "properties": {
        "type": "stop",
        "stop_code": "10224",
        "stop_id": "58",
        "name": "ΠΕΙΡΑΙΑΣ ΠΛ. ΚΑΡΑΪΣΚΑΚΗ",
        "order": "1"
      },
      "geometry": {
        "type": "Point",
        "coordinates": [
          23.6410725,
          37.9460535
        ]
      }
    },
    {
      "type": "Feature",
      "properties": {
        "type": "stop",
        "stop_code": "400451",
        "stop_id": "400451",
        "name": "ΕΘΝ. ΑΝΤΙΣΤΑΣΕΩΣ",
        "order": "2"
      },
      "geometry": {
        "type": "Point",
        "coordinates": [
          23.6458572,
          37.945708
        ]
      }
    },
    {
      "type": "Feature",
      "properties": {
        "type": "stop",
        "stop_code": "10537",
        "stop_id": "400512",
        "name": "ΑΛΩΝ",
        "order": "3"
      },
      "geometry": {
        "type": "Point",
        "coordinates": [
          23.64813,
          37.9509818
        ]
      }
    },
    {
      "type": "Feature",
      "properties": {
        "type": "stop",
        "stop_code": "400286",
        "stop_id": "400286",
        "name": "ΡΕΤΣΙΝΑ",
        "order": "4"
      },
      "geometry": {
        "type": "Point",
        "coordinates": [
          23.6475622,
          37.9526098
        ]
      }
    },
    {
      "type": "Feature",
      "properties": {
        "type": "stop",
        "stop_code": "400207",
        "stop_id": "400207",
        "name": "ΛΕΥΚΑ",
        "order": "5"
      },
      "geometry": {
        "type": "Point",
        "coordinates": [
          23.6482041,
          37.9540628
        ]
      }
    },
    {
      "type": "Feature",
      "properties": {
        "type": "stop",
        "stop_code": "400219",
        "stop_id": "400219",
        "name": "ΔΡΑΚΟΥΛΙΝΑΚΟΥ",
        "order": "6"
      },
      "geometry": {
        "type": "Point",
        "coordinates": [
          23.6493255,
          37.9552108
        ]
      }
    },
    {
      "type": "Feature",
      "properties": {
        "type": "stop",
        "stop_code": "400220",
        "stop_id": "400220",
        "name": "ΖΕΡΒΟΥ",
        "order": "7"
      },
      "geometry": {
        "type": "Point",
        "coordinates": [
          23.6509949,
          37.9568323
        ]
      }
    },
    {
      "type": "Feature",
      "properties": {
        "type": "stop",
        "stop_code": "400221",
        "stop_id": "400221",
        "name": "ΑΓ. ΣΩΤΗΡΑΣ",
        "order": "8"
      },
      "geometry": {
        "type": "Point",
        "coordinates": [
          23.6533405,
          37.9583051
        ]
      }
    },
    {
      "type": "Feature",
      "properties": {
        "type": "stop",
        "stop_code": "400261",
        "stop_id": "400261",
        "name": "ΣΙΝΕΜΑ",
        "order": "9"
      },
      "geometry": {
        "type": "Point",
        "coordinates": [
          23.6554153,
          37.9601048
        ]
      }
    },
    {
      "type": "Feature",
      "properties": {
        "type": "stop",
        "stop_code": "20047",
        "stop_id": "020047",
        "name": "ΑΓ. ΠΑΥΛΟΣ",
        "order": "10"
      },
      "geometry": {
        "type": "Point",
        "coordinates": [
          23.6580881,
          37.9630598
        ]
      }
    },
    {
      "type": "Feature",
      "properties": {
        "type": "stop",
        "stop_code": "20048",
        "stop_id": "020048",
        "name": "ΦΟΥΡΝΟΣ",
        "order": "11"
      },
      "geometry": {
        "type": "Point",
        "coordinates": [
          23.6588582,
          37.9639273
        ]
      }
    },
    {
      "type": "Feature",
      "properties": {
        "type": "stop",
        "stop_code": "20009",
        "stop_id": "020009",
        "name": "ΜΕΛΙΣΣΑ",
        "order": "12"
      },
      "geometry": {
        "type": "Point",
        "coordinates": [
          23.6604203,
          37.9658605
        ]
      }
    },
    {
      "type": "Feature",
      "properties": {
        "type": "stop",
        "stop_code": "20049",
        "stop_id": "020049",
        "name": "ΚΕΡΑΝΗΣ",
        "order": "13"
      },
      "geometry": {
        "type": "Point",
        "coordinates": [
          23.6611462,
          37.9667506
        ]
      }
    },
    {
      "type": "Feature",
      "properties": {
        "type": "stop",
        "stop_code": "20050",
        "stop_id": "020050",
        "name": "ΜΕΘΕΝΙΤΗ",
        "order": "14"
      },
      "geometry": {
        "type": "Point",
        "coordinates": [
          23.663608,
          37.9690878
        ]
      }
    },
    {
      "type": "Feature",
      "properties": {
        "type": "stop",
        "stop_code": "20052",
        "stop_id": "020052",
        "name": "ΠΛΑΣΤΙΓΓΕΣ",
        "order": "15"
      },
      "geometry": {
        "type": "Point",
        "coordinates": [
          23.6648552,
          37.971984
        ]
      }
    },
    {
      "type": "Feature",
      "properties": {
        "type": "stop",
        "stop_code": "20053",
        "stop_id": "020053",
        "name": "ΥΠΟΥΡΓΕΙΟ",
        "order": "16"
      },
      "geometry": {
        "type": "Point",
        "coordinates": [
          23.6660646,
          37.9739342
        ]
      }
    },
    {
      "type": "Feature",
      "properties": {
        "type": "stop",
        "stop_code": "20054",
        "stop_id": "020054",
        "name": "Γ ΝΕΚΡΟΤΑΦΕΙΟ",
        "order": "17"
      },
      "geometry": {
        "type": "Point",
        "coordinates": [
          23.6676387,
          37.9758314
        ]
      }
    },
    {
      "type": "Feature",
      "properties": {
        "type": "stop",
        "stop_code": "70035",
        "stop_id": "070035",
        "name": "ΠΑΝ/ΜΙΟ ΔΥΤΙΚΗΣ ΑΤΤΙΚΗΣ-ΠΑΝ/ΠΟΛΗ ΑΡΧΑΙΟΥ ΕΛΑΙΩΝΑ",
        "order": "18"
      },
      "geometry": {
        "type": "Point",
        "coordinates": [
          23.6709056,
          37.9802625
        ]
      }
    },
    {
      "type": "Feature",
      "properties": {
        "type": "stop",
        "stop_code": "70036",
        "stop_id": "070036",
        "name": "ΘΕΟΧΑΡΑΚΗ",
        "order": "19"
      },
      "geometry": {
        "type": "Point",
        "coordinates": [
          23.6729515,
          37.9835447
        ]
      }
    },
    {
      "type": "Feature",
      "properties": {
        "type": "stop",
        "stop_code": "70037",
        "stop_id": "070037",
        "name": "ΓΕΦΥΡΑΚΙ",
        "order": "20"
      },
      "geometry": {
        "type": "Point",
        "coordinates": [
          23.6744712,
          37.9859358
        ]
      }
    },
    {
      "type": "Feature",
      "properties": {
        "type": "stop",
        "stop_code": "70038",
        "stop_id": "070038",
        "name": "ΜΑΚΡΗΣ",
        "order": "21"
      },
      "geometry": {
        "type": "Point",
        "coordinates": [
          23.6756016,
          37.9878317
        ]
      }
    },
    {
      "type": "Feature",
      "properties": {
        "type": "stop",
        "stop_code": "70039",
        "stop_id": "070039",
        "name": "ΑΙΓΑΛΕΩ",
        "order": "22"
      },
      "geometry": {
        "type": "Point",
        "coordinates": [
          23.6774103,
          37.990874
        ]
      }
    },
    {
      "type": "Feature",
      "properties": {
        "type": "stop",
        "stop_code": "70005",
        "stop_id": "070005",
        "name": "ΜΠΑΡΟΥΤΑΔΙΚΟ",
        "order": "23"
      },
      "geometry": {
        "type": "Point",
        "coordinates": [
          23.6770029,
          37.9930896
        ]
      }
    },
    {
      "type": "Feature",
      "properties": {
        "type": "stop",
        "stop_code": "70006",
        "stop_id": "070006",
        "name": "ΟΤΕ",
        "order": "24"
      },
      "geometry": {
        "type": "Point",
        "coordinates": [
          23.6743737,
          37.9943933
        ]
      }
    },
    {
      "type": "Feature",
      "properties": {
        "type": "stop",
        "stop_code": "70007",
        "stop_id": "070007",
        "name": "ΠΛ. ΔΑΒΑΚΗ",
        "order": "25"
      },
      "geometry": {
        "type": "Point",
        "coordinates": [
          23.672094,
          37.9953395
        ]
      }
    },
    {
      "type": "Feature",
      "properties": {
        "type": "stop",
        "stop_code": "70158",
        "stop_id": "070158",
        "name": "ΚΟΡΥΤΣΑΣ",
        "order": "26"
      },
      "geometry": {
        "type": "Point",
        "coordinates": [
          23.6695156,
          37.9965391
        ]
      }
    },
    {
      "type": "Feature",
      "properties": {
        "type": "stop",
        "stop_code": "70157",
        "stop_id": "070157",
        "name": "ΣΤ. ΑΓ.ΜΑΡΙΝΑ",
        "order": "27"
      },
      "geometry": {
        "type": "Point",
        "coordinates": [
          23.6673512,
          37.9977709
        ]
      }
    },
    {
      "type": "Feature",
      "properties": {
        "type": "stop",
        "stop_code": "470065",
        "stop_id": "470065",
        "name": "ΣΤΡΟΦΗ ΑΓ. ΒΑΡΒΑΡΑΣ",
        "order": "28"
      },
      "geometry": {
        "type": "Point",
        "coordinates": [
          23.6647667,
          37.9994326
        ]
      }
    },
    {
      "type": "Feature",
      "properties": {
        "type": "stop",
        "stop_code": "470067",
        "stop_id": "470067",
        "name": "ΣΙΔΗΡΟΠΟΥΛΟΥ",
        "order": "29"
      },
      "geometry": {
        "type": "Point",
        "coordinates": [
          23.6597701,
          38.0031358
        ]
      }
    },
    {
      "type": "Feature",
      "properties": {
        "type": "stop",
        "stop_code": "470068",
        "stop_id": "470068",
        "name": "ΠΑΝΑΓΙΤΣΑ",
        "order": "30"
      },
      "geometry": {
        "type": "Point",
        "coordinates": [
          23.6578069,
          38.0040043
        ]
      }
    },
    {
      "type": "Feature",
      "properties": {
        "type": "stop",
        "stop_code": "470069",
        "stop_id": "470069",
        "name": "ΔΗΜΑΡΧΕΙΟ",
        "order": "31"
      },
      "geometry": {
        "type": "Point",
        "coordinates": [
          23.6545571,
          38.0047699
        ]
      }
    },
    {
      "type": "Feature",
      "properties": {
        "type": "stop",
        "stop_code": "470070",
        "stop_id": "470070",
        "name": "ΚΟΥΝΕΛΙΑ",
        "order": "32"
      },
      "geometry": {
        "type": "Point",
        "coordinates": [
          23.6518451,
          38.0074027
        ]
      }
    },
    {
      "type": "Feature",
      "properties": {
        "type": "stop",
        "stop_code": "470143",
        "stop_id": "470143",
        "name": "ΣΧΟΛΕΙΑ",
        "order": "33"
      },
      "geometry": {
        "type": "Point",
        "coordinates": [
          23.650952,
          38.0083824
        ]
      }
    },
    {
      "type": "Feature",
      "properties": {
        "type": "stop",
        "stop_code": "470071",
        "stop_id": "470071",
        "name": "ΣΤΡΟΦΗ ΔΑΣΟΥΣ",
        "order": "34"
      },
      "geometry": {
        "type": "Point",
        "coordinates": [
          23.6491816,
          38.0093866
        ]
      }
    },
    {
      "type": "Feature",
      "properties": {
        "type": "stop",
        "stop_code": "470072",
        "stop_id": "470072",
        "name": "ΚΟΛΩΝΕΣ",
        "order": "35"
      },
      "geometry": {
        "type": "Point",
        "coordinates": [
          23.6459538,
          38.0102331
        ]
      }
    },
    {
      "type": "Feature",
      "properties": {
        "type": "stop",
        "stop_code": "470141",
        "stop_id": "470141",
        "name": "ΔΙΟΜΗΔΕΙΟΣ",
        "order": "36"
      },
      "geometry": {
        "type": "Point",
        "coordinates": [
          23.6425741,
          38.0113726
        ]
      }
    },
    {
      "type": "Feature",
      "properties": {
        "type": "stop",
        "stop_code": "470023",
        "stop_id": "470023",
        "name": "ΨΥΧΙΑΤΡΕΙΟΝ - ΜΟΝΗ  ΔΑΦΝΙΟΥ",
        "order": "37"
      },
      "geometry": {
        "type": "Point",
        "coordinates": [
          23.6399203,
          38.0127378
        ]
      }
    },
    {
      "type": "Feature",
      "properties": {
        "type": "stop",
        "stop_code": "470024",
        "stop_id": "470024",
        "name": "ΒΥΖΑΝΤΙΟΥ",
        "order": "38"
      },
      "geometry": {
        "type": "Point",
        "coordinates": [
          23.6353894,
          38.0136952
        ]
      }
    },
    {
      "type": "Feature",
      "properties": {
        "type": "stop",
        "stop_code": "470026",
        "stop_id": "470026",
        "name": "1η ΑΦΑΙΑΣ - ΙΕΡΟ ΑΦΡΟΔΙΤΗΣ",
        "order": "39"
      },
      "geometry": {
        "type": "Point",
        "coordinates": [
          23.6159484,
          38.0123386
        ]
      }
    },
    {
      "type": "Feature",
      "properties": {
        "type": "stop",
        "stop_code": "470027",
        "stop_id": "470027",
        "name": "2η ΑΦΑΙΑΣ",
        "order": "40"
      },
      "geometry": {
        "type": "Point",
        "coordinates": [
          23.6116147,
          38.0117126
        ]
      }
    },
    {
      "type": "Feature",
      "properties": {
        "type": "stop",
        "stop_code": "470116",
        "stop_id": "470116",
        "name": "1η ΠΑΛΑΣΚΑ",
        "order": "41"
      },
      "geometry": {
        "type": "Point",
        "coordinates": [
          23.6039079,
          38.0103153
        ]
      }
    },
    {
      "type": "Feature",
      "properties": {
        "type": "stop",
        "stop_code": "470040",
        "stop_id": "470040",
        "name": "ΝΑΥΠΗΓΕΙΑ - ΕΚΟ",
        "order": "42"
      },
      "geometry": {
        "type": "Point",
        "coordinates": [
          23.602238,
          38.0094625
        ]
      }
    },
    {
      "type": "Feature",
      "properties": {
        "type": "stop",
        "stop_code": "470034",
        "stop_id": "470034",
        "name": "2η ΠΑΛΑΣΚΑ",
        "order": "43"
      },
      "geometry": {
        "type": "Point",
        "coordinates": [
          23.6010349,
          38.0080147
        ]
      }
    },
    {
      "type": "Feature",
      "properties": {
        "type": "stop",
        "stop_code": "470035",
        "stop_id": "470035",
        "name": "3η ΠΑΛΑΣΚΑ",
        "order": "44"
      },
      "geometry": {
        "type": "Point",
        "coordinates": [
          23.5994208,
          38.0059379
        ]
      }
    },
    {
      "type": "Feature",
      "properties": {
        "type": "stop",
        "stop_code": "470036",
        "stop_id": "470036",
        "name": "4η ΠΑΛΑΣΚΑ",
        "order": "45"
      },
      "geometry": {
        "type": "Point",
        "coordinates": [
          23.5970698,
          38.0025862
        ]
      }
    },
    {
      "type": "Feature",
      "properties": {
        "type": "stop",
        "stop_code": "470037",
        "stop_id": "470037",
        "name": "5η ΠΑΛΑΣΚΑ",
        "order": "46"
      },
      "geometry": {
        "type": "Point",
        "coordinates": [
          23.5939257,
          38.0006106
        ]
      }
    },
    {
      "type": "Feature",
      "properties": {
        "type": "stop",
        "stop_code": "470038",
        "stop_id": "470038",
        "name": "6η ΠΑΛΑΣΚΑ",
        "order": "47"
      },
      "geometry": {
        "type": "Point",
        "coordinates": [
          23.590901,
          37.999127
        ]
      }
    },
    {
      "type": "Feature",
      "properties": {
        "type": "stop",
        "stop_code": "470042",
        "stop_id": "470042",
        "name": "7η ΠΑΛΑΣΚΑ",
        "order": "48"
      },
      "geometry": {
        "type": "Point",
        "coordinates": [
          23.589664,
          37.998138
        ]
      }
    },
    {
      "type": "Feature",
      "properties": {
        "type": "stop",
        "stop_code": "470039",
        "stop_id": "470039",
        "name": "7η ΠΑΛΑΣΚΑ",
        "order": "49"
      },
      "geometry": {
        "type": "Point",
        "coordinates": [
          23.589421,
          37.998399
        ]
      }
    },
    {
      "type": "Feature",
      "properties": {
        "type": "stop",
        "stop_code": "470041",
        "stop_id": "470041",
        "name": "ΠΑΛΑΙΟ ΤΕΡΜΑ",
        "order": "50"
      },
      "geometry": {
        "type": "Point",
        "coordinates": [
          23.587302,
          37.997333
        ]
      }
    },
    {
      "type": "Feature",
      "properties": {
        "type": "stop",
        "stop_code": "470912",
        "stop_id": "470912",
        "name": "ΚΕΦΝ/ΔΠΔΥ",
        "order": "51"
      },
      "geometry": {
        "type": "Point",
        "coordinates": [
          23.5799335,
          37.9940168
        ]
      }
    },
    {
      "type": "Feature",
      "properties": {
        "type": "stop",
        "stop_code": "470913",
        "stop_id": "470913",
        "name": "ΝΒ ΚΑΝΕΛΛΟΠΟΥΛΟΣ",
        "order": "52"
      },
      "geometry": {
        "type": "Point",
        "coordinates": [
          23.5766301,
          37.9924131
        ]
      }
    },
    {
      "type": "Feature",
      "properties": {
        "type": "stop",
        "stop_code": "10434",
        "stop_id": "000214",
        "name": "ΠΑΛΑΣΚΑ",
        "order": "53"
      },
      "geometry": {
        "type": "Point",
        "coordinates": [
          23.570499,
          37.9947305
        ]
      }
    }
  ]
}