{
  "type": "FeatureCollection",
  "features": [
    {
      "type": "Feature",
      "properties": {
        "type": "route_path",
        "route_code": "2598",
        "descr": "ΠΟΛΥΤΕΧΝΕΙΟ - Ν. ΙΩΝΙΑ - ΜΑΡΟΥΣΙ [ΕΝΑΛΛΑΚΤΙΚΗ ΛΟΓΩ ΑΓΩΝΑ - ΟΑΚΑ]"
      },
      "geometry": {
        "type": "LineString",
        "coordinates": [
          [
            23.73002,
            37.98906
          ],
          [
            23.73021,
            37.98916
          ],
          [
            23.73046,
            37.98937
          ],
          [
            23.73084,
            37.98969
          ],
          [
            23.7313,
            37.99147
          ],
          [
            23.73138,
            37.99166
          ],
          [
            23.73312,
            37.99884
          ],
          [
            23.73315,
            37.99893
          ],
          [
            23.73386,
            38.00196
          ],
          [
            23.73406,
            38.00248
          ],
          [
            23.73408,
            38.00259
          ],
          [
            23.73463,
            38.0043
          ],
          [
            23.73478,
            38.00501
          ],
          [
            23.73481,
            38.0051
          ],
          [
            23.73511,
            38.00663
          ],
          [
            23.73512,
            38.00743
          ],
          [
            23.73513,
            38.00755
          ],
          [
            23.73511,
            38.00775
          ],
          [
            23.73526,
            38.01163
          ],
          [
            23.73526,
            38.0118
          ],
          [
            23.73527,
            38.01203
          ],
          [
            23.73532,
            38.01321
          ],
          [
            23.73536,
            38.01373
          ],
          [
            23.73537,
            38.01426
          ],
          [
            23.73558,
            38.01917
          ],
          [
            23.73561,
            38.01954
          ],
          [
            23.73576,
            38.01958
          ],
          [
            23.73653,
            38.01956
          ],
          [
            23.7368,
            38.0196
          ],
          [
            23.73697,
            38.01999
          ],
          [
            23.73716,
            38.0203
          ],
          [
            23.73758,
            38.02081
          ],
          [
            23.73811,
            38.02139
          ],
          [
            23.73918,
            38.02247
          ],
          [
            23.73993,
            38.02294
          ],
          [
            23.74018,
            38.02311
          ],
          [
            23.74042,
            38.02337
          ],
          [
            23.74156,
            38.02483
          ],
          [
            23.74193,
            38.02546
          ],
          [
            23.74223,
            38.02623
          ],
          [
            23.74232,
            38.02655
          ],
          [
            23.74248,
            38.0283
          ],
          [
            23.74253,
            38.02871
          ],
          [
            23.7427,
            38.02909
          ],
          [
            23.7444,
            38.03263
          ],
          [
            23.74465,
            38.03304
          ],
          [
            23.74521,
            38.03364
          ],
          [
            23.7474,
            38.03518
          ],
          [
            23.74865,
            38.03644
          ],
          [
            23.75038,
            38.03783
          ],
          [
            23.75087,
            38.03845
          ],
          [
            23.75124,
            38.03912
          ],
          [
            23.75138,
            38.04077
          ],
          [
            23.75149,
            38.04108
          ],
          [
            23.75175,
            38.04161
          ],
          [
            23.75323,
            38.04231
          ],
          [
            23.75438,
            38.04355
          ],
          [
            23.75818,
            38.04588
          ],
          [
            23.76074,
            38.04796
          ],
          [
            23.76153,
            38.0484
          ],
          [
            23.76267,
            38.04922
          ],
          [
            23.76373,
            38.0498
          ],
          [
            23.76699,
            38.05225
          ],
          [
            23.76753,
            38.05285
          ],
          [
            23.76819,
            38.05345
          ],
          [
            23.76896,
            38.05457
          ],
          [
            23.7695,
            38.05515
          ],
          [
            23.77059,
            38.0561
          ],
          [
            23.77142,
            38.05711
          ],
          [
            23.77168,
            38.05784
          ],
          [
            23.7729,
            38.05993
          ],
          [
            23.77323,
            38.06072
          ],
          [
            23.77481,
            38.06216
          ],
          [
            23.77505,
            38.06277
          ],
          [
            23.77612,
            38.06416
          ],
          [
            23.7765,
            38.06429
          ],
          [
            23.77737,
            38.06394
          ],
          [
            23.78026,
            38.06314
          ],
          [
            23.78192,
            38.0629
          ],
          [
            23.78251,
            38.0626
          ],
          [
            23.78405,
            38.06108
          ],
          [
            23.78477,
            38.06063
          ],
          [
            23.78556,
            38.06026
          ],
          [
            23.78774,
            38.05956
          ],
          [
            23.79023,
            38.0591
          ],
          [
            23.79289,
            38.05907
          ],
          [
            23.79421,
            38.05928
          ],
          [
            23.79679,
            38.06002
          ],
          [
            23.79735,
            38.05987
          ],
          [
            23.79804,
            38.05952
          ],
          [
            23.79863,
            38.05898
          ],
          [
            23.80045,
            38.05849
          ],
          [
            23.80344,
            38.05708
          ],
          [
            23.80359,
            38.0569
          ],
          [
            23.80293,
            38.05639
          ],
          [
            23.80255,
            38.05579
          ],
          [
            23.80291,
            38.05548
          ],
          [
            23.80364,
            38.05505
          ],
          [
            23.80456,
            38.05484
          ],
          [
            23.80486,
            38.05458
          ],
          [
            23.80489,
            38.05423
          ],
          [
            23.81028,
            38.0526
          ],
          [
            23.81044,
            38.05231
          ],
          [
            23.80973,
            38.05098
          ],
          [
            23.80929,
            38.05035
          ],
          [
            23.80859,
            38.04985
          ],
          [
            23.80815,
            38.04921
          ],
          [
            23.80786,
            38.04848
          ],
          [
            23.80766,
            38.0474
          ],
          [
            23.80752,
            38.04696
          ],
          [
            23.80724,
            38.04627
          ],
          [
            23.80671,
            38.04561
          ],
          [
            23.80552,
            38.04478
          ],
          [
            23.8041,
            38.04324
          ],
          [
            23.80276,
            38.04245
          ],
          [
            23.80266,
            38.04208
          ]
        ]
      }
    },
    {
      "type": "Feature",
      "properties": {
        "type": "stop",
        "stop_code": "10203",
        "stop_id": "37",
        "name": "ΠΟΛΥΤΕΧΝΕΙΟ",
        "order": "1"
      },
      "geometry": {
        "type": "Point",
        "coordinates": [
          23.73002,
          37.9891735
        ]
      }
    },
    {
      "type": "Feature",
      "properties": {
        "type": "stop",
        "stop_code": "60112",
        "stop_id": "060112",
        "name": "ΜΟΥΣΕΙΟ",
        "order": "2"
      },
      "geometry": {
        "type": "Point",
        "coordinates": [
          23.7310467,
          37.9903965
        ]
      }
    },
    {
      "type": "Feature",
      "properties": {
        "type": "stop",
        "stop_code": "60475",
        "stop_id": "060475",
        "name": "ΟΙΚΟΝΟΜΙΚΟ ΠΑΝΕΠΙΣΤΗΜΙΟ",
        "order": "3"
      },
      "geometry": {
        "type": "Point",
        "coordinates": [
          23.7318566,
          37.9934297
        ]
      }
    },
    {
      "type": "Feature",
      "properties": {
        "type": "stop",
        "stop_code": "60476",
        "stop_id": "060476",
        "name": "ΑΓΓΕΛΟΠΟΥΛΟΥ",
        "order": "4"
      },
      "geometry": {
        "type": "Point",
        "coordinates": [
          23.7327549,
          37.9970666
        ]
      }
    },
    {
      "type": "Feature",
      "properties": {
        "type": "stop",
        "stop_code": "60874",
        "stop_id": "060874",
        "name": "ΚΕΦΑΛΛΗΝΙΑΣ",
        "order": "5"
      },
      "geometry": {
        "type": "Point",
        "coordinates": [
          23.7332418,
          37.9987468
        ]
      }
    },
    {
      "type": "Feature",
      "properties": {
        "type": "stop",
        "stop_code": "60875",
        "stop_id": "060875",
        "name": "ΠΛ. ΑΜΕΡΙΚΗΣ",
        "order": "6"
      },
      "geometry": {
        "type": "Point",
        "coordinates": [
          23.7340302,
          38.0022259
        ]
      }
    },
    {
      "type": "Feature",
      "properties": {
        "type": "stop",
        "stop_code": "60876",
        "stop_id": "060876",
        "name": "ΚΑΛΛΙΦΡΟΝΑ",
        "order": "7"
      },
      "geometry": {
        "type": "Point",
        "coordinates": [
          23.7348587,
          38.0051676
        ]
      }
    },
    {
      "type": "Feature",
      "properties": {
        "type": "stop",
        "stop_code": "60877",
        "stop_id": "060877",
        "name": "ΛΥΣΣΙΑΤΡΕΙΟ",
        "order": "8"
      },
      "geometry": {
        "type": "Point",
        "coordinates": [
          23.7351673,
          38.0080434
        ]
      }
    },
    {
      "type": "Feature",
      "properties": {
        "type": "stop",
        "stop_code": "60522",
        "stop_id": "060522",
        "name": "ΑΝΝΑ & ΜΑΡΙΑ ΚΑΛΟΥΤΑ",
        "order": "9"
      },
      "geometry": {
        "type": "Point",
        "coordinates": [
          23.7351976,
          38.0091431
        ]
      }
    },
    {
      "type": "Feature",
      "properties": {
        "type": "stop",
        "stop_code": "61049",
        "stop_id": "061049",
        "name": "ΠΛ. ΚΟΛΙΑΤΣΟΥ",
        "order": "10"
      },
      "geometry": {
        "type": "Point",
        "coordinates": [
          23.7352485,
          38.0108286
        ]
      }
    },
    {
      "type": "Feature",
      "properties": {
        "type": "stop",
        "stop_code": "60487",
        "stop_id": "060487",
        "name": "ΑΓ. ΛΟΥΚΑΣ",
        "order": "11"
      },
      "geometry": {
        "type": "Point",
        "coordinates": [
          23.7354338,
          38.0131453
        ]
      }
    },
    {
      "type": "Feature",
      "properties": {
        "type": "stop",
        "stop_code": "61051",
        "stop_id": "061051",
        "name": "ΚΛΩΝΑΡΙΔΟΥ",
        "order": "12"
      },
      "geometry": {
        "type": "Point",
        "coordinates": [
          23.7355472,
          38.0164532
        ]
      }
    },
    {
      "type": "Feature",
      "properties": {
        "type": "stop",
        "stop_code": "61052",
        "stop_id": "061052",
        "name": "ΣΩΤΗΡΙΑΔΟΥ",
        "order": "13"
      },
      "geometry": {
        "type": "Point",
        "coordinates": [
          23.7356769,
          38.0184183
        ]
      }
    },
    {
      "type": "Feature",
      "properties": {
        "type": "stop",
        "stop_code": "60500",
        "stop_id": "060500",
        "name": "ΕΦΟΡΙΑ",
        "order": "14"
      },
      "geometry": {
        "type": "Point",
        "coordinates": [
          23.737776,
          38.0208114
        ]
      }
    },
    {
      "type": "Feature",
      "properties": {
        "type": "stop",
        "stop_code": "60501",
        "stop_id": "060501",
        "name": "ΦΑΡΜΑΚΕΙΟ",
        "order": "15"
      },
      "geometry": {
        "type": "Point",
        "coordinates": [
          23.7403762,
          38.0232957
        ]
      }
    },
    {
      "type": "Feature",
      "properties": {
        "type": "stop",
        "stop_code": "60503",
        "stop_id": "060503",
        "name": "ΑΓ. ΑΝΤΩΝΙΟΣ",
        "order": "16"
      },
      "geometry": {
        "type": "Point",
        "coordinates": [
          23.7419529,
          38.025282
        ]
      }
    },
    {
      "type": "Feature",
      "properties": {
        "type": "stop",
        "stop_code": "60504",
        "stop_id": "060504",
        "name": "ΚΟΛΟΥΜΠΙΑ",
        "order": "17"
      },
      "geometry": {
        "type": "Point",
        "coordinates": [
          23.7435179,
          38.030657
        ]
      }
    },
    {
      "type": "Feature",
      "properties": {
        "type": "stop",
        "stop_code": "330001",
        "stop_id": "330001",
        "name": "ΣΤ. ΗΣΑΠ ΠΕΡΙΣΣΟΣ",
        "order": "18"
      },
      "geometry": {
        "type": "Point",
        "coordinates": [
          23.7446663,
          38.0330588
        ]
      }
    },
    {
      "type": "Feature",
      "properties": {
        "type": "stop",
        "stop_code": "330002",
        "stop_id": "330002",
        "name": "ΕΡΙΟΥΡΓΕΙΑ",
        "order": "19"
      },
      "geometry": {
        "type": "Point",
        "coordinates": [
          23.7467291,
          38.0345232
        ]
      }
    },
    {
      "type": "Feature",
      "properties": {
        "type": "stop",
        "stop_code": "330003",
        "stop_id": "330003",
        "name": "ΣΤ. ΗΣΑΠ ΠΕΥΚΑΚΙΑ",
        "order": "20"
      },
      "geometry": {
        "type": "Point",
        "coordinates": [
          23.7502624,
          38.0376745
        ]
      }
    },
    {
      "type": "Feature",
      "properties": {
        "type": "stop",
        "stop_code": "330055",
        "stop_id": "330055",
        "name": "ΤΡΟΧΟΝΟΜΟΣ",
        "order": "21"
      },
      "geometry": {
        "type": "Point",
        "coordinates": [
          23.7515844,
          38.041039
        ]
      }
    },
    {
      "type": "Feature",
      "properties": {
        "type": "stop",
        "stop_code": "330056",
        "stop_id": "330056",
        "name": "ΤΑΧΥΔΡΟΜΕΙΟ ΝΕΑΣ ΙΩΝΙΑΣ",
        "order": "22"
      },
      "geometry": {
        "type": "Point",
        "coordinates": [
          23.7532668,
          38.0422863
        ]
      }
    },
    {
      "type": "Feature",
      "properties": {
        "type": "stop",
        "stop_code": "330063",
        "stop_id": "330063",
        "name": "ΜΙΡΟΥΑΡ",
        "order": "23"
      },
      "geometry": {
        "type": "Point",
        "coordinates": [
          23.7560517,
          38.0444552
        ]
      }
    },
    {
      "type": "Feature",
      "properties": {
        "type": "stop",
        "stop_code": "330064",
        "stop_id": "330064",
        "name": "ΑΓ. ΚΩΝ/ΝΟΣ",
        "order": "24"
      },
      "geometry": {
        "type": "Point",
        "coordinates": [
          23.7572573,
          38.0451968
        ]
      }
    },
    {
      "type": "Feature",
      "properties": {
        "type": "stop",
        "stop_code": "330027",
        "stop_id": "330027",
        "name": "ΣΙΔΕΡΑ",
        "order": "25"
      },
      "geometry": {
        "type": "Point",
        "coordinates": [
          23.7590313,
          38.0463901
        ]
      }
    },
    {
      "type": "Feature",
      "properties": {
        "type": "stop",
        "stop_code": "220002",
        "stop_id": "220002",
        "name": "ΖΕΦΥΡΟΣ",
        "order": "26"
      },
      "geometry": {
        "type": "Point",
        "coordinates": [
          23.7618168,
          38.0484867
        ]
      }
    },
    {
      "type": "Feature",
      "properties": {
        "type": "stop",
        "stop_code": "220003",
        "stop_id": "220003",
        "name": "ΑΣΤΕΡΙΑ",
        "order": "27"
      },
      "geometry": {
        "type": "Point",
        "coordinates": [
          23.7638302,
          38.0496985
        ]
      }
    },
    {
      "type": "Feature",
      "properties": {
        "type": "stop",
        "stop_code": "220061",
        "stop_id": "220061",
        "name": "2η ΑΜΑΡΟΥΣΙΟΥ",
        "order": "28"
      },
      "geometry": {
        "type": "Point",
        "coordinates": [
          23.7664567,
          38.0516685
        ]
      }
    },
    {
      "type": "Feature",
      "properties": {
        "type": "stop",
        "stop_code": "220028",
        "stop_id": "220028",
        "name": "3η ΑΜΑΡΟΥΣΙΟΥ",
        "order": "29"
      },
      "geometry": {
        "type": "Point",
        "coordinates": [
          23.7687065,
          38.0538901
        ]
      }
    },
    {
      "type": "Feature",
      "properties": {
        "type": "stop",
        "stop_code": "220050",
        "stop_id": "220050",
        "name": "4η ΑΜΑΡΟΥΣΙΟΥ",
        "order": "30"
      },
      "geometry": {
        "type": "Point",
        "coordinates": [
          23.769785,
          38.0552802
        ]
      }
    },
    {
      "type": "Feature",
      "properties": {
        "type": "stop",
        "stop_code": "220086",
        "stop_id": "220086",
        "name": "ΣΤ. ΠΡΟΑΣΤ. ΗΡΑΚΛΕΙΟ",
        "order": "31"
      },
      "geometry": {
        "type": "Point",
        "coordinates": [
          23.7713982,
          38.0569958
        ]
      }
    },
    {
      "type": "Feature",
      "properties": {
        "type": "stop",
        "stop_code": "220076",
        "stop_id": "220076",
        "name": "ΤΡΟΙΑΣ",
        "order": "32"
      },
      "geometry": {
        "type": "Point",
        "coordinates": [
          23.7729854,
          38.0597838
        ]
      }
    },
    {
      "type": "Feature",
      "properties": {
        "type": "stop",
        "stop_code": "220052",
        "stop_id": "220052",
        "name": "6η ΑΜΑΡΟΥΣΙΟΥ",
        "order": "33"
      },
      "geometry": {
        "type": "Point",
        "coordinates": [
          23.773642,
          38.0612722
        ]
      }
    },
    {
      "type": "Feature",
      "properties": {
        "type": "stop",
        "stop_code": "220053",
        "stop_id": "220053",
        "name": "7η ΑΜΑΡΟΥΣΙΟΥ",
        "order": "34"
      },
      "geometry": {
        "type": "Point",
        "coordinates": [
          23.7757556,
          38.0634483
        ]
      }
    },
    {
      "type": "Feature",
      "properties": {
        "type": "stop",
        "stop_code": "220054",
        "stop_id": "220054",
        "name": "8η ΑΜΑΡΟΥΣΙΟΥ",
        "order": "35"
      },
      "geometry": {
        "type": "Point",
        "coordinates": [
          23.7793586,
          38.0632208
        ]
      }
    },
    {
      "type": "Feature",
      "properties": {
        "type": "stop",
        "stop_code": "220055",
        "stop_id": "220055",
        "name": "9η ΑΜΑΡΟΥΣΙΟΥ",
        "order": "36"
      },
      "geometry": {
        "type": "Point",
        "coordinates": [
          23.781245,
          38.0629185
        ]
      }
    },
    {
      "type": "Feature",
      "properties": {
        "type": "stop",
        "stop_code": "220092",
        "stop_id": "220092",
        "name": "25ης ΜΑΡΤΙΟΥ",
        "order": "37"
      },
      "geometry": {
        "type": "Point",
        "coordinates": [
          23.7832852,
          38.0616742
        ]
      }
    },
    {
      "type": "Feature",
      "properties": {
        "type": "stop",
        "stop_code": "220056",
        "stop_id": "220056",
        "name": "10η ΑΜΑΡΟΥΣΙΟΥ",
        "order": "38"
      },
      "geometry": {
        "type": "Point",
        "coordinates": [
          23.7861507,
          38.0599797
        ]
      }
    },
    {
      "type": "Feature",
      "properties": {
        "type": "stop",
        "stop_code": "730018",
        "stop_id": "730018",
        "name": "11η ΑΜΑΡΟΥΣΙΟΥ",
        "order": "39"
      },
      "geometry": {
        "type": "Point",
        "coordinates": [
          23.7885806,
          38.0593532
        ]
      }
    },
    {
      "type": "Feature",
      "properties": {
        "type": "stop",
        "stop_code": "730019",
        "stop_id": "730019",
        "name": "12η ΑΜΑΡΟΥΣΙΟΥ",
        "order": "40"
      },
      "geometry": {
        "type": "Point",
        "coordinates": [
          23.7906774,
          38.059022
        ]
      }
    },
    {
      "type": "Feature",
      "properties": {
        "type": "stop",
        "stop_code": "730020",
        "stop_id": "730020",
        "name": "13η ΑΜΑΡΟΥΣΙΟΥ",
        "order": "41"
      },
      "geometry": {
        "type": "Point",
        "coordinates": [
          23.7940182,
          38.0592187
        ]
      }
    },
    {
      "type": "Feature",
      "properties": {
        "type": "stop",
        "stop_code": "730008",
        "stop_id": "730008",
        "name": "14η ΑΜΑΡΟΥΣΙΟΥ",
        "order": "42"
      },
      "geometry": {
        "type": "Point",
        "coordinates": [
          23.7968658,
          38.0600077
        ]
      }
    },
    {
      "type": "Feature",
      "properties": {
        "type": "stop",
        "stop_code": "90066",
        "stop_id": "090066",
        "name": "15η ΑΜΑΡΟΥΣΙΟΥ",
        "order": "43"
      },
      "geometry": {
        "type": "Point",
        "coordinates": [
          23.8005524,
          38.0582836
        ]
      }
    },
    {
      "type": "Feature",
      "properties": {
        "type": "stop",
        "stop_code": "90185",
        "stop_id": "090185",
        "name": "ΤΣΑΛΔΑΡΗ",
        "order": "44"
      },
      "geometry": {
        "type": "Point",
        "coordinates": [
          23.8032574,
          38.0569633
        ]
      }
    },
    {
      "type": "Feature",
      "properties": {
        "type": "stop",
        "stop_code": "90139",
        "stop_id": "090139",
        "name": "ΠΛ. ΕΘΝ. ΑΝΤΙΣΤΑΣΕΩΣ",
        "order": "45"
      },
      "geometry": {
        "type": "Point",
        "coordinates": [
          23.8024746,
          38.0556191
        ]
      }
    },
    {
      "type": "Feature",
      "properties": {
        "type": "stop",
        "stop_code": "90153",
        "stop_id": "090153",
        "name": "ΙΚΑ ΑΜΑΡΟΥΣΙΟΥ",
        "order": "46"
      },
      "geometry": {
        "type": "Point",
        "coordinates": [
          23.8057165,
          38.0537949
        ]
      }
    },
    {
      "type": "Feature",
      "properties": {
        "type": "stop",
        "stop_code": "90225",
        "stop_id": "090225",
        "name": "ΠΑΠΑΦΛΕΣΣΑ",
        "order": "47"
      },
      "geometry": {
        "type": "Point",
        "coordinates": [
          23.8091614,
          38.0527821
        ]
      }
    },
    {
      "type": "Feature",
      "properties": {
        "type": "stop",
        "stop_code": "90015",
        "stop_id": "090015",
        "name": "ΔΙΑΣΤΑΥΡΩΣΗ ΑΜΑΡΟΥΣΙΟΥ",
        "order": "48"
      },
      "geometry": {
        "type": "Point",
        "coordinates": [
          23.8097087,
          38.0510157
        ]
      }
    },
    {
      "type": "Feature",
      "properties": {
        "type": "stop",
        "stop_code": "90016",
        "stop_id": "090016",
        "name": "ΚΑΝΑΤΑΔΙΚΑ",
        "order": "49"
      },
      "geometry": {
        "type": "Point",
        "coordinates": [
          23.8077711,
          38.0484137
        ]
      }
    },
    {
      "type": "Feature",
      "properties": {
        "type": "stop",
        "stop_code": "90017",
        "stop_id": "090017",
        "name": "ΗΒΗ",
        "order": "50"
      },
      "geometry": {
        "type": "Point",
        "coordinates": [
          23.807474,
          38.0470258
        ]
      }
    },
    {
      "type": "Feature",
      "properties": {
        "type": "stop",
        "stop_code": "90018",
        "stop_id": "090018",
        "name": "ΟΤΕ",
        "order": "51"
      },
      "geometry": {
        "type": "Point",
        "coordinates": [
          23.8064443,
          38.0455639
        ]
      }
    },
    {
      "type": "Feature",
      "properties": {
        "type": "stop",
        "stop_code": "90019",
        "stop_id": "090019",
        "name": "ΒΛΑΣΤΟΥ",
        "order": "52"
      },
      "geometry": {
        "type": "Point",
        "coordinates": [
          23.804307,
          38.0437703
        ]
      }
    },
    {
      "type": "Feature",
      "properties": {
        "type": "stop",
        "stop_code": "11020",
        "stop_id": "238",
        "name": "ΚΗΦΙΣΙΑΣ (ΔΑΚΤΥΛΙΔΙ)  Α8-Ε14 ",
        "order": "53"
      },
      "geometry": {
        "type": "Point",
        "coordinates": [
          23.803439,
          38.041996
        ]
      }
    }
  ]
}