{
  "type": "FeatureCollection",
  "features": [
    {
      "type": "Feature",
      "properties": {
        "type": "route_path",
        "route_code": "5080",
        "descr": "ΠΕΙΡΑΙΑΣ - ΑΣΠΡΑ ΧΩΜΑΤΑ - ΣΤ.ΝΙΚΑΙΑ"
      },
      "geometry": {
        "type": "LineString",
        "coordinates": [
          [
            23.64124,
            37.94628
          ],
          [
            23.64137,
            37.94574
          ],
          [
            23.64226,
            37.94542
          ],
          [
            23.64352,
            37.94468
          ],
          [
            23.64407,
            37.94442
          ],
          [
            23.64437,
            37.94432
          ],
          [
            23.64469,
            37.94445
          ],
          [
            23.64572,
            37.94567
          ],
          [
            23.64702,
            37.94722
          ],
          [
            23.64717,
            37.94754
          ],
          [
            23.64717,
            37.94772
          ],
          [
            23.64725,
            37.94802
          ],
          [
            23.6473,
            37.94839
          ],
          [
            23.64723,
            37.94876
          ],
          [
            23.64808,
            37.94924
          ],
          [
            23.64815,
            37.94938
          ],
          [
            23.64803,
            37.94955
          ],
          [
            23.64813,
            37.95137
          ],
          [
            23.64815,
            37.95213
          ],
          [
            23.64778,
            37.95213
          ],
          [
            23.64744,
            37.95206
          ],
          [
            23.64732,
            37.95217
          ],
          [
            23.64833,
            37.95449
          ],
          [
            23.64902,
            37.95503
          ],
          [
            23.64944,
            37.95535
          ],
          [
            23.64962,
            37.95554
          ],
          [
            23.64969,
            37.95573
          ],
          [
            23.64977,
            37.95588
          ],
          [
            23.64942,
            37.95836
          ],
          [
            23.64902,
            37.96011
          ],
          [
            23.6491,
            37.9602
          ],
          [
            23.64919,
            37.96032
          ],
          [
            23.64926,
            37.9604
          ],
          [
            23.649,
            37.96053
          ],
          [
            23.64732,
            37.96128
          ],
          [
            23.64658,
            37.96172
          ],
          [
            23.64536,
            37.96267
          ],
          [
            23.64498,
            37.96306
          ],
          [
            23.64601,
            37.96317
          ],
          [
            23.64929,
            37.96339
          ],
          [
            23.64716,
            37.96753
          ],
          [
            23.64663,
            37.96852
          ],
          [
            23.64844,
            37.96912
          ],
          [
            23.65025,
            37.96967
          ],
          [
            23.65153,
            37.97003
          ],
          [
            23.65257,
            37.97035
          ],
          [
            23.65414,
            37.97081
          ],
          [
            23.65556,
            37.97132
          ],
          [
            23.66117,
            37.97322
          ],
          [
            23.66085,
            37.97691
          ],
          [
            23.65723,
            37.97856
          ],
          [
            23.6568,
            37.9788
          ],
          [
            23.65779,
            37.97963
          ],
          [
            23.66667,
            37.97632
          ],
          [
            23.66571,
            37.97554
          ],
          [
            23.66406,
            37.97479
          ],
          [
            23.66225,
            37.97392
          ],
          [
            23.66083,
            37.97321
          ],
          [
            23.65766,
            37.97222
          ],
          [
            23.65515,
            37.97141
          ],
          [
            23.65393,
            37.97099
          ],
          [
            23.6527,
            37.97064
          ],
          [
            23.6502,
            37.96976
          ],
          [
            23.64909,
            37.97016
          ],
          [
            23.64494,
            37.96881
          ],
          [
            23.64634,
            37.96619
          ],
          [
            23.64717,
            37.96465
          ],
          [
            23.64782,
            37.96331
          ],
          [
            23.64869,
            37.96337
          ],
          [
            23.64888,
            37.96318
          ],
          [
            23.6493,
            37.9629
          ],
          [
            23.64935,
            37.96231
          ],
          [
            23.64935,
            37.96203
          ],
          [
            23.64943,
            37.96187
          ],
          [
            23.64943,
            37.96159
          ],
          [
            23.64941,
            37.96085
          ],
          [
            23.64931,
            37.96059
          ],
          [
            23.64926,
            37.96046
          ],
          [
            23.64907,
            37.96019
          ],
          [
            23.649,
            37.96013
          ],
          [
            23.64904,
            37.95993
          ],
          [
            23.64954,
            37.95728
          ],
          [
            23.64961,
            37.95661
          ],
          [
            23.64969,
            37.95584
          ],
          [
            23.64948,
            37.95549
          ],
          [
            23.64933,
            37.95536
          ],
          [
            23.64832,
            37.95461
          ],
          [
            23.64819,
            37.95441
          ],
          [
            23.64724,
            37.95229
          ],
          [
            23.64719,
            37.95088
          ],
          [
            23.64718,
            37.94929
          ],
          [
            23.64715,
            37.94885
          ],
          [
            23.64695,
            37.94866
          ],
          [
            23.64715,
            37.94823
          ],
          [
            23.64707,
            37.94784
          ],
          [
            23.6469,
            37.94766
          ],
          [
            23.64265,
            37.94554
          ],
          [
            23.64239,
            37.94544
          ],
          [
            23.64235,
            37.94599
          ],
          [
            23.64235,
            37.94654
          ],
          [
            23.64116,
            37.94658
          ]
        ]
      }
    },
    {
      "type": "Feature",
      "properties": {
        "type": "stop",
        "stop_code": "10224",
        "stop_id": "58",
        "name": "ΠΕΙΡΑΙΑΣ ΠΛ. ΚΑΡΑΪΣΚΑΚΗ",
        "order": "1"
      },
      "geometry": {
        "type": "Point",
        "coordinates": [
          23.6410725,
          37.9460535
        ]
      }
    },
    {
      "type": "Feature",
      "properties": {
        "type": "stop",
        "stop_code": "400451",
        "stop_id": "400451",
        "name": "ΕΘΝ. ΑΝΤΙΣΤΑΣΕΩΣ",
        "order": "2"
      },
      "geometry": {
        "type": "Point",
        "coordinates": [
          23.6458572,
          37.945708
        ]
      }
    },
    {
      "type": "Feature",
      "properties": {
        "type": "stop",
        "stop_code": "10537",
        "stop_id": "400512",
        "name": "ΑΛΩΝ",
        "order": "3"
      },
      "geometry": {
        "type": "Point",
        "coordinates": [
          23.64813,
          37.9509818
        ]
      }
    },
    {
      "type": "Feature",
      "properties": {
        "type": "stop",
        "stop_code": "400286",
        "stop_id": "400286",
        "name": "ΡΕΤΣΙΝΑ",
        "order": "4"
      },
      "geometry": {
        "type": "Point",
        "coordinates": [
          23.6475622,
          37.9526098
        ]
      }
    },
    {
      "type": "Feature",
      "properties": {
        "type": "stop",
        "stop_code": "400207",
        "stop_id": "400207",
        "name": "ΛΕΥΚΑ",
        "order": "5"
      },
      "geometry": {
        "type": "Point",
        "coordinates": [
          23.6482041,
          37.9540628
        ]
      }
    },
    {
      "type": "Feature",
      "properties": {
        "type": "stop",
        "stop_code": "400219",
        "stop_id": "400219",
        "name": "ΔΡΑΚΟΥΛΙΝΑΚΟΥ",
        "order": "6"
      },
      "geometry": {
        "type": "Point",
        "coordinates": [
          23.6493255,
          37.9552108
        ]
      }
    },
    {
      "type": "Feature",
      "properties": {
        "type": "stop",
        "stop_code": "400236",
        "stop_id": "400236",
        "name": "ΣΧΟΛΕΙΟ",
        "order": "7"
      },
      "geometry": {
        "type": "Point",
        "coordinates": [
          23.6495146,
          37.9585371
        ]
      }
    },
    {
      "type": "Feature",
      "properties": {
        "type": "stop",
        "stop_code": "400237",
        "stop_id": "400237",
        "name": "1η ΒΑΛΑΩΡΙΤΟΥ",
        "order": "8"
      },
      "geometry": {
        "type": "Point",
        "coordinates": [
          23.6487871,
          37.9607161
        ]
      }
    },
    {
      "type": "Feature",
      "properties": {
        "type": "stop",
        "stop_code": "400491",
        "stop_id": "400491",
        "name": "2η ΒΑΛΑΩΡΙΤΟΥ",
        "order": "9"
      },
      "geometry": {
        "type": "Point",
        "coordinates": [
          23.6462761,
          37.9620875
        ]
      }
    },
    {
      "type": "Feature",
      "properties": {
        "type": "stop",
        "stop_code": "370154",
        "stop_id": "370154",
        "name": "ΚΥΠΡΟΥ",
        "order": "10"
      },
      "geometry": {
        "type": "Point",
        "coordinates": [
          23.6466471,
          37.9630711
        ]
      }
    },
    {
      "type": "Feature",
      "properties": {
        "type": "stop",
        "stop_code": "370080",
        "stop_id": "370080",
        "name": "ΓΕΦΥΡΑ",
        "order": "11"
      },
      "geometry": {
        "type": "Point",
        "coordinates": [
          23.649124,
          37.9640789
        ]
      }
    },
    {
      "type": "Feature",
      "properties": {
        "type": "stop",
        "stop_code": "370081",
        "stop_id": "370081",
        "name": "ΑΓ. ΝΙΚΟΛΑΟΣ - ΣΤ. ΝΙΚΑΙΑ",
        "order": "12"
      },
      "geometry": {
        "type": "Point",
        "coordinates": [
          23.6478143,
          37.9665715
        ]
      }
    },
    {
      "type": "Feature",
      "properties": {
        "type": "stop",
        "stop_code": "370052",
        "stop_id": "370052",
        "name": "Π. ΡΑΛΛΗ",
        "order": "13"
      },
      "geometry": {
        "type": "Point",
        "coordinates": [
          23.6469292,
          37.9683444
        ]
      }
    },
    {
      "type": "Feature",
      "properties": {
        "type": "stop",
        "stop_code": "370021",
        "stop_id": "370021",
        "name": "ΑΤΤΑΛΕΙΑΣ",
        "order": "14"
      },
      "geometry": {
        "type": "Point",
        "coordinates": [
          23.6497133,
          37.9694343
        ]
      }
    },
    {
      "type": "Feature",
      "properties": {
        "type": "stop",
        "stop_code": "370022",
        "stop_id": "370022",
        "name": "ΠΕΡΙΒΟΛΑΚΙ",
        "order": "15"
      },
      "geometry": {
        "type": "Point",
        "coordinates": [
          23.6537833,
          37.9706811
        ]
      }
    },
    {
      "type": "Feature",
      "properties": {
        "type": "stop",
        "stop_code": "370023",
        "stop_id": "370023",
        "name": "ΦΑΡΜΑΚΕΙΟ",
        "order": "16"
      },
      "geometry": {
        "type": "Point",
        "coordinates": [
          23.6563866,
          37.9715179
        ]
      }
    },
    {
      "type": "Feature",
      "properties": {
        "type": "stop",
        "stop_code": "370025",
        "stop_id": "370025",
        "name": "ΠΑΙΔΙΚΗ ΣΤΕΓΗ",
        "order": "17"
      },
      "geometry": {
        "type": "Point",
        "coordinates": [
          23.6589785,
          37.9723817
        ]
      }
    },
    {
      "type": "Feature",
      "properties": {
        "type": "stop",
        "stop_code": "370069",
        "stop_id": "370069",
        "name": "ΧΕΙΜΑΡΑΣ",
        "order": "18"
      },
      "geometry": {
        "type": "Point",
        "coordinates": [
          23.6612473,
          37.9741728
        ]
      }
    },
    {
      "type": "Feature",
      "properties": {
        "type": "stop",
        "stop_code": "370070",
        "stop_id": "370070",
        "name": "ΑΓ. ΤΡΙΑΔΑ",
        "order": "19"
      },
      "geometry": {
        "type": "Point",
        "coordinates": [
          23.6610687,
          37.9758757
        ]
      }
    },
    {
      "type": "Feature",
      "properties": {
        "type": "stop",
        "stop_code": "370071",
        "stop_id": "370071",
        "name": "ΓΗΠΕΔΟ",
        "order": "20"
      },
      "geometry": {
        "type": "Point",
        "coordinates": [
          23.6596033,
          37.97762
        ]
      }
    },
    {
      "type": "Feature",
      "properties": {
        "type": "stop",
        "stop_code": "280058",
        "stop_id": "280058",
        "name": "ΚΥΠΡΟΥ",
        "order": "21"
      },
      "geometry": {
        "type": "Point",
        "coordinates": [
          23.6572642,
          37.9786587
        ]
      }
    },
    {
      "type": "Feature",
      "properties": {
        "type": "stop",
        "stop_code": "280023",
        "stop_id": "280023",
        "name": "ΕΡΕΧΘΕΙΟΥ",
        "order": "22"
      },
      "geometry": {
        "type": "Point",
        "coordinates": [
          23.6580465,
          37.979382
        ]
      }
    },
    {
      "type": "Feature",
      "properties": {
        "type": "stop",
        "stop_code": "370047",
        "stop_id": "370047",
        "name": "ΠΛ. ΑΡΕΩΣ",
        "order": "23"
      },
      "geometry": {
        "type": "Point",
        "coordinates": [
          23.6612289,
          37.9781834
        ]
      }
    },
    {
      "type": "Feature",
      "properties": {
        "type": "stop",
        "stop_code": "370048",
        "stop_id": "370048",
        "name": "ΠΑΤΜΟΥ",
        "order": "24"
      },
      "geometry": {
        "type": "Point",
        "coordinates": [
          23.6641487,
          37.9771103
        ]
      }
    },
    {
      "type": "Feature",
      "properties": {
        "type": "stop",
        "stop_code": "370049",
        "stop_id": "370049",
        "name": "Γ ΝΕΚΡΟΤΑΦΕΙΟ - ΓΡ. ΛΑΜΠΡΑΚΗ",
        "order": "25"
      },
      "geometry": {
        "type": "Point",
        "coordinates": [
          23.6664184,
          37.9762695
        ]
      }
    },
    {
      "type": "Feature",
      "properties": {
        "type": "stop",
        "stop_code": "370001",
        "stop_id": "370001",
        "name": "Γ ΝΕΚΡΟΤΑΦΕΙΟ",
        "order": "26"
      },
      "geometry": {
        "type": "Point",
        "coordinates": [
          23.665556,
          37.9756182
        ]
      }
    },
    {
      "type": "Feature",
      "properties": {
        "type": "stop",
        "stop_code": "370002",
        "stop_id": "370002",
        "name": "ΓΥΜΝΑΣΤΗΡΙΟ",
        "order": "27"
      },
      "geometry": {
        "type": "Point",
        "coordinates": [
          23.6640565,
          37.9748658
        ]
      }
    },
    {
      "type": "Feature",
      "properties": {
        "type": "stop",
        "stop_code": "370003",
        "stop_id": "370003",
        "name": "ΚΡΑΤΙΚΟ ΝΟΣΟΚΟΜΕΙΟ",
        "order": "28"
      },
      "geometry": {
        "type": "Point",
        "coordinates": [
          23.6617064,
          37.9736461
        ]
      }
    },
    {
      "type": "Feature",
      "properties": {
        "type": "stop",
        "stop_code": "370004",
        "stop_id": "370004",
        "name": "ΠΑΙΔΙΚΗ ΣΤΕΓΗ",
        "order": "29"
      },
      "geometry": {
        "type": "Point",
        "coordinates": [
          23.659053,
          37.972703
        ]
      }
    },
    {
      "type": "Feature",
      "properties": {
        "type": "stop",
        "stop_code": "370005",
        "stop_id": "370005",
        "name": "ΦΑΡΜΑΚΕΙΟ",
        "order": "30"
      },
      "geometry": {
        "type": "Point",
        "coordinates": [
          23.6557816,
          37.9716461
        ]
      }
    },
    {
      "type": "Feature",
      "properties": {
        "type": "stop",
        "stop_code": "11532",
        "stop_id": "370131",
        "name": "ΠΛ. ΙΩ. ΜΕΛΑ",
        "order": "31"
      },
      "geometry": {
        "type": "Point",
        "coordinates": [
          23.6539697,
          37.9710259
        ]
      }
    },
    {
      "type": "Feature",
      "properties": {
        "type": "stop",
        "stop_code": "370006",
        "stop_id": "370006",
        "name": "ΠΕΡΙΒΟΛΑΚΙ",
        "order": "32"
      },
      "geometry": {
        "type": "Point",
        "coordinates": [
          23.6517351,
          37.9704317
        ]
      }
    },
    {
      "type": "Feature",
      "properties": {
        "type": "stop",
        "stop_code": "370007",
        "stop_id": "370007",
        "name": "ΑΤΤΑΛΕΙΑΣ",
        "order": "33"
      },
      "geometry": {
        "type": "Point",
        "coordinates": [
          23.6485987,
          37.970041
        ]
      }
    },
    {
      "type": "Feature",
      "properties": {
        "type": "stop",
        "stop_code": "370014",
        "stop_id": "370014",
        "name": "ΣΤΡΟΦΗ",
        "order": "34"
      },
      "geometry": {
        "type": "Point",
        "coordinates": [
          23.6451421,
          37.9682669
        ]
      }
    },
    {
      "type": "Feature",
      "properties": {
        "type": "stop",
        "stop_code": "370132",
        "stop_id": "370132",
        "name": "ΚΑΙΣΑΡΕΙΑΣ",
        "order": "35"
      },
      "geometry": {
        "type": "Point",
        "coordinates": [
          23.6454994,
          37.9673577
        ]
      }
    },
    {
      "type": "Feature",
      "properties": {
        "type": "stop",
        "stop_code": "370098",
        "stop_id": "370098",
        "name": "ΣΤ. ΝΙΚΑΙΑ",
        "order": "36"
      },
      "geometry": {
        "type": "Point",
        "coordinates": [
          23.6463457,
          37.966102
        ]
      }
    },
    {
      "type": "Feature",
      "properties": {
        "type": "stop",
        "stop_code": "11438",
        "stop_id": "370900",
        "name": "ΕΦΕΣΟΥ",
        "order": "37"
      },
      "geometry": {
        "type": "Point",
        "coordinates": [
          23.6469576,
          37.9649446
        ]
      }
    },
    {
      "type": "Feature",
      "properties": {
        "type": "stop",
        "stop_code": "11543",
        "stop_id": "370169",
        "name": "7ης ΜΑΡΤΗ",
        "order": "38"
      },
      "geometry": {
        "type": "Point",
        "coordinates": [
          23.6492672,
          37.9626449
        ]
      }
    },
    {
      "type": "Feature",
      "properties": {
        "type": "stop",
        "stop_code": "400239",
        "stop_id": "400239",
        "name": "ΑΓ. ΑΝΑΡΓΥΡΟΙ",
        "order": "39"
      },
      "geometry": {
        "type": "Point",
        "coordinates": [
          23.6491849,
          37.9608435
        ]
      }
    },
    {
      "type": "Feature",
      "properties": {
        "type": "stop",
        "stop_code": "400240",
        "stop_id": "400240",
        "name": "ΣΧΟΛΕΙΟ",
        "order": "40"
      },
      "geometry": {
        "type": "Point",
        "coordinates": [
          23.6492325,
          37.9586746
        ]
      }
    },
    {
      "type": "Feature",
      "properties": {
        "type": "stop",
        "stop_code": "400329",
        "stop_id": "400329",
        "name": "ΛΕΥΚΑ",
        "order": "41"
      },
      "geometry": {
        "type": "Point",
        "coordinates": [
          23.6493472,
          37.9554452
        ]
      }
    },
    {
      "type": "Feature",
      "properties": {
        "type": "stop",
        "stop_code": "400243",
        "stop_id": "400243",
        "name": "ΡΕΤΣΙΝΑ",
        "order": "42"
      },
      "geometry": {
        "type": "Point",
        "coordinates": [
          23.647435,
          37.9530421
        ]
      }
    },
    {
      "type": "Feature",
      "properties": {
        "type": "stop",
        "stop_code": "400495",
        "stop_id": "400495",
        "name": "ΑΓ.  ΔΙΟΝΥΣΙΟΣ",
        "order": "43"
      },
      "geometry": {
        "type": "Point",
        "coordinates": [
          23.6471304,
          37.9497971
        ]
      }
    },
    {
      "type": "Feature",
      "properties": {
        "type": "stop",
        "stop_code": "400452",
        "stop_id": "400452",
        "name": "ΓΟΥΝΑΡΗ",
        "order": "44"
      },
      "geometry": {
        "type": "Point",
        "coordinates": [
          23.6452784,
          37.947033
        ]
      }
    },
    {
      "type": "Feature",
      "properties": {
        "type": "stop",
        "stop_code": "10224",
        "stop_id": "58",
        "name": "ΠΕΙΡΑΙΑΣ ΠΛ. ΚΑΡΑΪΣΚΑΚΗ",
        "order": "45"
      },
      "geometry": {
        "type": "Point",
        "coordinates": [
          23.6410725,
          37.9460535
        ]
      }
    }
  ]
}