{
  "type": "FeatureCollection",
  "properties": {
    "LineCode": "1651",
    "LineID": "848",
    "LineDescr": "ΝΕΑΠΟΛΗ - ΧΑΡΑΥΓΗ",
    "RouteCode": "4479",
    "RouteDescr": "ΝΕΑΠΟΛΗ - ΧΑΡΑΥΓΗ",
    "RouteType": "1"
  },
  "features": [
    {
      "type": "Feature",
      "geometry": {
        "type": "LineString",
        "coordinates": [
          [
            23.62662,
            37.98671
          ],
          [
            23.62748,
            37.98695
          ],
          [
            23.62807,
            37.98696
          ],
          [
            23.62827,
            37.98714
          ],
          [
            23.63556,
            37.98366
          ],
          [
            23.63801,
            37.9824
          ],
          [
            23.63903,
            37.98286
          ],
          [
            23.63931,
            37.98214
          ],
          [
            23.63645,
            37.97845
          ],
          [
            23.63617,
            37.97818
          ],
          [
            23.62938,
            37.97785
          ],
          [
            23.62892,
            37.97777
          ],
          [
            23.6284,
            37.97754
          ],
          [
            23.61369,
            37.96431
          ],
          [
            23.61363,
            37.96419
          ],
          [
            23.61366,
            37.9641
          ],
          [
            23.61434,
            37.96361
          ],
          [
            23.61458,
            37.96354
          ],
          [
            23.62321,
            37.96454
          ],
          [
            23.6242,
            37.9645
          ],
          [
            23.62624,
            37.96423
          ],
          [
            23.62647,
            37.96412
          ],
          [
            23.62553,
            37.96226
          ],
          [
            23.62475,
            37.96072
          ],
          [
            23.62447,
            37.96011
          ],
          [
            23.62653,
            37.96009
          ],
          [
            23.62643,
            37.95656
          ],
          [
            23.62628,
            37.95366
          ],
          [
            23.62287,
            37.95373
          ],
          [
            23.62275,
            37.95677
          ],
          [
            23.6201,
            37.95607
          ],
          [
            23.61917,
            37.95605
          ],
          [
            23.61699,
            37.95607
          ],
          [
            23.61643,
            37.95606
          ]
        ]
      },
      "properties": {
        "type": "route_path",
        "RouteCode": "4479"
      }
    },
    {
      "type": "Feature",
      "geometry": {
        "type": "Point",
        "coordinates": [
          23.626504,
          37.986699
        ]
      },
      "properties": {
        "type": "stop",
        "StopCode": "10227",
        "StopID": "61",
        "StopDescr": "ΝΕΑΠΟΛΗ",
        "StopOrder": "1",
        "StopType": "0"
      }
    },
    {
      "type": "Feature",
      "geometry": {
        "type": "Point",
        "coordinates": [
          23.6276314,
          37.9868689
        ]
      },
      "properties": {
        "type": "stop",
        "StopCode": "370114",
        "StopID": "370114",
        "StopDescr": "ΠΑΛ. ΤΕΡΜΑ",
        "StopOrder": "2",
        "StopType": "0"
      }
    },
    {
      "type": "Feature",
      "geometry": {
        "type": "Point",
        "coordinates": [
          23.6302409,
          37.9861206
        ]
      },
      "properties": {
        "type": "stop",
        "StopCode": "370139",
        "StopID": "370139",
        "StopDescr": "1η ΓΚΟΥΡΑ",
        "StopOrder": "3",
        "StopType": "0"
      }
    },
    {
      "type": "Feature",
      "geometry": {
        "type": "Point",
        "coordinates": [
          23.6315193,
          37.9855207
        ]
      },
      "properties": {
        "type": "stop",
        "StopCode": "370185",
        "StopID": "370185",
        "StopDescr": "ΠΑΙΔΙΚΗ ΧΑΡΑ",
        "StopOrder": "4",
        "StopType": "0"
      }
    },
    {
      "type": "Feature",
      "geometry": {
        "type": "Point",
        "coordinates": [
          23.6325923,
          37.9850103
        ]
      },
      "properties": {
        "type": "stop",
        "StopCode": "370140",
        "StopID": "370140",
        "StopDescr": "2η ΓΚΟΥΡΑ",
        "StopOrder": "5",
        "StopType": "0"
      }
    },
    {
      "type": "Feature",
      "geometry": {
        "type": "Point",
        "coordinates": [
          23.6369188,
          37.9828337
        ]
      },
      "properties": {
        "type": "stop",
        "StopCode": "370141",
        "StopID": "370141",
        "StopDescr": "3η ΓΚΟΥΡΑ",
        "StopOrder": "6",
        "StopType": "0"
      }
    },
    {
      "type": "Feature",
      "geometry": {
        "type": "Point",
        "coordinates": [
          23.6388028,
          37.981794
        ]
      },
      "properties": {
        "type": "stop",
        "StopCode": "370156",
        "StopID": "370156",
        "StopDescr": "ΚΩΣΤΗΣ ΠΑΛΑΜΑΣ",
        "StopOrder": "7",
        "StopType": "0"
      }
    },
    {
      "type": "Feature",
      "geometry": {
        "type": "Point",
        "coordinates": [
          23.6376942,
          37.9803034
        ]
      },
      "properties": {
        "type": "stop",
        "StopCode": "370091",
        "StopID": "370091",
        "StopDescr": "ΣΑΓΙΟΝΑΡΑ",
        "StopOrder": "8",
        "StopType": "0"
      }
    },
    {
      "type": "Feature",
      "geometry": {
        "type": "Point",
        "coordinates": [
          23.6363587,
          37.978659
        ]
      },
      "properties": {
        "type": "stop",
        "StopCode": "370059",
        "StopID": "370059",
        "StopDescr": "ΣΠΑΘΑ",
        "StopOrder": "9",
        "StopType": "0"
      }
    },
    {
      "type": "Feature",
      "geometry": {
        "type": "Point",
        "coordinates": [
          23.6352678,
          37.978205
        ]
      },
      "properties": {
        "type": "stop",
        "StopCode": "370041",
        "StopID": "370041",
        "StopDescr": "ΓΗΠΕΔΟ",
        "StopOrder": "10",
        "StopType": "0"
      }
    },
    {
      "type": "Feature",
      "geometry": {
        "type": "Point",
        "coordinates": [
          23.6325473,
          37.9780343
        ]
      },
      "properties": {
        "type": "stop",
        "StopCode": "370042",
        "StopID": "370042",
        "StopDescr": "ΚΟΡΑΗ",
        "StopOrder": "11",
        "StopType": "0"
      }
    },
    {
      "type": "Feature",
      "geometry": {
        "type": "Point",
        "coordinates": [
          23.629735,
          37.9780074
        ]
      },
      "properties": {
        "type": "stop",
        "StopCode": "370043",
        "StopID": "370043",
        "StopDescr": "ΣΑΜΟΥ",
        "StopOrder": "12",
        "StopType": "0"
      }
    },
    {
      "type": "Feature",
      "geometry": {
        "type": "Point",
        "coordinates": [
          23.6270327,
          37.9765118
        ]
      },
      "properties": {
        "type": "stop",
        "StopCode": "260001",
        "StopID": "260001",
        "StopDescr": "ΑΓ. ΑΝΤΩΝΙΟΣ",
        "StopOrder": "13",
        "StopType": "0"
      }
    },
    {
      "type": "Feature",
      "geometry": {
        "type": "Point",
        "coordinates": [
          23.6246072,
          37.9743229
        ]
      },
      "properties": {
        "type": "stop",
        "StopCode": "260002",
        "StopID": "260002",
        "StopDescr": "ΣΧΟΛΕΙΑ",
        "StopOrder": "14",
        "StopType": "0"
      }
    },
    {
      "type": "Feature",
      "geometry": {
        "type": "Point",
        "coordinates": [
          23.6219099,
          37.9718808
        ]
      },
      "properties": {
        "type": "stop",
        "StopCode": "260003",
        "StopID": "260003",
        "StopDescr": "ΜΑΚΡΥΓΙΑΝΝΗ",
        "StopOrder": "15",
        "StopType": "0"
      }
    },
    {
      "type": "Feature",
      "geometry": {
        "type": "Point",
        "coordinates": [
          23.6195074,
          37.96971
        ]
      },
      "properties": {
        "type": "stop",
        "StopCode": "260004",
        "StopID": "260004",
        "StopDescr": "ΠΑΙΔΙΚΗ ΣΤΕΓΗ",
        "StopOrder": "16",
        "StopType": "0"
      }
    },
    {
      "type": "Feature",
      "geometry": {
        "type": "Point",
        "coordinates": [
          23.6177058,
          37.9680368
        ]
      },
      "properties": {
        "type": "stop",
        "StopCode": "260005",
        "StopID": "260005",
        "StopDescr": "ΣΤΡΟΦΗ ΑΜΦΙΑΛΗΣ",
        "StopOrder": "17",
        "StopType": "0"
      }
    },
    {
      "type": "Feature",
      "geometry": {
        "type": "Point",
        "coordinates": [
          23.6161531,
          37.9666888
        ]
      },
      "properties": {
        "type": "stop",
        "StopCode": "260006",
        "StopID": "260006",
        "StopDescr": "ΑΣΤΡΟ",
        "StopOrder": "18",
        "StopType": "0"
      }
    },
    {
      "type": "Feature",
      "geometry": {
        "type": "Point",
        "coordinates": [
          23.6167836,
          37.9636716
        ]
      },
      "properties": {
        "type": "stop",
        "StopCode": "260142",
        "StopID": "260142",
        "StopDescr": "ΔΑΓΚΛΗ",
        "StopOrder": "19",
        "StopType": "0"
      }
    },
    {
      "type": "Feature",
      "geometry": {
        "type": "Point",
        "coordinates": [
          23.6189567,
          37.963922
        ]
      },
      "properties": {
        "type": "stop",
        "StopCode": "260033",
        "StopID": "260033",
        "StopDescr": "ΑΣΤΡΟΝ",
        "StopOrder": "20",
        "StopType": "0"
      }
    },
    {
      "type": "Feature",
      "geometry": {
        "type": "Point",
        "coordinates": [
          23.622256,
          37.9643202
        ]
      },
      "properties": {
        "type": "stop",
        "StopCode": "260034",
        "StopID": "260034",
        "StopDescr": "ΣΤΡΟΦΗ ΑΜΦΙΑΛΗΣ",
        "StopOrder": "21",
        "StopType": "0"
      }
    },
    {
      "type": "Feature",
      "geometry": {
        "type": "Point",
        "coordinates": [
          23.6247946,
          37.9643373
        ]
      },
      "properties": {
        "type": "stop",
        "StopCode": "260164",
        "StopID": "260164",
        "StopDescr": "ΣΟΛΩΜΟΥ",
        "StopOrder": "22",
        "StopType": "0"
      }
    },
    {
      "type": "Feature",
      "geometry": {
        "type": "Point",
        "coordinates": [
          23.6261414,
          37.9636656
        ]
      },
      "properties": {
        "type": "stop",
        "StopCode": "260171",
        "StopID": "260171",
        "StopDescr": "ΣΧΟΛΕΙΟ",
        "StopOrder": "23",
        "StopType": "0"
      }
    },
    {
      "type": "Feature",
      "geometry": {
        "type": "Point",
        "coordinates": [
          23.6263659,
          37.9597908
        ]
      },
      "properties": {
        "type": "stop",
        "StopCode": "260135",
        "StopID": "260135",
        "StopDescr": "ΠΛ. ΚΥΠΡΟΥ",
        "StopOrder": "24",
        "StopType": "0"
      }
    },
    {
      "type": "Feature",
      "geometry": {
        "type": "Point",
        "coordinates": [
          23.6262547,
          37.9570325
        ]
      },
      "properties": {
        "type": "stop",
        "StopCode": "260173",
        "StopID": "260173",
        "StopDescr": "ΜΑΔΥΤΟΥ",
        "StopOrder": "25",
        "StopType": "0"
      }
    },
    {
      "type": "Feature",
      "geometry": {
        "type": "Point",
        "coordinates": [
          23.6262559,
          37.954554
        ]
      },
      "properties": {
        "type": "stop",
        "StopCode": "260174",
        "StopID": "260174",
        "StopDescr": "ΙΜΒΡΟΥ",
        "StopOrder": "26",
        "StopType": "0"
      }
    },
    {
      "type": "Feature",
      "geometry": {
        "type": "Point",
        "coordinates": [
          23.616681,
          37.956005
        ]
      },
      "properties": {
        "type": "stop",
        "StopCode": "10473",
        "StopID": "000221",
        "StopDescr": "ΧΑΡΑΥΓΗ",
        "StopOrder": "27",
        "StopType": "0"
      }
    }
  ]
}