{
  "type": "FeatureCollection",
  "features": [
    {
      "type": "Feature",
      "properties": {
        "type": "route_path",
        "route_code": "3631",
        "descr": "ΝΙΚΑΙΑ - ΣΤ.ΜΕΤΡΟ ΑΙΓΑΛΕΩ - ΑΤΤΙΚΟ ΝΟΣΟΚΟΜΕΙΟ [ΕΝΑΛΛΑΚΤΙΚΗ ΚΑΘΕ ΣΑΒΒΑΤΟ ΛΟΓΩ ΛΑΪΚΗΣ 05:00-17:00]"
      },
      "geometry": {
        "type": "LineString",
        "coordinates": [
          [
            23.63511,
            37.97109
          ],
          [
            23.63502,
            37.96923
          ],
          [
            23.63439,
            37.96837
          ],
          [
            23.63417,
            37.96812
          ],
          [
            23.63419,
            37.96791
          ],
          [
            23.63445,
            37.96764
          ],
          [
            23.63458,
            37.96747
          ],
          [
            23.63513,
            37.9678
          ],
          [
            23.63547,
            37.96795
          ],
          [
            23.63641,
            37.96808
          ],
          [
            23.63733,
            37.96798
          ],
          [
            23.63757,
            37.96784
          ],
          [
            23.6374,
            37.96732
          ],
          [
            23.63782,
            37.96651
          ],
          [
            23.63819,
            37.96582
          ],
          [
            23.64664,
            37.96852
          ],
          [
            23.64527,
            37.97118
          ],
          [
            23.64268,
            37.97596
          ],
          [
            23.64211,
            37.97583
          ],
          [
            23.64176,
            37.97614
          ],
          [
            23.64127,
            37.9762
          ],
          [
            23.64046,
            37.9789
          ],
          [
            23.64657,
            37.98006
          ],
          [
            23.64679,
            37.98003
          ],
          [
            23.64887,
            37.97855
          ],
          [
            23.64908,
            37.978
          ],
          [
            23.64979,
            37.97754
          ],
          [
            23.6499,
            37.97657
          ],
          [
            23.65102,
            37.97667
          ],
          [
            23.65101,
            37.97712
          ],
          [
            23.65164,
            37.97721
          ],
          [
            23.65567,
            37.98077
          ],
          [
            23.65586,
            37.98103
          ],
          [
            23.65612,
            37.98173
          ],
          [
            23.65851,
            37.98581
          ],
          [
            23.65881,
            37.98614
          ],
          [
            23.66048,
            37.98568
          ],
          [
            23.66126,
            37.98688
          ],
          [
            23.66264,
            37.98625
          ],
          [
            23.663,
            37.98613
          ],
          [
            23.66888,
            37.98873
          ],
          [
            23.66917,
            37.98874
          ],
          [
            23.67405,
            37.98737
          ],
          [
            23.67495,
            37.98705
          ],
          [
            23.67488,
            37.9869
          ],
          [
            23.67552,
            37.98667
          ],
          [
            23.67721,
            37.98584
          ],
          [
            23.67872,
            37.98527
          ],
          [
            23.67966,
            37.98679
          ],
          [
            23.68142,
            37.99161
          ],
          [
            23.67823,
            37.99244
          ],
          [
            23.67829,
            37.9926
          ],
          [
            23.68522,
            38.00115
          ],
          [
            23.68531,
            38.00138
          ],
          [
            23.68524,
            38.00156
          ],
          [
            23.68477,
            38.00179
          ],
          [
            23.67945,
            38.00361
          ],
          [
            23.6786,
            38.00402
          ],
          [
            23.66717,
            38.01167
          ],
          [
            23.66508,
            38.01255
          ],
          [
            23.66407,
            38.01274
          ],
          [
            23.66264,
            38.0127
          ],
          [
            23.66236,
            38.01302
          ],
          [
            23.6618,
            38.01338
          ],
          [
            23.66162,
            38.01368
          ],
          [
            23.66163,
            38.01483
          ],
          [
            23.6618,
            38.01484
          ],
          [
            23.66197,
            38.01505
          ],
          [
            23.66212,
            38.01545
          ],
          [
            23.66227,
            38.01558
          ],
          [
            23.66316,
            38.01591
          ],
          [
            23.66406,
            38.01566
          ],
          [
            23.66568,
            38.01555
          ]
        ]
      }
    },
    {
      "type": "Feature",
      "properties": {
        "type": "stop",
        "stop_code": "10276",
        "stop_id": "75",
        "name": "ΝΙΚΑΙΑ",
        "order": "1"
      },
      "geometry": {
        "type": "Point",
        "coordinates": [
          23.6341555,
          37.9704115
        ]
      }
    },
    {
      "type": "Feature",
      "properties": {
        "type": "stop",
        "stop_code": "370067",
        "stop_id": "370067",
        "name": "ΚΑΤΡΑΚΕΙΟ",
        "order": "2"
      },
      "geometry": {
        "type": "Point",
        "coordinates": [
          23.63416,
          37.9678726
        ]
      }
    },
    {
      "type": "Feature",
      "properties": {
        "type": "stop",
        "stop_code": "370074",
        "stop_id": "370074",
        "name": "ΗΦΑΙΣΤΟΥ",
        "order": "3"
      },
      "geometry": {
        "type": "Point",
        "coordinates": [
          23.6369301,
          37.9679556
        ]
      }
    },
    {
      "type": "Feature",
      "properties": {
        "type": "stop",
        "stop_code": "370112",
        "stop_id": "370112",
        "name": "ΦΡΥΓΙΑΣ",
        "order": "4"
      },
      "geometry": {
        "type": "Point",
        "coordinates": [
          23.6379801,
          37.9661451
        ]
      }
    },
    {
      "type": "Feature",
      "properties": {
        "type": "stop",
        "stop_code": "370018",
        "stop_id": "370018",
        "name": "ΝΙΚΟΜΗΔΕΙΑΣ",
        "order": "5"
      },
      "geometry": {
        "type": "Point",
        "coordinates": [
          23.6413698,
          37.9667323
        ]
      }
    },
    {
      "type": "Feature",
      "properties": {
        "type": "stop",
        "stop_code": "370019",
        "stop_id": "370019",
        "name": "ΟΑΕΔ",
        "order": "6"
      },
      "geometry": {
        "type": "Point",
        "coordinates": [
          23.6426313,
          37.9671868
        ]
      }
    },
    {
      "type": "Feature",
      "properties": {
        "type": "stop",
        "stop_code": "370020",
        "stop_id": "370020",
        "name": "ΕΜΠΟΡΙΚΟ ΚΕΝΤΡΟ ΝΙΚΑΙΑΣ",
        "order": "7"
      },
      "geometry": {
        "type": "Point",
        "coordinates": [
          23.6459051,
          37.9682332
        ]
      }
    },
    {
      "type": "Feature",
      "properties": {
        "type": "stop",
        "stop_code": "370053",
        "stop_id": "370053",
        "name": "ΑΓ. ΓΕΩΡΓΙΟΣ",
        "order": "8"
      },
      "geometry": {
        "type": "Point",
        "coordinates": [
          23.6454582,
          37.9711971
        ]
      }
    },
    {
      "type": "Feature",
      "properties": {
        "type": "stop",
        "stop_code": "370054",
        "stop_id": "370054",
        "name": "ΦΙΛΑΔΕΛΦΕΙΑΣ",
        "order": "9"
      },
      "geometry": {
        "type": "Point",
        "coordinates": [
          23.644034,
          37.9737705
        ]
      }
    },
    {
      "type": "Feature",
      "properties": {
        "type": "stop",
        "stop_code": "370178",
        "stop_id": "370178",
        "name": "ΠΛ. ΚΡΗΝΗΣ",
        "order": "10"
      },
      "geometry": {
        "type": "Point",
        "coordinates": [
          23.6415565,
          37.9761957
        ]
      }
    },
    {
      "type": "Feature",
      "properties": {
        "type": "stop",
        "stop_code": "370046",
        "stop_id": "370046",
        "name": "ΣΤΡΟΦΗ ΚΟΡΥΔΑΛΛΟΥ",
        "order": "11"
      },
      "geometry": {
        "type": "Point",
        "coordinates": [
          23.6410416,
          37.9789578
        ]
      }
    },
    {
      "type": "Feature",
      "properties": {
        "type": "stop",
        "stop_code": "280020",
        "stop_id": "280020",
        "name": "ΡΙΟ",
        "order": "12"
      },
      "geometry": {
        "type": "Point",
        "coordinates": [
          23.6438021,
          37.9793577
        ]
      }
    },
    {
      "type": "Feature",
      "properties": {
        "type": "stop",
        "stop_code": "280074",
        "stop_id": "280074",
        "name": "ΠΑΠΑΚΥΡΙΑΖΗ",
        "order": "13"
      },
      "geometry": {
        "type": "Point",
        "coordinates": [
          23.6470751,
          37.9797159
        ]
      }
    },
    {
      "type": "Feature",
      "properties": {
        "type": "stop",
        "stop_code": "280075",
        "stop_id": "280075",
        "name": "ΤΣΑΛΔΑΡΗ",
        "order": "14"
      },
      "geometry": {
        "type": "Point",
        "coordinates": [
          23.6487375,
          37.9783
        ]
      }
    },
    {
      "type": "Feature",
      "properties": {
        "type": "stop",
        "stop_code": "280054",
        "stop_id": "280054",
        "name": "ΠΛ. ΕΛΕΥΘΕΡΙΑΣ",
        "order": "15"
      },
      "geometry": {
        "type": "Point",
        "coordinates": [
          23.6507491,
          37.9765557
        ]
      }
    },
    {
      "type": "Feature",
      "properties": {
        "type": "stop",
        "stop_code": "11530",
        "stop_id": "280078",
        "name": "ΣΤ. ΚΟΡΥΔΑΛΛΟΣ",
        "order": "16"
      },
      "geometry": {
        "type": "Point",
        "coordinates": [
          23.651228,
          37.977123
        ]
      }
    },
    {
      "type": "Feature",
      "properties": {
        "type": "stop",
        "stop_code": "280041",
        "stop_id": "280041",
        "name": "ΑΚΡΟΠΟΛ",
        "order": "17"
      },
      "geometry": {
        "type": "Point",
        "coordinates": [
          23.6525543,
          37.9777886
        ]
      }
    },
    {
      "type": "Feature",
      "properties": {
        "type": "stop",
        "stop_code": "280042",
        "stop_id": "280042",
        "name": "ΑΓ. ΑΡΤΕΜΙΟΣ",
        "order": "18"
      },
      "geometry": {
        "type": "Point",
        "coordinates": [
          23.6547427,
          37.9797599
        ]
      }
    },
    {
      "type": "Feature",
      "properties": {
        "type": "stop",
        "stop_code": "280043",
        "stop_id": "280043",
        "name": "ΤΑΞΙΑΡΧΗΣ",
        "order": "19"
      },
      "geometry": {
        "type": "Point",
        "coordinates": [
          23.6561839,
          37.9816805
        ]
      }
    },
    {
      "type": "Feature",
      "properties": {
        "type": "stop",
        "stop_code": "280072",
        "stop_id": "280072",
        "name": "ΑΓ. ΝΙΚΟΛΑΟΣ",
        "order": "20"
      },
      "geometry": {
        "type": "Point",
        "coordinates": [
          23.657356,
          37.9836279
        ]
      }
    },
    {
      "type": "Feature",
      "properties": {
        "type": "stop",
        "stop_code": "10078",
        "stop_id": "010078",
        "name": "ΠΑΡΚΟ ΕΛΕΝΗΣ ΦΩΚΑ",
        "order": "21"
      },
      "geometry": {
        "type": "Point",
        "coordinates": [
          23.6586546,
          37.9857648
        ]
      }
    },
    {
      "type": "Feature",
      "properties": {
        "type": "stop",
        "stop_code": "10086",
        "stop_id": "010086",
        "name": "ΑΦΕΤΗΡΙΑ",
        "order": "22"
      },
      "geometry": {
        "type": "Point",
        "coordinates": [
          23.6626046,
          37.9861007
        ]
      }
    },
    {
      "type": "Feature",
      "properties": {
        "type": "stop",
        "stop_code": "10047",
        "stop_id": "010047",
        "name": "ΜΑΡΙΝΟΥ ΑΝΤΥΠΑ",
        "order": "23"
      },
      "geometry": {
        "type": "Point",
        "coordinates": [
          23.6648935,
          37.9868101
        ]
      }
    },
    {
      "type": "Feature",
      "properties": {
        "type": "stop",
        "stop_code": "10053",
        "stop_id": "010053",
        "name": "ΑΠΟΣΤΟΛΟΥ ΠΑΥΛΟΥ",
        "order": "24"
      },
      "geometry": {
        "type": "Point",
        "coordinates": [
          23.6665729,
          37.9875341
        ]
      }
    },
    {
      "type": "Feature",
      "properties": {
        "type": "stop",
        "stop_code": "70101",
        "stop_id": "070101",
        "name": "ΠΑΛ. ΤΕΡΜΑ",
        "order": "25"
      },
      "geometry": {
        "type": "Point",
        "coordinates": [
          23.6687887,
          37.9884886
        ]
      }
    },
    {
      "type": "Feature",
      "properties": {
        "type": "stop",
        "stop_code": "70105",
        "stop_id": "070105",
        "name": "ΔΗΜΟΣΘΕΝΟΥΣ",
        "order": "26"
      },
      "geometry": {
        "type": "Point",
        "coordinates": [
          23.6713684,
          37.9880273
        ]
      }
    },
    {
      "type": "Feature",
      "properties": {
        "type": "stop",
        "stop_code": "70106",
        "stop_id": "070106",
        "name": "ΓΕΦΥΡΑΚΙ",
        "order": "27"
      },
      "geometry": {
        "type": "Point",
        "coordinates": [
          23.6739722,
          37.9873087
        ]
      }
    },
    {
      "type": "Feature",
      "properties": {
        "type": "stop",
        "stop_code": "70084",
        "stop_id": "070084",
        "name": "2η ΠΟΛΥΚΑΤΟΙΚΙΩΝ",
        "order": "28"
      },
      "geometry": {
        "type": "Point",
        "coordinates": [
          23.6770342,
          37.9857536
        ]
      }
    },
    {
      "type": "Feature",
      "properties": {
        "type": "stop",
        "stop_code": "70085",
        "stop_id": "070085",
        "name": "1η ΠΟΛΥΚΑΤΟΙΚΙΩΝ",
        "order": "29"
      },
      "geometry": {
        "type": "Point",
        "coordinates": [
          23.6784372,
          37.9852167
        ]
      }
    },
    {
      "type": "Feature",
      "properties": {
        "type": "stop",
        "stop_code": "70107",
        "stop_id": "070107",
        "name": "ΚΟΡΑΗ",
        "order": "30"
      },
      "geometry": {
        "type": "Point",
        "coordinates": [
          23.6797628,
          37.9867705
        ]
      }
    },
    {
      "type": "Feature",
      "properties": {
        "type": "stop",
        "stop_code": "70108",
        "stop_id": "070108",
        "name": "ΡΗΓΑ ΦΕΡΑΙΟΥ",
        "order": "31"
      },
      "geometry": {
        "type": "Point",
        "coordinates": [
          23.6806743,
          37.9892966
        ]
      }
    },
    {
      "type": "Feature",
      "properties": {
        "type": "stop",
        "stop_code": "70047",
        "stop_id": "070047",
        "name": "ΜΠΟΤΣΑΡΗ",
        "order": "32"
      },
      "geometry": {
        "type": "Point",
        "coordinates": [
          23.6813152,
          37.991191
        ]
      }
    },
    {
      "type": "Feature",
      "properties": {
        "type": "stop",
        "stop_code": "70004",
        "stop_id": "070004",
        "name": "ΓΕΩΡΓΙΟΣ ΖΑΜΠΕΤΑΣ",
        "order": "33"
      },
      "geometry": {
        "type": "Point",
        "coordinates": [
          23.6797156,
          37.9920798
        ]
      }
    },
    {
      "type": "Feature",
      "properties": {
        "type": "stop",
        "stop_code": "70040",
        "stop_id": "070040",
        "name": "ΘΕΟΔΩΡΟΣ ΠΟΛΥΚΑΝΔΡΙΩΤΗΣ",
        "order": "34"
      },
      "geometry": {
        "type": "Point",
        "coordinates": [
          23.6790961,
          37.9934292
        ]
      }
    },
    {
      "type": "Feature",
      "properties": {
        "type": "stop",
        "stop_code": "70041",
        "stop_id": "070041",
        "name": "ΓΥΜΝΑΣΙΟ",
        "order": "35"
      },
      "geometry": {
        "type": "Point",
        "coordinates": [
          23.6817245,
          37.9966269
        ]
      }
    },
    {
      "type": "Feature",
      "properties": {
        "type": "stop",
        "stop_code": "70042",
        "stop_id": "070042",
        "name": "ΑΓ. ΣΠΥΡΙΔΩΝΑΣ",
        "order": "36"
      },
      "geometry": {
        "type": "Point",
        "coordinates": [
          23.6840358,
          37.9994361
        ]
      }
    },
    {
      "type": "Feature",
      "properties": {
        "type": "stop",
        "stop_code": "420126",
        "stop_id": "420126",
        "name": "ΘΗΒΩΝ",
        "order": "37"
      },
      "geometry": {
        "type": "Point",
        "coordinates": [
          23.6846389,
          38.0019175
        ]
      }
    },
    {
      "type": "Feature",
      "properties": {
        "type": "stop",
        "stop_code": "420127",
        "stop_id": "420127",
        "name": "ΣΚΑΛΑΚΙΑ",
        "order": "38"
      },
      "geometry": {
        "type": "Point",
        "coordinates": [
          23.6810274,
          38.0031103
        ]
      }
    },
    {
      "type": "Feature",
      "properties": {
        "type": "stop",
        "stop_code": "420128",
        "stop_id": "420128",
        "name": "ΠΑΝ/ΜΙΟ ΔΥΤΙΚΗΣ ΑΤΤΙΚΗΣ - ΠΑΝ/ΠΟΛΗ ΑΛΣΟΥΣ ΑΙΓΑΛΕΩ",
        "order": "39"
      },
      "geometry": {
        "type": "Point",
        "coordinates": [
          23.6769715,
          38.0052482
        ]
      }
    },
    {
      "type": "Feature",
      "properties": {
        "type": "stop",
        "stop_code": "420129",
        "stop_id": "420129",
        "name": "ΠΗΓΑΔΑΚΙ",
        "order": "40"
      },
      "geometry": {
        "type": "Point",
        "coordinates": [
          23.6750131,
          38.0065177
        ]
      }
    },
    {
      "type": "Feature",
      "properties": {
        "type": "stop",
        "stop_code": "470001",
        "stop_id": "470001",
        "name": "ΚΑΜΠΙΝΓΚ",
        "order": "41"
      },
      "geometry": {
        "type": "Point",
        "coordinates": [
          23.6713787,
          38.0089449
        ]
      }
    },
    {
      "type": "Feature",
      "properties": {
        "type": "stop",
        "stop_code": "470002",
        "stop_id": "470002",
        "name": "ΕΛΑΙΩΝ",
        "order": "42"
      },
      "geometry": {
        "type": "Point",
        "coordinates": [
          23.6694547,
          38.0102251
        ]
      }
    },
    {
      "type": "Feature",
      "properties": {
        "type": "stop",
        "stop_code": "470004",
        "stop_id": "470004",
        "name": "ΠΑΛΑΤΑΚΙ",
        "order": "43"
      },
      "geometry": {
        "type": "Point",
        "coordinates": [
          23.6657077,
          38.012454
        ]
      }
    },
    {
      "type": "Feature",
      "properties": {
        "type": "stop",
        "stop_code": "470005",
        "stop_id": "470005",
        "name": "ΚΕΔ",
        "order": "44"
      },
      "geometry": {
        "type": "Point",
        "coordinates": [
          23.663029,
          38.0128069
        ]
      }
    },
    {
      "type": "Feature",
      "properties": {
        "type": "stop",
        "stop_code": "470003",
        "stop_id": "470003",
        "name": "ΚΕΔΒ",
        "order": "45"
      },
      "geometry": {
        "type": "Point",
        "coordinates": [
          23.6621004,
          38.0151768
        ]
      }
    },
    {
      "type": "Feature",
      "properties": {
        "type": "stop",
        "stop_code": "10275",
        "stop_id": "74",
        "name": "ΑΤΤΙΚΟ ΝΟΣΟΚΟΜΕΙΟ",
        "order": "46"
      },
      "geometry": {
        "type": "Point",
        "coordinates": [
          23.6650165,
          38.0156825
        ]
      }
    }
  ]
}