{
  "type": "FeatureCollection",
  "features": [
    {
      "type": "Feature",
      "properties": {
        "type": "route_path",
        "route_code": "2427",
        "descr": "ΣΤ.ΔΟΥΚ.ΠΛΑΚΕΝΤΙΑΣ-ΔΗΜ.ΓΕΡΑΚΑ- ΜΠΑΛΑΝΑ ΓΕΡΑΚΑ"
      },
      "geometry": {
        "type": "LineString",
        "coordinates": [
          [
            23.83406,
            38.02411
          ],
          [
            23.83366,
            38.02391
          ],
          [
            23.83347,
            38.02363
          ],
          [
            23.83338,
            38.02349
          ],
          [
            23.83327,
            38.02327
          ],
          [
            23.83339,
            38.02313
          ],
          [
            23.83581,
            38.0209
          ],
          [
            23.83657,
            38.02034
          ],
          [
            23.83675,
            38.02031
          ],
          [
            23.83698,
            38.02039
          ],
          [
            23.83707,
            38.02057
          ],
          [
            23.83657,
            38.02135
          ],
          [
            23.83705,
            38.02206
          ],
          [
            23.83794,
            38.02323
          ],
          [
            23.8385,
            38.02466
          ],
          [
            23.84011,
            38.02501
          ],
          [
            23.84147,
            38.02548
          ],
          [
            23.84233,
            38.02581
          ],
          [
            23.84288,
            38.02659
          ],
          [
            23.84476,
            38.02556
          ],
          [
            23.84616,
            38.02533
          ],
          [
            23.84858,
            38.02502
          ],
          [
            23.84931,
            38.02481
          ],
          [
            23.84986,
            38.02563
          ],
          [
            23.85025,
            38.02617
          ],
          [
            23.85504,
            38.02464
          ],
          [
            23.85545,
            38.02462
          ],
          [
            23.85568,
            38.02359
          ],
          [
            23.85536,
            38.02135
          ],
          [
            23.84799,
            38.02238
          ],
          [
            23.84624,
            38.02005
          ],
          [
            23.84584,
            38.01881
          ],
          [
            23.84551,
            38.01824
          ],
          [
            23.84637,
            38.01792
          ],
          [
            23.85012,
            38.01756
          ],
          [
            23.85005,
            38.01637
          ],
          [
            23.8497,
            38.01469
          ],
          [
            23.8494,
            38.01298
          ],
          [
            23.84909,
            38.01213
          ],
          [
            23.85135,
            38.0119
          ],
          [
            23.85439,
            38.01178
          ],
          [
            23.8559,
            38.01172
          ],
          [
            23.85772,
            38.01193
          ],
          [
            23.85801,
            38.01191
          ],
          [
            23.85919,
            38.01173
          ],
          [
            23.86115,
            38.01137
          ],
          [
            23.86104,
            38.00972
          ],
          [
            23.86055,
            38.00726
          ],
          [
            23.85856,
            38.00754
          ],
          [
            23.85805,
            38.00574
          ],
          [
            23.85789,
            38.00493
          ],
          [
            23.85782,
            38.00403
          ],
          [
            23.8579,
            38.00298
          ],
          [
            23.858,
            38.00116
          ],
          [
            23.8583,
            38.00016
          ],
          [
            23.85773,
            38.00022
          ],
          [
            23.85523,
            38.00051
          ],
          [
            23.855,
            37.99944
          ],
          [
            23.85513,
            37.99786
          ],
          [
            23.85751,
            37.99751
          ],
          [
            23.85836,
            37.999
          ],
          [
            23.8585,
            37.99968
          ],
          [
            23.85805,
            38.00133
          ],
          [
            23.85791,
            38.00394
          ],
          [
            23.8581,
            38.00565
          ],
          [
            23.85862,
            38.00745
          ],
          [
            23.86062,
            38.00714
          ],
          [
            23.86108,
            38.00953
          ],
          [
            23.86123,
            38.0114
          ],
          [
            23.85878,
            38.01186
          ],
          [
            23.85777,
            38.01199
          ],
          [
            23.85605,
            38.0118
          ],
          [
            23.85239,
            38.01192
          ],
          [
            23.85143,
            38.01195
          ],
          [
            23.84922,
            38.0122
          ],
          [
            23.84942,
            38.01283
          ],
          [
            23.85016,
            38.01652
          ],
          [
            23.85019,
            38.0178
          ],
          [
            23.85008,
            38.02068
          ],
          [
            23.85053,
            38.02076
          ],
          [
            23.85321,
            38.01493
          ],
          [
            23.8552,
            38.01478
          ],
          [
            23.85425,
            38.01616
          ],
          [
            23.8541,
            38.01699
          ],
          [
            23.85455,
            38.0186
          ],
          [
            23.85533,
            38.0211
          ],
          [
            23.85545,
            38.02158
          ],
          [
            23.85573,
            38.0232
          ],
          [
            23.85579,
            38.02368
          ],
          [
            23.85554,
            38.0248
          ],
          [
            23.8551,
            38.02469
          ],
          [
            23.85459,
            38.02483
          ],
          [
            23.85367,
            38.02515
          ],
          [
            23.85087,
            38.02606
          ],
          [
            23.84781,
            38.02701
          ],
          [
            23.84433,
            38.02902
          ],
          [
            23.84324,
            38.02721
          ],
          [
            23.84226,
            38.02591
          ],
          [
            23.84012,
            38.02516
          ],
          [
            23.83848,
            38.02484
          ],
          [
            23.83782,
            38.02317
          ],
          [
            23.83672,
            38.02171
          ],
          [
            23.83635,
            38.02115
          ],
          [
            23.83598,
            38.02087
          ],
          [
            23.83456,
            38.02219
          ],
          [
            23.83431,
            38.02245
          ],
          [
            23.83372,
            38.02334
          ],
          [
            23.83394,
            38.02359
          ],
          [
            23.83379,
            38.02381
          ]
        ]
      }
    },
    {
      "type": "Feature",
      "properties": {
        "type": "stop",
        "stop_code": "10363",
        "stop_id": "000158",
        "name": "ΣΤ. ΔΟΥΚ. ΠΛΑΚΕΝΤΙΑΣ",
        "order": "1"
      },
      "geometry": {
        "type": "Point",
        "coordinates": [
          23.834092,
          38.0237855
        ]
      }
    },
    {
      "type": "Feature",
      "properties": {
        "type": "stop",
        "stop_code": "30114",
        "stop_id": "030114",
        "name": "ΠΑΠΑΡΗΓΟΠΟΥΛΟΥ",
        "order": "2"
      },
      "geometry": {
        "type": "Point",
        "coordinates": [
          23.8352211,
          38.0213716
        ]
      }
    },
    {
      "type": "Feature",
      "properties": {
        "type": "stop",
        "stop_code": "480120",
        "stop_id": "480120",
        "name": "ΕΘΝΟΣ",
        "order": "3"
      },
      "geometry": {
        "type": "Point",
        "coordinates": [
          23.8376089,
          38.022623
        ]
      }
    },
    {
      "type": "Feature",
      "properties": {
        "type": "stop",
        "stop_code": "11074",
        "stop_id": "481207",
        "name": "ΠΡΩΤΕΩΣ",
        "order": "4"
      },
      "geometry": {
        "type": "Point",
        "coordinates": [
          23.838978,
          38.02473
        ]
      }
    },
    {
      "type": "Feature",
      "properties": {
        "type": "stop",
        "stop_code": "480058",
        "stop_id": "480058",
        "name": "ΙΠΠΟΚΡΑΤΟΥΣ",
        "order": "5"
      },
      "geometry": {
        "type": "Point",
        "coordinates": [
          23.8421696,
          38.0256546
        ]
      }
    },
    {
      "type": "Feature",
      "properties": {
        "type": "stop",
        "stop_code": "800007",
        "stop_id": "800007",
        "name": "ΗΡΑΣ",
        "order": "6"
      },
      "geometry": {
        "type": "Point",
        "coordinates": [
          23.844899,
          38.0254678
        ]
      }
    },
    {
      "type": "Feature",
      "properties": {
        "type": "stop",
        "stop_code": "800038",
        "stop_id": "800038",
        "name": "ΑΡΕΩΣ",
        "order": "7"
      },
      "geometry": {
        "type": "Point",
        "coordinates": [
          23.8483252,
          38.0249716
        ]
      }
    },
    {
      "type": "Feature",
      "properties": {
        "type": "stop",
        "stop_code": "800040",
        "stop_id": "800040",
        "name": "ΦΙΛΙΠΠΟΥ",
        "order": "8"
      },
      "geometry": {
        "type": "Point",
        "coordinates": [
          23.8506703,
          38.025957
        ]
      }
    },
    {
      "type": "Feature",
      "properties": {
        "type": "stop",
        "stop_code": "800088",
        "stop_id": "800088",
        "name": "ΑΡΙΣΤΟΓΕΙΤΟΝΟΣ",
        "order": "9"
      },
      "geometry": {
        "type": "Point",
        "coordinates": [
          23.8538741,
          38.0248885
        ]
      }
    },
    {
      "type": "Feature",
      "properties": {
        "type": "stop",
        "stop_code": "800053",
        "stop_id": "800053",
        "name": "ΚΟΛΥΜΒΗΤΗΡΙΟ",
        "order": "10"
      },
      "geometry": {
        "type": "Point",
        "coordinates": [
          23.8554953,
          38.0232231
        ]
      }
    },
    {
      "type": "Feature",
      "properties": {
        "type": "stop",
        "stop_code": "10768",
        "stop_id": "800232",
        "name": "ΠΕΡΙΚΛΕΟΥΣ",
        "order": "11"
      },
      "geometry": {
        "type": "Point",
        "coordinates": [
          23.8531416,
          38.0217801
        ]
      }
    },
    {
      "type": "Feature",
      "properties": {
        "type": "stop",
        "stop_code": "30094",
        "stop_id": "030094",
        "name": "3η ΓΑΡΓΗΤΤΟΥ",
        "order": "12"
      },
      "geometry": {
        "type": "Point",
        "coordinates": [
          23.8472952,
          38.0216626
        ]
      }
    },
    {
      "type": "Feature",
      "properties": {
        "type": "stop",
        "stop_code": "30095",
        "stop_id": "030095",
        "name": "2η ΓΑΡΓΗΤΤΟΥ",
        "order": "13"
      },
      "geometry": {
        "type": "Point",
        "coordinates": [
          23.8460462,
          38.0198139
        ]
      }
    },
    {
      "type": "Feature",
      "properties": {
        "type": "stop",
        "stop_code": "800079",
        "stop_id": "800079",
        "name": "ΚΑΛΑΒΡΥΤΩΝ",
        "order": "14"
      },
      "geometry": {
        "type": "Point",
        "coordinates": [
          23.8480212,
          38.0176798
        ]
      }
    },
    {
      "type": "Feature",
      "properties": {
        "type": "stop",
        "stop_code": "800080",
        "stop_id": "800080",
        "name": "ΝΗΠΙΑΓΩΓΕΙΟ",
        "order": "15"
      },
      "geometry": {
        "type": "Point",
        "coordinates": [
          23.8500053,
          38.0168172
        ]
      }
    },
    {
      "type": "Feature",
      "properties": {
        "type": "stop",
        "stop_code": "800081",
        "stop_id": "800081",
        "name": "ΘΕΟΛΟΓΟΥ",
        "order": "16"
      },
      "geometry": {
        "type": "Point",
        "coordinates": [
          23.8492275,
          38.0127784
        ]
      }
    },
    {
      "type": "Feature",
      "properties": {
        "type": "stop",
        "stop_code": "800082",
        "stop_id": "800082",
        "name": "ΜΙΑΟΥΛΗ",
        "order": "17"
      },
      "geometry": {
        "type": "Point",
        "coordinates": [
          23.8511888,
          38.0118165
        ]
      }
    },
    {
      "type": "Feature",
      "properties": {
        "type": "stop",
        "stop_code": "800211",
        "stop_id": "800211",
        "name": "ΚΟΙΜ. ΘΕΟΤΟΚΟΥ",
        "order": "18"
      },
      "geometry": {
        "type": "Point",
        "coordinates": [
          23.8541622,
          38.0117391
        ]
      }
    },
    {
      "type": "Feature",
      "properties": {
        "type": "stop",
        "stop_code": "10822",
        "stop_id": "800237",
        "name": "ΑΙΤΩΛΙΑΣ",
        "order": "19"
      },
      "geometry": {
        "type": "Point",
        "coordinates": [
          23.8590725,
          38.0117094
        ]
      }
    },
    {
      "type": "Feature",
      "properties": {
        "type": "stop",
        "stop_code": "800095",
        "stop_id": "800095",
        "name": "ΕΒΡΟΥ",
        "order": "20"
      },
      "geometry": {
        "type": "Point",
        "coordinates": [
          23.8608269,
          38.0113957
        ]
      }
    },
    {
      "type": "Feature",
      "properties": {
        "type": "stop",
        "stop_code": "800201",
        "stop_id": "800201",
        "name": "ΜΑΡΑΘΩΝΟΣ",
        "order": "21"
      },
      "geometry": {
        "type": "Point",
        "coordinates": [
          23.8604357,
          38.0074657
        ]
      }
    },
    {
      "type": "Feature",
      "properties": {
        "type": "stop",
        "stop_code": "800100",
        "stop_id": "800100",
        "name": "1η ΚΑΖΑΝΤΖΑΚΗ",
        "order": "22"
      },
      "geometry": {
        "type": "Point",
        "coordinates": [
          23.8582927,
          38.0067264
        ]
      }
    },
    {
      "type": "Feature",
      "properties": {
        "type": "stop",
        "stop_code": "800107",
        "stop_id": "800107",
        "name": "2η ΚΑΖΑΝΤΖΑΚΗ",
        "order": "23"
      },
      "geometry": {
        "type": "Point",
        "coordinates": [
          23.8578677,
          38.0028653
        ]
      }
    },
    {
      "type": "Feature",
      "properties": {
        "type": "stop",
        "stop_code": "800101",
        "stop_id": "800101",
        "name": "3η ΚΑΖΑΝΤΖΑΚΗ",
        "order": "24"
      },
      "geometry": {
        "type": "Point",
        "coordinates": [
          23.8580638,
          38.0006967
        ]
      }
    },
    {
      "type": "Feature",
      "properties": {
        "type": "stop",
        "stop_code": "10793",
        "stop_id": "800231",
        "name": "ΤΕΡΜΑ 306",
        "order": "25"
      },
      "geometry": {
        "type": "Point",
        "coordinates": [
          23.8554892,
          38.0005466
        ]
      }
    },
    {
      "type": "Feature",
      "properties": {
        "type": "stop",
        "stop_code": "800206",
        "stop_id": "800206",
        "name": "ΨΥΧΑΡΗ",
        "order": "26"
      },
      "geometry": {
        "type": "Point",
        "coordinates": [
          23.8579822,
          37.9981796
        ]
      }
    },
    {
      "type": "Feature",
      "properties": {
        "type": "stop",
        "stop_code": "800103",
        "stop_id": "800103",
        "name": "3η ΚΑΖΑΝΤΖΑΚΗ",
        "order": "27"
      },
      "geometry": {
        "type": "Point",
        "coordinates": [
          23.8586398,
          37.9995142
        ]
      }
    },
    {
      "type": "Feature",
      "properties": {
        "type": "stop",
        "stop_code": "800104",
        "stop_id": "800104",
        "name": "2η ΚΑΖΑΝΤΖΑΚΗ",
        "order": "28"
      },
      "geometry": {
        "type": "Point",
        "coordinates": [
          23.8581112,
          38.001929
        ]
      }
    },
    {
      "type": "Feature",
      "properties": {
        "type": "stop",
        "stop_code": "800108",
        "stop_id": "800108",
        "name": "1η ΚΑΖΑΝΤΖΑΚΗ",
        "order": "29"
      },
      "geometry": {
        "type": "Point",
        "coordinates": [
          23.8583873,
          38.0064087
        ]
      }
    },
    {
      "type": "Feature",
      "properties": {
        "type": "stop",
        "stop_code": "800105",
        "stop_id": "800105",
        "name": "ΜΑΡΑΘΩΝΟΣ",
        "order": "30"
      },
      "geometry": {
        "type": "Point",
        "coordinates": [
          23.8609239,
          38.0083134
        ]
      }
    },
    {
      "type": "Feature",
      "properties": {
        "type": "stop",
        "stop_code": "800106",
        "stop_id": "800106",
        "name": "ΕΒΡΟΥ",
        "order": "31"
      },
      "geometry": {
        "type": "Point",
        "coordinates": [
          23.8613397,
          38.0113423
        ]
      }
    },
    {
      "type": "Feature",
      "properties": {
        "type": "stop",
        "stop_code": "800212",
        "stop_id": "800212",
        "name": "ΑΙΤΩΛΙΑΣ",
        "order": "32"
      },
      "geometry": {
        "type": "Point",
        "coordinates": [
          23.8587907,
          38.0119877
        ]
      }
    },
    {
      "type": "Feature",
      "properties": {
        "type": "stop",
        "stop_code": "800213",
        "stop_id": "800213",
        "name": "ΣΥΡΟΥ",
        "order": "33"
      },
      "geometry": {
        "type": "Point",
        "coordinates": [
          23.8554605,
          38.011912
        ]
      }
    },
    {
      "type": "Feature",
      "properties": {
        "type": "stop",
        "stop_code": "800214",
        "stop_id": "800214",
        "name": "ΝΙΚΗΤΑΡΑ",
        "order": "34"
      },
      "geometry": {
        "type": "Point",
        "coordinates": [
          23.8528002,
          38.0119276
        ]
      }
    },
    {
      "type": "Feature",
      "properties": {
        "type": "stop",
        "stop_code": "10770",
        "stop_id": "800235",
        "name": "ΚΑΤΣΑΝΤΩΝΗ",
        "order": "35"
      },
      "geometry": {
        "type": "Point",
        "coordinates": [
          23.8494174,
          38.0122111
        ]
      }
    },
    {
      "type": "Feature",
      "properties": {
        "type": "stop",
        "stop_code": "10771",
        "stop_id": "800233",
        "name": "ΝΗΠΙΑΓΩΓΕΙΟ",
        "order": "36"
      },
      "geometry": {
        "type": "Point",
        "coordinates": [
          23.8502361,
          38.0170894
        ]
      }
    },
    {
      "type": "Feature",
      "properties": {
        "type": "stop",
        "stop_code": "10773",
        "stop_id": "800234",
        "name": "ΑΙΣΧΥΛΟΥ",
        "order": "37"
      },
      "geometry": {
        "type": "Point",
        "coordinates": [
          23.850185,
          38.018693
        ]
      }
    },
    {
      "type": "Feature",
      "properties": {
        "type": "stop",
        "stop_code": "10507",
        "stop_id": "800045",
        "name": "ΚΥΚΛΑΔΩΝ",
        "order": "38"
      },
      "geometry": {
        "type": "Point",
        "coordinates": [
          23.8506064,
          38.0205202
        ]
      }
    },
    {
      "type": "Feature",
      "properties": {
        "type": "stop",
        "stop_code": "800047",
        "stop_id": "800047",
        "name": "ΚΕΦΑΛΛΗΝΙΑΣ",
        "order": "39"
      },
      "geometry": {
        "type": "Point",
        "coordinates": [
          23.8518811,
          38.0177664
        ]
      }
    },
    {
      "type": "Feature",
      "properties": {
        "type": "stop",
        "stop_code": "800084",
        "stop_id": "800084",
        "name": "ΧΙΟΥ",
        "order": "40"
      },
      "geometry": {
        "type": "Point",
        "coordinates": [
          23.8528642,
          38.0154447
        ]
      }
    },
    {
      "type": "Feature",
      "properties": {
        "type": "stop",
        "stop_code": "800064",
        "stop_id": "800064",
        "name": "ΚΑΛΥΜΝΟΥ",
        "order": "41"
      },
      "geometry": {
        "type": "Point",
        "coordinates": [
          23.8543055,
          38.017449
        ]
      }
    },
    {
      "type": "Feature",
      "properties": {
        "type": "stop",
        "stop_code": "800066",
        "stop_id": "800066",
        "name": "ΕΘΝ. ΤΡΑΠΕΖΑ",
        "order": "42"
      },
      "geometry": {
        "type": "Point",
        "coordinates": [
          23.8552394,
          38.0204898
        ]
      }
    },
    {
      "type": "Feature",
      "properties": {
        "type": "stop",
        "stop_code": "800067",
        "stop_id": "800067",
        "name": "ΚΟΛΥΜΒΗΤΗΡΙΟ",
        "order": "43"
      },
      "geometry": {
        "type": "Point",
        "coordinates": [
          23.8558255,
          38.0232866
        ]
      }
    },
    {
      "type": "Feature",
      "properties": {
        "type": "stop",
        "stop_code": "800068",
        "stop_id": "800068",
        "name": "ΑΡΙΣΤΟΓΕΙΤΟΝΟΣ",
        "order": "44"
      },
      "geometry": {
        "type": "Point",
        "coordinates": [
          23.8536911,
          38.0252398
        ]
      }
    },
    {
      "type": "Feature",
      "properties": {
        "type": "stop",
        "stop_code": "800072",
        "stop_id": "800072",
        "name": "ΦΙΛΙΠΠΟΥ",
        "order": "45"
      },
      "geometry": {
        "type": "Point",
        "coordinates": [
          23.8518669,
          38.0258504
        ]
      }
    },
    {
      "type": "Feature",
      "properties": {
        "type": "stop",
        "stop_code": "800071",
        "stop_id": "800071",
        "name": "ΕΣΤΙΑΣ",
        "order": "46"
      },
      "geometry": {
        "type": "Point",
        "coordinates": [
          23.8475581,
          38.0272258
        ]
      }
    },
    {
      "type": "Feature",
      "properties": {
        "type": "stop",
        "stop_code": "480166",
        "stop_id": "480166",
        "name": "ΕΥΤΕΡΠΗΣ",
        "order": "47"
      },
      "geometry": {
        "type": "Point",
        "coordinates": [
          23.8451357,
          38.0286951
        ]
      }
    },
    {
      "type": "Feature",
      "properties": {
        "type": "stop",
        "stop_code": "480158",
        "stop_id": "480158",
        "name": "ΜΑΥΡΟΓΕΝΟΥΣ",
        "order": "48"
      },
      "geometry": {
        "type": "Point",
        "coordinates": [
          23.8434159,
          38.027691
        ]
      }
    },
    {
      "type": "Feature",
      "properties": {
        "type": "stop",
        "stop_code": "480064",
        "stop_id": "480064",
        "name": "ΓΕΩΡ. ΓΕΝΝΗΜΑΤΑ",
        "order": "49"
      },
      "geometry": {
        "type": "Point",
        "coordinates": [
          23.8415899,
          38.0257198
        ]
      }
    },
    {
      "type": "Feature",
      "properties": {
        "type": "stop",
        "stop_code": "480121",
        "stop_id": "480121",
        "name": "ΕΘΝΟΣ",
        "order": "50"
      },
      "geometry": {
        "type": "Point",
        "coordinates": [
          23.8373581,
          38.0227218
        ]
      }
    },
    {
      "type": "Feature",
      "properties": {
        "type": "stop",
        "stop_code": "30126",
        "stop_id": "030126",
        "name": "ΠΑΠΑΡΗΓΟΠΟΥΛΟΥ",
        "order": "51"
      },
      "geometry": {
        "type": "Point",
        "coordinates": [
          23.8357779,
          38.0211423
        ]
      }
    },
    {
      "type": "Feature",
      "properties": {
        "type": "stop",
        "stop_code": "10363",
        "stop_id": "000158",
        "name": "ΣΤ. ΔΟΥΚ. ΠΛΑΚΕΝΤΙΑΣ",
        "order": "52"
      },
      "geometry": {
        "type": "Point",
        "coordinates": [
          23.834092,
          38.0237855
        ]
      }
    }
  ]
}