{
  "type": "FeatureCollection",
  "properties": {
    "LineCode": "912",
    "LineID": "879",
    "LineDescr": "ΑΧΑΡΝΑΙ - ΘΡΙΑΣΙΟ ΝΟΣΟΚΟΜΕΙΟ - ΕΛΕΥΣΙΝΑ",
    "RouteCode": "5170",
    "RouteDescr": "ΕΛΕΥΣΙΝΑ - ΘΡΙΑΣΙΟ ΝΟΣΟΚΟΜΕΙΟ - ΑΧΑΡΝΑΙ",
    "RouteType": "2"
  },
  "features": [
    {
      "type": "Feature",
      "geometry": {
        "type": "LineString",
        "coordinates": [
          [
            23.54011,
            38.03587
          ],
          [
            23.53951,
            38.03618
          ],
          [
            23.53771,
            38.03691
          ],
          [
            23.54213,
            38.04307
          ],
          [
            23.53657,
            38.04453
          ],
          [
            23.53726,
            38.04771
          ],
          [
            23.53735,
            38.04834
          ],
          [
            23.53469,
            38.05457
          ],
          [
            23.53094,
            38.0632
          ],
          [
            23.52953,
            38.06629
          ],
          [
            23.52978,
            38.06729
          ],
          [
            23.53029,
            38.0678
          ],
          [
            23.53162,
            38.06872
          ],
          [
            23.53175,
            38.06916
          ],
          [
            23.53167,
            38.07015
          ],
          [
            23.53139,
            38.07191
          ],
          [
            23.53157,
            38.07237
          ],
          [
            23.53243,
            38.07299
          ],
          [
            23.53355,
            38.07337
          ],
          [
            23.53881,
            38.07538
          ],
          [
            23.53975,
            38.07577
          ],
          [
            23.54028,
            38.07677
          ],
          [
            23.54082,
            38.07998
          ],
          [
            23.54133,
            38.08081
          ],
          [
            23.54208,
            38.08131
          ],
          [
            23.54533,
            38.08185
          ],
          [
            23.55108,
            38.08258
          ],
          [
            23.55407,
            38.08281
          ],
          [
            23.55677,
            38.08253
          ],
          [
            23.55981,
            38.08016
          ],
          [
            23.5615,
            38.0787
          ],
          [
            23.56376,
            38.07689
          ],
          [
            23.56601,
            38.07616
          ],
          [
            23.56689,
            38.07584
          ],
          [
            23.56862,
            38.07566
          ],
          [
            23.57099,
            38.07562
          ],
          [
            23.57318,
            38.07506
          ],
          [
            23.57583,
            38.07418
          ],
          [
            23.58047,
            38.06888
          ],
          [
            23.58429,
            38.06506
          ],
          [
            23.58496,
            38.06462
          ],
          [
            23.58546,
            38.06451
          ],
          [
            23.5867,
            38.06424
          ],
          [
            23.58605,
            38.06231
          ],
          [
            23.58517,
            38.0597
          ],
          [
            23.59284,
            38.05796
          ],
          [
            23.59468,
            38.06305
          ],
          [
            23.59558,
            38.06548
          ],
          [
            23.59585,
            38.06659
          ],
          [
            23.59695,
            38.06721
          ],
          [
            23.59807,
            38.06849
          ],
          [
            23.59873,
            38.06944
          ],
          [
            23.60069,
            38.07166
          ],
          [
            23.60649,
            38.07062
          ],
          [
            23.6209,
            38.06781
          ],
          [
            23.62708,
            38.06654
          ],
          [
            23.63113,
            38.06572
          ],
          [
            23.63711,
            38.0645
          ],
          [
            23.63871,
            38.06418
          ],
          [
            23.64245,
            38.06373
          ],
          [
            23.64538,
            38.06339
          ],
          [
            23.64646,
            38.06314
          ],
          [
            23.64737,
            38.06279
          ],
          [
            23.64808,
            38.06232
          ],
          [
            23.64821,
            38.06229
          ],
          [
            23.6488,
            38.06248
          ],
          [
            23.65613,
            38.06046
          ],
          [
            23.65718,
            38.06034
          ],
          [
            23.65811,
            38.06047
          ],
          [
            23.66001,
            38.06091
          ],
          [
            23.66106,
            38.06082
          ],
          [
            23.66204,
            38.06062
          ],
          [
            23.66282,
            38.06069
          ],
          [
            23.66363,
            38.06119
          ],
          [
            23.66436,
            38.06177
          ],
          [
            23.66512,
            38.06213
          ],
          [
            23.66611,
            38.06241
          ],
          [
            23.66742,
            38.06372
          ],
          [
            23.66828,
            38.06438
          ],
          [
            23.66863,
            38.06463
          ],
          [
            23.67168,
            38.06647
          ],
          [
            23.67514,
            38.06789
          ],
          [
            23.67701,
            38.06833
          ],
          [
            23.67838,
            38.0689
          ],
          [
            23.68013,
            38.06931
          ],
          [
            23.6826,
            38.07007
          ],
          [
            23.68391,
            38.07042
          ],
          [
            23.68589,
            38.07076
          ],
          [
            23.68816,
            38.07107
          ],
          [
            23.69208,
            38.07093
          ],
          [
            23.69523,
            38.07102
          ],
          [
            23.69588,
            38.07109
          ],
          [
            23.70395,
            38.07008
          ],
          [
            23.70494,
            38.07009
          ],
          [
            23.70586,
            38.06993
          ],
          [
            23.70698,
            38.07138
          ],
          [
            23.70721,
            38.07212
          ],
          [
            23.70743,
            38.07357
          ],
          [
            23.70676,
            38.07411
          ],
          [
            23.70672,
            38.07426
          ],
          [
            23.70677,
            38.07447
          ],
          [
            23.70964,
            38.07867
          ],
          [
            23.71001,
            38.07938
          ],
          [
            23.71005,
            38.07972
          ],
          [
            23.71014,
            38.08027
          ],
          [
            23.71141,
            38.08546
          ],
          [
            23.71217,
            38.08604
          ],
          [
            23.71553,
            38.08588
          ],
          [
            23.71692,
            38.08561
          ],
          [
            23.71853,
            38.08546
          ],
          [
            23.71964,
            38.08542
          ],
          [
            23.71969,
            38.08533
          ],
          [
            23.71975,
            38.08521
          ],
          [
            23.71991,
            38.08452
          ],
          [
            23.7198,
            38.08407
          ],
          [
            23.71967,
            38.08337
          ],
          [
            23.71872,
            38.08192
          ],
          [
            23.71974,
            38.08141
          ],
          [
            23.72363,
            38.08092
          ],
          [
            23.72403,
            38.08048
          ],
          [
            23.72459,
            38.0807
          ],
          [
            23.72548,
            38.08167
          ],
          [
            23.72576,
            38.08229
          ],
          [
            23.72602,
            38.08287
          ],
          [
            23.72588,
            38.08422
          ],
          [
            23.72666,
            38.08393
          ],
          [
            23.72886,
            38.08345
          ],
          [
            23.73023,
            38.08322
          ],
          [
            23.73264,
            38.08265
          ],
          [
            23.7333,
            38.07928
          ],
          [
            23.73323,
            38.07919
          ],
          [
            23.7314,
            38.07886
          ],
          [
            23.73116,
            38.07868
          ],
          [
            23.73159,
            38.0784
          ]
        ]
      },
      "properties": {
        "type": "route_path",
        "RouteCode": "5170"
      }
    },
    {
      "type": "Feature",
      "geometry": {
        "type": "Point",
        "coordinates": [
          23.5399225,
          38.035942
        ]
      },
      "properties": {
        "type": "stop",
        "StopCode": "10156",
        "StopID": "03",
        "StopDescr": "ΕΛΕΥΣΙΝΑ",
        "StopOrder": "1",
        "StopType": "0"
      }
    },
    {
      "type": "Feature",
      "geometry": {
        "type": "Point",
        "coordinates": [
          23.538276,
          38.0367717
        ]
      },
      "properties": {
        "type": "stop",
        "StopCode": "190056",
        "StopID": "190056",
        "StopDescr": "ΠΑΡΑΛΙΑ",
        "StopOrder": "2",
        "StopType": "0"
      }
    },
    {
      "type": "Feature",
      "geometry": {
        "type": "Point",
        "coordinates": [
          23.5395959,
          38.0395584
        ]
      },
      "properties": {
        "type": "stop",
        "StopCode": "190010",
        "StopID": "190010",
        "StopDescr": "ΑΓ. ΓΕΩΡΓΙΟΣ",
        "StopOrder": "3",
        "StopType": "0"
      }
    },
    {
      "type": "Feature",
      "geometry": {
        "type": "Point",
        "coordinates": [
          23.5420901,
          38.0427981
        ]
      },
      "properties": {
        "type": "stop",
        "StopCode": "190011",
        "StopID": "190011",
        "StopDescr": "ΠΛ. ΕΛΕΥΣΙΝΑΣ",
        "StopOrder": "4",
        "StopType": "0"
      }
    },
    {
      "type": "Feature",
      "geometry": {
        "type": "Point",
        "coordinates": [
          23.5403095,
          38.0436764
        ]
      },
      "properties": {
        "type": "stop",
        "StopCode": "190014",
        "StopID": "190014",
        "StopDescr": "ΟΤΕ",
        "StopOrder": "5",
        "StopType": "0"
      }
    },
    {
      "type": "Feature",
      "geometry": {
        "type": "Point",
        "coordinates": [
          23.5366975,
          38.0449401
        ]
      },
      "properties": {
        "type": "stop",
        "StopCode": "190015",
        "StopID": "190015",
        "StopDescr": "ΣΤΡΟΦΗ ΜΑΓΟΥΛΑΣ",
        "StopOrder": "6",
        "StopType": "0"
      }
    },
    {
      "type": "Feature",
      "geometry": {
        "type": "Point",
        "coordinates": [
          23.5372733,
          38.0479333
        ]
      },
      "properties": {
        "type": "stop",
        "StopCode": "190016",
        "StopID": "190016",
        "StopDescr": "ΕΘΝ. ΑΝΤΙΣΤΑΣΕΩΣ",
        "StopOrder": "7",
        "StopType": "0"
      }
    },
    {
      "type": "Feature",
      "geometry": {
        "type": "Point",
        "coordinates": [
          23.5363495,
          38.0504578
        ]
      },
      "properties": {
        "type": "stop",
        "StopCode": "190017",
        "StopID": "190017",
        "StopDescr": "ΠΛ. ΑΝΩ ΕΛΕΥΣΙΝΑΣ",
        "StopOrder": "8",
        "StopType": "0"
      }
    },
    {
      "type": "Feature",
      "geometry": {
        "type": "Point",
        "coordinates": [
          23.5355062,
          38.0527385
        ]
      },
      "properties": {
        "type": "stop",
        "StopCode": "190018",
        "StopID": "190018",
        "StopDescr": "ΤΡΟΧΑΙΑ",
        "StopOrder": "9",
        "StopType": "0"
      }
    },
    {
      "type": "Feature",
      "geometry": {
        "type": "Point",
        "coordinates": [
          23.5341045,
          38.0561166
        ]
      },
      "properties": {
        "type": "stop",
        "StopCode": "190019",
        "StopID": "190019",
        "StopDescr": "ΠΑΡΑΔΕΙΣΟΣ",
        "StopOrder": "10",
        "StopType": "0"
      }
    },
    {
      "type": "Feature",
      "geometry": {
        "type": "Point",
        "coordinates": [
          23.5327556,
          38.0591531
        ]
      },
      "properties": {
        "type": "stop",
        "StopCode": "190020",
        "StopID": "190020",
        "StopDescr": "ΑΓΓΕΛΟΥ",
        "StopOrder": "11",
        "StopType": "0"
      }
    },
    {
      "type": "Feature",
      "geometry": {
        "type": "Point",
        "coordinates": [
          23.5317285,
          38.0614644
        ]
      },
      "properties": {
        "type": "stop",
        "StopCode": "190021",
        "StopID": "190021",
        "StopDescr": "ΠΕΠΠΑ",
        "StopOrder": "12",
        "StopType": "0"
      }
    },
    {
      "type": "Feature",
      "geometry": {
        "type": "Point",
        "coordinates": [
          23.5305989,
          38.0642352
        ]
      },
      "properties": {
        "type": "stop",
        "StopCode": "190050",
        "StopID": "190050",
        "StopDescr": "ΠΟΛΥΚΑΤΟΙΚΙΕΣ",
        "StopOrder": "13",
        "StopType": "0"
      }
    },
    {
      "type": "Feature",
      "geometry": {
        "type": "Point",
        "coordinates": [
          23.5298187,
          38.0669082
        ]
      },
      "properties": {
        "type": "stop",
        "StopCode": "630019",
        "StopID": "630019",
        "StopDescr": "ΓΕΩΡ. ΓΕΝΝΗΜΑΤΑ",
        "StopOrder": "14",
        "StopType": "0"
      }
    },
    {
      "type": "Feature",
      "geometry": {
        "type": "Point",
        "coordinates": [
          23.5316704,
          38.0706325
        ]
      },
      "properties": {
        "type": "stop",
        "StopCode": "630018",
        "StopID": "630018",
        "StopDescr": "ΘΡΙΑΣΙΟ ΝΟΣΟΚΟΜΕΙΟ",
        "StopOrder": "15",
        "StopType": "0"
      }
    },
    {
      "type": "Feature",
      "geometry": {
        "type": "Point",
        "coordinates": [
          23.534224,
          38.0735681
        ]
      },
      "properties": {
        "type": "stop",
        "StopCode": "11676",
        "StopID": "120213",
        "StopDescr": "ΑΜΑΞΟΣΤΑΣΙΟ",
        "StopOrder": "16",
        "StopType": "0"
      }
    },
    {
      "type": "Feature",
      "geometry": {
        "type": "Point",
        "coordinates": [
          23.5400984,
          38.0770095
        ]
      },
      "properties": {
        "type": "stop",
        "StopCode": "120240",
        "StopID": "120240",
        "StopDescr": "ΣΤΡΑΤΟΠΕΔΟ",
        "StopOrder": "17",
        "StopType": "0"
      }
    },
    {
      "type": "Feature",
      "geometry": {
        "type": "Point",
        "coordinates": [
          23.5515199,
          38.0826074
        ]
      },
      "properties": {
        "type": "stop",
        "StopCode": "120052",
        "StopID": "120052",
        "StopDescr": "ΚΟΚΚΙΝΗ ΕΚΚΛΗΣΙΑ",
        "StopOrder": "18",
        "StopType": "0"
      }
    },
    {
      "type": "Feature",
      "geometry": {
        "type": "Point",
        "coordinates": [
          23.5577319,
          38.0815765
        ]
      },
      "properties": {
        "type": "stop",
        "StopCode": "120241",
        "StopID": "120241",
        "StopDescr": "ΕΚΘΕΣΙΑΚΟ ΚΕΝΤΡΟ",
        "StopOrder": "19",
        "StopType": "0"
      }
    },
    {
      "type": "Feature",
      "geometry": {
        "type": "Point",
        "coordinates": [
          23.5617711,
          38.0783306
        ]
      },
      "properties": {
        "type": "stop",
        "StopCode": "120258",
        "StopID": "120258",
        "StopDescr": "ΒΙΟΠΛΑΣΤΙΚΗ",
        "StopOrder": "20",
        "StopType": "0"
      }
    },
    {
      "type": "Feature",
      "geometry": {
        "type": "Point",
        "coordinates": [
          23.5664907,
          38.0758228
        ]
      },
      "properties": {
        "type": "stop",
        "StopCode": "120242",
        "StopID": "120242",
        "StopDescr": "ΓΕΡΜΑΝΙΚΟΣ ΔΡΟΜΟΣ",
        "StopOrder": "21",
        "StopType": "0"
      }
    },
    {
      "type": "Feature",
      "geometry": {
        "type": "Point",
        "coordinates": [
          23.5686359,
          38.0755776
        ]
      },
      "properties": {
        "type": "stop",
        "StopCode": "120117",
        "StopID": "120117",
        "StopDescr": "ΣΤΡΟΦΗ ΨΑΡΙ",
        "StopOrder": "22",
        "StopType": "0"
      }
    },
    {
      "type": "Feature",
      "geometry": {
        "type": "Point",
        "coordinates": [
          23.570864,
          38.0754779
        ]
      },
      "properties": {
        "type": "stop",
        "StopCode": "120279",
        "StopID": "120279",
        "StopDescr": "ΓΕΦΥΡΑ",
        "StopOrder": "23",
        "StopType": "0"
      }
    },
    {
      "type": "Feature",
      "geometry": {
        "type": "Point",
        "coordinates": [
          23.5747933,
          38.0743957
        ]
      },
      "properties": {
        "type": "stop",
        "StopCode": "120091",
        "StopID": "120091",
        "StopDescr": "ΣΧΟΛΕΙΟ",
        "StopOrder": "24",
        "StopType": "0"
      }
    },
    {
      "type": "Feature",
      "geometry": {
        "type": "Point",
        "coordinates": [
          23.5766194,
          38.0733303
        ]
      },
      "properties": {
        "type": "stop",
        "StopCode": "120026",
        "StopID": "120026",
        "StopDescr": "6η ΚΟΡΥΤΣΑΣ",
        "StopOrder": "25",
        "StopType": "0"
      }
    },
    {
      "type": "Feature",
      "geometry": {
        "type": "Point",
        "coordinates": [
          23.5779158,
          38.0717827
        ]
      },
      "properties": {
        "type": "stop",
        "StopCode": "120085",
        "StopID": "120085",
        "StopDescr": "5η ΚΟΡΥΤΣΑΣ",
        "StopOrder": "26",
        "StopType": "0"
      }
    },
    {
      "type": "Feature",
      "geometry": {
        "type": "Point",
        "coordinates": [
          23.5803969,
          38.0688058
        ]
      },
      "properties": {
        "type": "stop",
        "StopCode": "120027",
        "StopID": "120027",
        "StopDescr": "4η ΚΟΡΥΤΣΑΣ",
        "StopOrder": "27",
        "StopType": "0"
      }
    },
    {
      "type": "Feature",
      "geometry": {
        "type": "Point",
        "coordinates": [
          23.5832378,
          38.0662861
        ]
      },
      "properties": {
        "type": "stop",
        "StopCode": "120066",
        "StopID": "120066",
        "StopDescr": "3η ΚΟΡΥΤΣΑΣ",
        "StopOrder": "28",
        "StopType": "0"
      }
    },
    {
      "type": "Feature",
      "geometry": {
        "type": "Point",
        "coordinates": [
          23.5847324,
          38.0647345
        ]
      },
      "properties": {
        "type": "stop",
        "StopCode": "120083",
        "StopID": "120083",
        "StopDescr": "2η ΚΟΡΥΤΣΑΣ",
        "StopOrder": "29",
        "StopType": "0"
      }
    },
    {
      "type": "Feature",
      "geometry": {
        "type": "Point",
        "coordinates": [
          23.5866547,
          38.0641304
        ]
      },
      "properties": {
        "type": "stop",
        "StopCode": "120223",
        "StopID": "120223",
        "StopDescr": "ΚΟΡΥΤΣΑΣ",
        "StopOrder": "30",
        "StopType": "0"
      }
    },
    {
      "type": "Feature",
      "geometry": {
        "type": "Point",
        "coordinates": [
          23.5857559,
          38.0618958
        ]
      },
      "properties": {
        "type": "stop",
        "StopCode": "120224",
        "StopID": "120224",
        "StopDescr": "ΜΙΑΟΥΛΗ",
        "StopOrder": "31",
        "StopType": "0"
      }
    },
    {
      "type": "Feature",
      "geometry": {
        "type": "Point",
        "coordinates": [
          23.5860324,
          38.0593552
        ]
      },
      "properties": {
        "type": "stop",
        "StopCode": "120225",
        "StopID": "120225",
        "StopDescr": "ΚΑΡΑΙΣΚΑΚΗ",
        "StopOrder": "32",
        "StopType": "0"
      }
    },
    {
      "type": "Feature",
      "geometry": {
        "type": "Point",
        "coordinates": [
          23.5882809,
          38.0588314
        ]
      },
      "properties": {
        "type": "stop",
        "StopCode": "120226",
        "StopID": "120226",
        "StopDescr": "ΜΠΑΚΟΓΙΑΝΝΗ",
        "StopOrder": "33",
        "StopType": "0"
      }
    },
    {
      "type": "Feature",
      "geometry": {
        "type": "Point",
        "coordinates": [
          23.5930155,
          38.0580998
        ]
      },
      "properties": {
        "type": "stop",
        "StopCode": "120227",
        "StopID": "120227",
        "StopDescr": "ΑΓΓΕΛΟΠΟΥΛΟΥ",
        "StopOrder": "34",
        "StopType": "0"
      }
    },
    {
      "type": "Feature",
      "geometry": {
        "type": "Point",
        "coordinates": [
          23.5949028,
          38.0631264
        ]
      },
      "properties": {
        "type": "stop",
        "StopCode": "120228",
        "StopID": "120228",
        "StopDescr": "ΑΓ. ΓΕΩΡΓΙΟΥ",
        "StopOrder": "35",
        "StopType": "0"
      }
    },
    {
      "type": "Feature",
      "geometry": {
        "type": "Point",
        "coordinates": [
          23.5959544,
          38.0661844
        ]
      },
      "properties": {
        "type": "stop",
        "StopCode": "120057",
        "StopID": "120057",
        "StopDescr": "ΑΣΤΥΝΟΜΙΑ",
        "StopOrder": "36",
        "StopType": "0"
      }
    },
    {
      "type": "Feature",
      "geometry": {
        "type": "Point",
        "coordinates": [
          23.5975375,
          38.0677391
        ]
      },
      "properties": {
        "type": "stop",
        "StopCode": "120058",
        "StopID": "120058",
        "StopDescr": "2η ΘΡΑΣΥΒΟΥΛΟΥ",
        "StopOrder": "37",
        "StopType": "0"
      }
    },
    {
      "type": "Feature",
      "geometry": {
        "type": "Point",
        "coordinates": [
          23.5998781,
          38.0705609
        ]
      },
      "properties": {
        "type": "stop",
        "StopCode": "120059",
        "StopID": "120059",
        "StopDescr": "3η ΘΡΑΣΥΒΟΥΛΟΥ",
        "StopOrder": "38",
        "StopType": "0"
      }
    },
    {
      "type": "Feature",
      "geometry": {
        "type": "Point",
        "coordinates": [
          23.6032273,
          38.0710409
        ]
      },
      "properties": {
        "type": "stop",
        "StopCode": "120076",
        "StopID": "120076",
        "StopDescr": "9η ΛΕΩΦΟΡΟΣ ΕΙΡΗΝΗΣ",
        "StopOrder": "39",
        "StopType": "0"
      }
    },
    {
      "type": "Feature",
      "geometry": {
        "type": "Point",
        "coordinates": [
          23.610616,
          38.0697926
        ]
      },
      "properties": {
        "type": "stop",
        "StopCode": "120077",
        "StopID": "120077",
        "StopDescr": "8η ΛΕΩΦΟΡΟΣ ΕΙΡΗΝΗΣ",
        "StopOrder": "40",
        "StopType": "0"
      }
    },
    {
      "type": "Feature",
      "geometry": {
        "type": "Point",
        "coordinates": [
          23.6172865,
          38.0684415
        ]
      },
      "properties": {
        "type": "stop",
        "StopCode": "120078",
        "StopID": "120078",
        "StopDescr": "7η ΛΕΩΦΟΡΟ ΕΙΡΗΝΗΣ",
        "StopOrder": "41",
        "StopType": "0"
      }
    },
    {
      "type": "Feature",
      "geometry": {
        "type": "Point",
        "coordinates": [
          23.6196292,
          38.0679685
        ]
      },
      "properties": {
        "type": "stop",
        "StopCode": "120079",
        "StopID": "120079",
        "StopDescr": "6η ΛΕΩΦΟΡΟΣ ΕΙΡΗΝΗΣ",
        "StopOrder": "42",
        "StopType": "0"
      }
    },
    {
      "type": "Feature",
      "geometry": {
        "type": "Point",
        "coordinates": [
          23.6227071,
          38.0673828
        ]
      },
      "properties": {
        "type": "stop",
        "StopCode": "120080",
        "StopID": "120080",
        "StopDescr": "5η ΛΕΩΦΟΡΟΣ ΕΙΡΗΝΗΣ",
        "StopOrder": "43",
        "StopType": "0"
      }
    },
    {
      "type": "Feature",
      "geometry": {
        "type": "Point",
        "coordinates": [
          23.6266673,
          38.0665392
        ]
      },
      "properties": {
        "type": "stop",
        "StopCode": "120081",
        "StopID": "120081",
        "StopDescr": "4η ΛΕΩΦΟΡΟΣ ΕΙΡΗΝΗΣ",
        "StopOrder": "44",
        "StopType": "0"
      }
    },
    {
      "type": "Feature",
      "geometry": {
        "type": "Point",
        "coordinates": [
          23.6307638,
          38.0657681
        ]
      },
      "properties": {
        "type": "stop",
        "StopCode": "120086",
        "StopID": "120086",
        "StopDescr": "3η ΛΕΩΦΟΡΟΣ ΕΙΡΗΝΗΣ",
        "StopOrder": "45",
        "StopType": "0"
      }
    },
    {
      "type": "Feature",
      "geometry": {
        "type": "Point",
        "coordinates": [
          23.634882,
          38.06488
        ]
      },
      "properties": {
        "type": "stop",
        "StopCode": "120089",
        "StopID": "120089",
        "StopDescr": "2η ΛΕΩΦΟΡΟΣ ΕΙΡΗΝΗΣ",
        "StopOrder": "46",
        "StopType": "0"
      }
    },
    {
      "type": "Feature",
      "geometry": {
        "type": "Point",
        "coordinates": [
          23.6379899,
          38.0642585
        ]
      },
      "properties": {
        "type": "stop",
        "StopCode": "120087",
        "StopID": "120087",
        "StopDescr": "1η ΛΕΩΦΟΡΟΣ ΕΙΡΗΝΗΣ",
        "StopOrder": "47",
        "StopType": "0"
      }
    },
    {
      "type": "Feature",
      "geometry": {
        "type": "Point",
        "coordinates": [
          23.6409843,
          38.0638483
        ]
      },
      "properties": {
        "type": "stop",
        "StopCode": "100165",
        "StopID": "100165",
        "StopDescr": "1η ΗΡΑΚΛΗΣ",
        "StopOrder": "48",
        "StopType": "0"
      }
    },
    {
      "type": "Feature",
      "geometry": {
        "type": "Point",
        "coordinates": [
          23.6494033,
          38.062205
        ]
      },
      "properties": {
        "type": "stop",
        "StopCode": "12113",
        "StopID": "100305",
        "StopDescr": "ΔΙΑΣΤ. ΠΕΡΙΦ. ΑΙΓΑΛΕΩ",
        "StopOrder": "49",
        "StopType": "0"
      }
    },
    {
      "type": "Feature",
      "geometry": {
        "type": "Point",
        "coordinates": [
          23.6625447,
          38.0605424
        ]
      },
      "properties": {
        "type": "stop",
        "StopCode": "100166",
        "StopID": "100166",
        "StopDescr": "ΣΙΔΕΡΑ",
        "StopOrder": "50",
        "StopType": "0"
      }
    },
    {
      "type": "Feature",
      "geometry": {
        "type": "Point",
        "coordinates": [
          23.6695983,
          38.0650601
        ]
      },
      "properties": {
        "type": "stop",
        "StopCode": "100167",
        "StopID": "100167",
        "StopDescr": "ΠΟΤΣΙΚΑ",
        "StopOrder": "51",
        "StopType": "0"
      }
    },
    {
      "type": "Feature",
      "geometry": {
        "type": "Point",
        "coordinates": [
          23.6764331,
          38.0681017
        ]
      },
      "properties": {
        "type": "stop",
        "StopCode": "100088",
        "StopID": "100088",
        "StopDescr": "ΜΑΚ",
        "StopOrder": "52",
        "StopType": "0"
      }
    },
    {
      "type": "Feature",
      "geometry": {
        "type": "Point",
        "coordinates": [
          23.6801334,
          38.0692114
        ]
      },
      "properties": {
        "type": "stop",
        "StopCode": "100135",
        "StopID": "100135",
        "StopDescr": "4η MAK",
        "StopOrder": "53",
        "StopType": "0"
      }
    },
    {
      "type": "Feature",
      "geometry": {
        "type": "Point",
        "coordinates": [
          23.6821258,
          38.0698297
        ]
      },
      "properties": {
        "type": "stop",
        "StopCode": "100068",
        "StopID": "100068",
        "StopDescr": "3η ΜΑΚ",
        "StopOrder": "54",
        "StopType": "0"
      }
    },
    {
      "type": "Feature",
      "geometry": {
        "type": "Point",
        "coordinates": [
          23.6877532,
          38.0708902
        ]
      },
      "properties": {
        "type": "stop",
        "StopCode": "100069",
        "StopID": "100069",
        "StopDescr": "2η ΜΑΚ",
        "StopOrder": "55",
        "StopType": "0"
      }
    },
    {
      "type": "Feature",
      "geometry": {
        "type": "Point",
        "coordinates": [
          23.6899193,
          38.070896
        ]
      },
      "properties": {
        "type": "stop",
        "StopCode": "100070",
        "StopID": "100070",
        "StopDescr": "1η ΜΑΚ",
        "StopOrder": "56",
        "StopType": "0"
      }
    },
    {
      "type": "Feature",
      "geometry": {
        "type": "Point",
        "coordinates": [
          23.6923251,
          38.0708392
        ]
      },
      "properties": {
        "type": "stop",
        "StopCode": "100071",
        "StopID": "100071",
        "StopDescr": "5η ΖΩΦΡΙΑΣ",
        "StopOrder": "57",
        "StopType": "0"
      }
    },
    {
      "type": "Feature",
      "geometry": {
        "type": "Point",
        "coordinates": [
          23.6953574,
          38.0709102
        ]
      },
      "properties": {
        "type": "stop",
        "StopCode": "100072",
        "StopID": "100072",
        "StopDescr": "4η ΖΩΦΡΙΑΣ",
        "StopOrder": "58",
        "StopType": "0"
      }
    },
    {
      "type": "Feature",
      "geometry": {
        "type": "Point",
        "coordinates": [
          23.6999309,
          38.0704803
        ]
      },
      "properties": {
        "type": "stop",
        "StopCode": "100073",
        "StopID": "100073",
        "StopDescr": "3η ΖΩΦΡΙΑΣ",
        "StopOrder": "59",
        "StopType": "0"
      }
    },
    {
      "type": "Feature",
      "geometry": {
        "type": "Point",
        "coordinates": [
          23.7041284,
          38.0699592
        ]
      },
      "properties": {
        "type": "stop",
        "StopCode": "100074",
        "StopID": "100074",
        "StopDescr": "2η ΔΗΜΑΡΧΕΙΟ",
        "StopOrder": "60",
        "StopType": "0"
      }
    },
    {
      "type": "Feature",
      "geometry": {
        "type": "Point",
        "coordinates": [
          23.7075123,
          38.0731193
        ]
      },
      "properties": {
        "type": "stop",
        "StopCode": "100140",
        "StopID": "100140",
        "StopDescr": "ΑΥΛΩΝΙΤΗ",
        "StopOrder": "61",
        "StopType": "0"
      }
    },
    {
      "type": "Feature",
      "geometry": {
        "type": "Point",
        "coordinates": [
          23.7072062,
          38.0749631
        ]
      },
      "properties": {
        "type": "stop",
        "StopCode": "100259",
        "StopID": "100259",
        "StopDescr": "ΑΙΓΑΙΟΥ ΠΕΛΑΓΟΥΣ",
        "StopOrder": "62",
        "StopType": "0"
      }
    },
    {
      "type": "Feature",
      "geometry": {
        "type": "Point",
        "coordinates": [
          23.7091703,
          38.077876
        ]
      },
      "properties": {
        "type": "stop",
        "StopCode": "100260",
        "StopID": "100260",
        "StopDescr": "ΚΟΛΥΜΒΗΤΗΡΙΟ",
        "StopOrder": "63",
        "StopType": "0"
      }
    },
    {
      "type": "Feature",
      "geometry": {
        "type": "Point",
        "coordinates": [
          23.71033,
          38.08095
        ]
      },
      "properties": {
        "type": "stop",
        "StopCode": "100216",
        "StopID": "100216",
        "StopDescr": "1η ΛΙΜΝΗΣ",
        "StopOrder": "64",
        "StopType": "0"
      }
    },
    {
      "type": "Feature",
      "geometry": {
        "type": "Point",
        "coordinates": [
          23.7111178,
          38.0834789
        ]
      },
      "properties": {
        "type": "stop",
        "StopCode": "11284",
        "StopID": "100265",
        "StopDescr": "ΜΥΚΗΝΩΝ",
        "StopOrder": "65",
        "StopType": "0"
      }
    },
    {
      "type": "Feature",
      "geometry": {
        "type": "Point",
        "coordinates": [
          23.7124338,
          38.0859684
        ]
      },
      "properties": {
        "type": "stop",
        "StopCode": "100203",
        "StopID": "100203",
        "StopDescr": "ΑΙΓΑΙΟΥ ΠΕΛΑΓΟΥΣ",
        "StopOrder": "66",
        "StopType": "0"
      }
    },
    {
      "type": "Feature",
      "geometry": {
        "type": "Point",
        "coordinates": [
          23.7156952,
          38.0857223
        ]
      },
      "properties": {
        "type": "stop",
        "StopCode": "100204",
        "StopID": "100204",
        "StopDescr": "ΚΥΚΛΑΔΩΝ",
        "StopOrder": "67",
        "StopType": "0"
      }
    },
    {
      "type": "Feature",
      "geometry": {
        "type": "Point",
        "coordinates": [
          23.7194953,
          38.0851743
        ]
      },
      "properties": {
        "type": "stop",
        "StopCode": "130273",
        "StopID": "130273",
        "StopDescr": "ΠΑΛΙΓΓΕΝΕΣΙΑΣ",
        "StopOrder": "68",
        "StopType": "0"
      }
    },
    {
      "type": "Feature",
      "geometry": {
        "type": "Point",
        "coordinates": [
          23.7195126,
          38.0836422
        ]
      },
      "properties": {
        "type": "stop",
        "StopCode": "130274",
        "StopID": "130274",
        "StopDescr": "ΑΦΡΟΔΙΤΗΣ",
        "StopOrder": "69",
        "StopType": "0"
      }
    },
    {
      "type": "Feature",
      "geometry": {
        "type": "Point",
        "coordinates": [
          23.7200153,
          38.0812527
        ]
      },
      "properties": {
        "type": "stop",
        "StopCode": "130434",
        "StopID": "130434",
        "StopDescr": "ΑΛΚΑΜΕΝΟΥΣ",
        "StopOrder": "70",
        "StopType": "0"
      }
    },
    {
      "type": "Feature",
      "geometry": {
        "type": "Point",
        "coordinates": [
          23.722513,
          38.0809782
        ]
      },
      "properties": {
        "type": "stop",
        "StopCode": "130276",
        "StopID": "130276",
        "StopDescr": "ΜΙΛΤΙΑΔΟΥ",
        "StopOrder": "71",
        "StopType": "0"
      }
    },
    {
      "type": "Feature",
      "geometry": {
        "type": "Point",
        "coordinates": [
          23.7251956,
          38.0811018
        ]
      },
      "properties": {
        "type": "stop",
        "StopCode": "130119",
        "StopID": "130119",
        "StopDescr": "ΦΥΤΑ",
        "StopOrder": "72",
        "StopType": "0"
      }
    },
    {
      "type": "Feature",
      "geometry": {
        "type": "Point",
        "coordinates": [
          23.7272837,
          38.0837209
        ]
      },
      "properties": {
        "type": "stop",
        "StopCode": "130114",
        "StopID": "130114",
        "StopDescr": "ΕΥΑΓΓΕΛΙΣΤΡΙΑΣ",
        "StopOrder": "73",
        "StopType": "0"
      }
    },
    {
      "type": "Feature",
      "geometry": {
        "type": "Point",
        "coordinates": [
          23.7308531,
          38.0829586
        ]
      },
      "properties": {
        "type": "stop",
        "StopCode": "130115",
        "StopID": "130115",
        "StopDescr": "ΠΑΛΑΙΟ ΚΟΙΜΗΤΗΡΙΟ",
        "StopOrder": "74",
        "StopType": "0"
      }
    },
    {
      "type": "Feature",
      "geometry": {
        "type": "Point",
        "coordinates": [
          23.7326549,
          38.0819063
        ]
      },
      "properties": {
        "type": "stop",
        "StopCode": "130013",
        "StopID": "130013",
        "StopDescr": "ΚΑΡΑΒΟΣ",
        "StopOrder": "75",
        "StopType": "0"
      }
    },
    {
      "type": "Feature",
      "geometry": {
        "type": "Point",
        "coordinates": [
          23.7329799,
          38.0803118
        ]
      },
      "properties": {
        "type": "stop",
        "StopCode": "130014",
        "StopID": "130014",
        "StopDescr": "ΛΙΟΣΙΩΝ",
        "StopOrder": "76",
        "StopType": "0"
      }
    },
    {
      "type": "Feature",
      "geometry": {
        "type": "Point",
        "coordinates": [
          23.731408,
          38.0789415
        ]
      },
      "properties": {
        "type": "stop",
        "StopCode": "11959",
        "StopID": "130524",
        "StopDescr": "ΑΦΕΤΗΡΙΑ ΑΠΟΒΙΒΑΣΗ ",
        "StopOrder": "77",
        "StopType": "0"
      }
    },
    {
      "type": "Feature",
      "geometry": {
        "type": "Point",
        "coordinates": [
          23.7316095,
          38.0780845
        ]
      },
      "properties": {
        "type": "stop",
        "StopCode": "10300",
        "StopID": "000099",
        "StopDescr": "ΑΧΑΡΝΑΙ",
        "StopOrder": "78",
        "StopType": "0"
      }
    }
  ]
}