{
  "type": "FeatureCollection",
  "properties": {
    "LineCode": "872",
    "LineID": "845",
    "LineDescr": "ΠΕΙΡΑΙΑΣ - ΕΛΕΥΣΙΝΑ (ΜΕΣΩ ΘΗΒΩΝ)",
    "RouteCode": "4252",
    "RouteDescr": "ΠΕΙΡΑΙΑΣ - ΕΛΕΥΣΙΝΑ",
    "RouteType": "1"
  },
  "features": [
    {
      "type": "Feature",
      "geometry": {
        "type": "LineString",
        "coordinates": [
          [
            23.64149,
            37.94567
          ],
          [
            23.64204,
            37.94553
          ],
          [
            23.64239,
            37.9454
          ],
          [
            23.6443,
            37.94436
          ],
          [
            23.64445,
            37.94434
          ],
          [
            23.64459,
            37.9444
          ],
          [
            23.64699,
            37.94717
          ],
          [
            23.64718,
            37.94756
          ],
          [
            23.6473,
            37.9483
          ],
          [
            23.64731,
            37.94848
          ],
          [
            23.64726,
            37.94869
          ],
          [
            23.64733,
            37.94888
          ],
          [
            23.64809,
            37.94928
          ],
          [
            23.64802,
            37.94958
          ],
          [
            23.64814,
            37.95166
          ],
          [
            23.64799,
            37.95211
          ],
          [
            23.6473,
            37.95219
          ],
          [
            23.64824,
            37.95434
          ],
          [
            23.64844,
            37.95461
          ],
          [
            23.64917,
            37.95514
          ],
          [
            23.65029,
            37.95641
          ],
          [
            23.65367,
            37.95874
          ],
          [
            23.65674,
            37.96137
          ],
          [
            23.65814,
            37.9633
          ],
          [
            23.66145,
            37.96714
          ],
          [
            23.6626,
            37.96802
          ],
          [
            23.6632,
            37.96857
          ],
          [
            23.66512,
            37.97277
          ],
          [
            23.66555,
            37.97344
          ],
          [
            23.66757,
            37.97589
          ],
          [
            23.66909,
            37.97695
          ],
          [
            23.66926,
            37.97773
          ],
          [
            23.66957,
            37.97841
          ],
          [
            23.67528,
            37.98755
          ],
          [
            23.67544,
            37.98787
          ],
          [
            23.67762,
            37.99138
          ],
          [
            23.67807,
            37.99221
          ],
          [
            23.67851,
            37.99287
          ],
          [
            23.68521,
            38.00113
          ],
          [
            23.68532,
            38.00131
          ],
          [
            23.68526,
            38.00154
          ],
          [
            23.68475,
            38.00182
          ],
          [
            23.67909,
            38.0038
          ],
          [
            23.66687,
            38.01185
          ],
          [
            23.66562,
            38.01244
          ],
          [
            23.66466,
            38.01269
          ],
          [
            23.65662,
            38.01263
          ],
          [
            23.65561,
            38.01253
          ],
          [
            23.65001,
            38.01083
          ],
          [
            23.64903,
            38.01068
          ],
          [
            23.64596,
            38.01111
          ],
          [
            23.63564,
            38.01363
          ],
          [
            23.62375,
            38.01342
          ],
          [
            23.611,
            38.01162
          ],
          [
            23.60992,
            38.01167
          ],
          [
            23.60125,
            38.0135
          ],
          [
            23.60024,
            38.0139
          ],
          [
            23.59948,
            38.0145
          ],
          [
            23.59903,
            38.01514
          ],
          [
            23.59878,
            38.01586
          ],
          [
            23.59874,
            38.01639
          ],
          [
            23.59919,
            38.02146
          ],
          [
            23.59907,
            38.02309
          ],
          [
            23.59789,
            38.02862
          ],
          [
            23.59758,
            38.0294
          ],
          [
            23.59327,
            38.03683
          ],
          [
            23.59272,
            38.03746
          ],
          [
            23.59023,
            38.03965
          ],
          [
            23.58587,
            38.04265
          ],
          [
            23.58051,
            38.04523
          ],
          [
            23.57649,
            38.0471
          ],
          [
            23.57295,
            38.04851
          ],
          [
            23.56915,
            38.0496
          ],
          [
            23.56083,
            38.05025
          ],
          [
            23.55982,
            38.05019
          ],
          [
            23.55888,
            38.05001
          ],
          [
            23.55249,
            38.048
          ],
          [
            23.54847,
            38.04612
          ],
          [
            23.546,
            38.04545
          ],
          [
            23.5444,
            38.04462
          ],
          [
            23.54427,
            38.04433
          ],
          [
            23.54736,
            38.03518
          ],
          [
            23.54737,
            38.03456
          ],
          [
            23.54457,
            38.03489
          ],
          [
            23.54362,
            38.03515
          ],
          [
            23.54073,
            38.03556
          ],
          [
            23.53917,
            38.0363
          ]
        ]
      },
      "properties": {
        "type": "route_path",
        "RouteCode": "4252"
      }
    },
    {
      "type": "Feature",
      "geometry": {
        "type": "Point",
        "coordinates": [
          23.6410725,
          37.9460535
        ]
      },
      "properties": {
        "type": "stop",
        "StopCode": "10224",
        "StopID": "58",
        "StopDescr": "ΠΕΙΡΑΙΑΣ ΠΛ. ΚΑΡΑΪΣΚΑΚΗ",
        "StopOrder": "1",
        "StopType": "0"
      }
    },
    {
      "type": "Feature",
      "geometry": {
        "type": "Point",
        "coordinates": [
          23.6458572,
          37.945708
        ]
      },
      "properties": {
        "type": "stop",
        "StopCode": "400451",
        "StopID": "400451",
        "StopDescr": "ΕΘΝ. ΑΝΤΙΣΤΑΣΕΩΣ",
        "StopOrder": "2",
        "StopType": "0"
      }
    },
    {
      "type": "Feature",
      "geometry": {
        "type": "Point",
        "coordinates": [
          23.64813,
          37.9509818
        ]
      },
      "properties": {
        "type": "stop",
        "StopCode": "10537",
        "StopID": "400512",
        "StopDescr": "ΑΛΩΝ",
        "StopOrder": "3",
        "StopType": "0"
      }
    },
    {
      "type": "Feature",
      "geometry": {
        "type": "Point",
        "coordinates": [
          23.6475622,
          37.9526098
        ]
      },
      "properties": {
        "type": "stop",
        "StopCode": "400286",
        "StopID": "400286",
        "StopDescr": "ΡΕΤΣΙΝΑ",
        "StopOrder": "4",
        "StopType": "0"
      }
    },
    {
      "type": "Feature",
      "geometry": {
        "type": "Point",
        "coordinates": [
          23.6482041,
          37.9540628
        ]
      },
      "properties": {
        "type": "stop",
        "StopCode": "400207",
        "StopID": "400207",
        "StopDescr": "ΛΕΥΚΑ",
        "StopOrder": "5",
        "StopType": "0"
      }
    },
    {
      "type": "Feature",
      "geometry": {
        "type": "Point",
        "coordinates": [
          23.6493255,
          37.9552108
        ]
      },
      "properties": {
        "type": "stop",
        "StopCode": "400219",
        "StopID": "400219",
        "StopDescr": "ΔΡΑΚΟΥΛΙΝΑΚΟΥ",
        "StopOrder": "6",
        "StopType": "0"
      }
    },
    {
      "type": "Feature",
      "geometry": {
        "type": "Point",
        "coordinates": [
          23.6509949,
          37.9568323
        ]
      },
      "properties": {
        "type": "stop",
        "StopCode": "400220",
        "StopID": "400220",
        "StopDescr": "ΖΕΡΒΟΥ",
        "StopOrder": "7",
        "StopType": "0"
      }
    },
    {
      "type": "Feature",
      "geometry": {
        "type": "Point",
        "coordinates": [
          23.6533405,
          37.9583051
        ]
      },
      "properties": {
        "type": "stop",
        "StopCode": "400221",
        "StopID": "400221",
        "StopDescr": "ΑΓ. ΣΩΤΗΡΑΣ",
        "StopOrder": "8",
        "StopType": "0"
      }
    },
    {
      "type": "Feature",
      "geometry": {
        "type": "Point",
        "coordinates": [
          23.6554153,
          37.9601048
        ]
      },
      "properties": {
        "type": "stop",
        "StopCode": "400261",
        "StopID": "400261",
        "StopDescr": "ΣΙΝΕΜΑ",
        "StopOrder": "9",
        "StopType": "0"
      }
    },
    {
      "type": "Feature",
      "geometry": {
        "type": "Point",
        "coordinates": [
          23.6580881,
          37.9630598
        ]
      },
      "properties": {
        "type": "stop",
        "StopCode": "20047",
        "StopID": "020047",
        "StopDescr": "ΑΓ. ΠΑΥΛΟΣ",
        "StopOrder": "10",
        "StopType": "0"
      }
    },
    {
      "type": "Feature",
      "geometry": {
        "type": "Point",
        "coordinates": [
          23.6588582,
          37.9639273
        ]
      },
      "properties": {
        "type": "stop",
        "StopCode": "20048",
        "StopID": "020048",
        "StopDescr": "ΦΟΥΡΝΟΣ",
        "StopOrder": "11",
        "StopType": "0"
      }
    },
    {
      "type": "Feature",
      "geometry": {
        "type": "Point",
        "coordinates": [
          23.6604203,
          37.9658605
        ]
      },
      "properties": {
        "type": "stop",
        "StopCode": "20009",
        "StopID": "020009",
        "StopDescr": "ΜΕΛΙΣΣΑ",
        "StopOrder": "12",
        "StopType": "0"
      }
    },
    {
      "type": "Feature",
      "geometry": {
        "type": "Point",
        "coordinates": [
          23.6611462,
          37.9667506
        ]
      },
      "properties": {
        "type": "stop",
        "StopCode": "20049",
        "StopID": "020049",
        "StopDescr": "ΚΕΡΑΝΗΣ",
        "StopOrder": "13",
        "StopType": "0"
      }
    },
    {
      "type": "Feature",
      "geometry": {
        "type": "Point",
        "coordinates": [
          23.663608,
          37.9690878
        ]
      },
      "properties": {
        "type": "stop",
        "StopCode": "20050",
        "StopID": "020050",
        "StopDescr": "ΜΕΘΕΝΙΤΗ",
        "StopOrder": "14",
        "StopType": "0"
      }
    },
    {
      "type": "Feature",
      "geometry": {
        "type": "Point",
        "coordinates": [
          23.6648552,
          37.971984
        ]
      },
      "properties": {
        "type": "stop",
        "StopCode": "20052",
        "StopID": "020052",
        "StopDescr": "ΠΛΑΣΤΙΓΓΕΣ",
        "StopOrder": "15",
        "StopType": "0"
      }
    },
    {
      "type": "Feature",
      "geometry": {
        "type": "Point",
        "coordinates": [
          23.6660646,
          37.9739342
        ]
      },
      "properties": {
        "type": "stop",
        "StopCode": "20053",
        "StopID": "020053",
        "StopDescr": "ΥΠΟΥΡΓΕΙΟ",
        "StopOrder": "16",
        "StopType": "0"
      }
    },
    {
      "type": "Feature",
      "geometry": {
        "type": "Point",
        "coordinates": [
          23.6676387,
          37.9758314
        ]
      },
      "properties": {
        "type": "stop",
        "StopCode": "20054",
        "StopID": "020054",
        "StopDescr": "Γ ΝΕΚΡΟΤΑΦΕΙΟ",
        "StopOrder": "17",
        "StopType": "0"
      }
    },
    {
      "type": "Feature",
      "geometry": {
        "type": "Point",
        "coordinates": [
          23.6709056,
          37.9802625
        ]
      },
      "properties": {
        "type": "stop",
        "StopCode": "70035",
        "StopID": "070035",
        "StopDescr": "ΠΑΝ/ΜΙΟ ΔΥΤΙΚΗΣ ΑΤΤΙΚΗΣ-ΠΑΝ/ΠΟΛΗ ΑΡΧΑΙΟΥ ΕΛΑΙΩΝΑ",
        "StopOrder": "18",
        "StopType": "0"
      }
    },
    {
      "type": "Feature",
      "geometry": {
        "type": "Point",
        "coordinates": [
          23.6729515,
          37.9835447
        ]
      },
      "properties": {
        "type": "stop",
        "StopCode": "70036",
        "StopID": "070036",
        "StopDescr": "ΘΕΟΧΑΡΑΚΗ",
        "StopOrder": "19",
        "StopType": "0"
      }
    },
    {
      "type": "Feature",
      "geometry": {
        "type": "Point",
        "coordinates": [
          23.6744712,
          37.9859358
        ]
      },
      "properties": {
        "type": "stop",
        "StopCode": "70037",
        "StopID": "070037",
        "StopDescr": "ΓΕΦΥΡΑΚΙ",
        "StopOrder": "20",
        "StopType": "0"
      }
    },
    {
      "type": "Feature",
      "geometry": {
        "type": "Point",
        "coordinates": [
          23.6756016,
          37.9878317
        ]
      },
      "properties": {
        "type": "stop",
        "StopCode": "70038",
        "StopID": "070038",
        "StopDescr": "ΜΑΚΡΗΣ",
        "StopOrder": "21",
        "StopType": "0"
      }
    },
    {
      "type": "Feature",
      "geometry": {
        "type": "Point",
        "coordinates": [
          23.6774103,
          37.990874
        ]
      },
      "properties": {
        "type": "stop",
        "StopCode": "70039",
        "StopID": "070039",
        "StopDescr": "ΑΙΓΑΛΕΩ",
        "StopOrder": "22",
        "StopType": "0"
      }
    },
    {
      "type": "Feature",
      "geometry": {
        "type": "Point",
        "coordinates": [
          23.6790961,
          37.9934292
        ]
      },
      "properties": {
        "type": "stop",
        "StopCode": "70040",
        "StopID": "070040",
        "StopDescr": "ΘΕΟΔΩΡΟΣ ΠΟΛΥΚΑΝΔΡΙΩΤΗΣ",
        "StopOrder": "23",
        "StopType": "0"
      }
    },
    {
      "type": "Feature",
      "geometry": {
        "type": "Point",
        "coordinates": [
          23.6817245,
          37.9966269
        ]
      },
      "properties": {
        "type": "stop",
        "StopCode": "70041",
        "StopID": "070041",
        "StopDescr": "ΓΥΜΝΑΣΙΟ",
        "StopOrder": "24",
        "StopType": "0"
      }
    },
    {
      "type": "Feature",
      "geometry": {
        "type": "Point",
        "coordinates": [
          23.6840358,
          37.9994361
        ]
      },
      "properties": {
        "type": "stop",
        "StopCode": "70042",
        "StopID": "070042",
        "StopDescr": "ΑΓ. ΣΠΥΡΙΔΩΝΑΣ",
        "StopOrder": "25",
        "StopType": "0"
      }
    },
    {
      "type": "Feature",
      "geometry": {
        "type": "Point",
        "coordinates": [
          23.6846389,
          38.0019175
        ]
      },
      "properties": {
        "type": "stop",
        "StopCode": "420126",
        "StopID": "420126",
        "StopDescr": "ΘΗΒΩΝ",
        "StopOrder": "26",
        "StopType": "0"
      }
    },
    {
      "type": "Feature",
      "geometry": {
        "type": "Point",
        "coordinates": [
          23.6810274,
          38.0031103
        ]
      },
      "properties": {
        "type": "stop",
        "StopCode": "420127",
        "StopID": "420127",
        "StopDescr": "ΣΚΑΛΑΚΙΑ",
        "StopOrder": "27",
        "StopType": "0"
      }
    },
    {
      "type": "Feature",
      "geometry": {
        "type": "Point",
        "coordinates": [
          23.6769715,
          38.0052482
        ]
      },
      "properties": {
        "type": "stop",
        "StopCode": "420128",
        "StopID": "420128",
        "StopDescr": "ΠΑΝ/ΜΙΟ ΔΥΤΙΚΗΣ ΑΤΤΙΚΗΣ - ΠΑΝ/ΠΟΛΗ ΑΛΣΟΥΣ ΑΙΓΑΛΕΩ",
        "StopOrder": "28",
        "StopType": "0"
      }
    },
    {
      "type": "Feature",
      "geometry": {
        "type": "Point",
        "coordinates": [
          23.6750131,
          38.0065177
        ]
      },
      "properties": {
        "type": "stop",
        "StopCode": "420129",
        "StopID": "420129",
        "StopDescr": "ΠΗΓΑΔΑΚΙ",
        "StopOrder": "29",
        "StopType": "0"
      }
    },
    {
      "type": "Feature",
      "geometry": {
        "type": "Point",
        "coordinates": [
          23.6713787,
          38.0089449
        ]
      },
      "properties": {
        "type": "stop",
        "StopCode": "470001",
        "StopID": "470001",
        "StopDescr": "ΚΑΜΠΙΝΓΚ",
        "StopOrder": "30",
        "StopType": "0"
      }
    },
    {
      "type": "Feature",
      "geometry": {
        "type": "Point",
        "coordinates": [
          23.6694547,
          38.0102251
        ]
      },
      "properties": {
        "type": "stop",
        "StopCode": "470002",
        "StopID": "470002",
        "StopDescr": "ΕΛΑΙΩΝ",
        "StopOrder": "31",
        "StopType": "0"
      }
    },
    {
      "type": "Feature",
      "geometry": {
        "type": "Point",
        "coordinates": [
          23.6657077,
          38.012454
        ]
      },
      "properties": {
        "type": "stop",
        "StopCode": "470004",
        "StopID": "470004",
        "StopDescr": "ΠΑΛΑΤΑΚΙ",
        "StopOrder": "32",
        "StopType": "0"
      }
    },
    {
      "type": "Feature",
      "geometry": {
        "type": "Point",
        "coordinates": [
          23.663029,
          38.0128069
        ]
      },
      "properties": {
        "type": "stop",
        "StopCode": "470005",
        "StopID": "470005",
        "StopDescr": "ΚΕΔ",
        "StopOrder": "33",
        "StopType": "0"
      }
    },
    {
      "type": "Feature",
      "geometry": {
        "type": "Point",
        "coordinates": [
          23.6600787,
          38.0127623
        ]
      },
      "properties": {
        "type": "stop",
        "StopCode": "470127",
        "StopID": "470127",
        "StopDescr": "ΟΤΕ - ΔΗΜΑΡΧΕΙΟ",
        "StopOrder": "34",
        "StopType": "0"
      }
    },
    {
      "type": "Feature",
      "geometry": {
        "type": "Point",
        "coordinates": [
          23.6570144,
          38.0127534
        ]
      },
      "properties": {
        "type": "stop",
        "StopCode": "470006",
        "StopID": "470006",
        "StopDescr": "ΔΗΜΑΡΧΕΙΟ",
        "StopOrder": "35",
        "StopType": "0"
      }
    },
    {
      "type": "Feature",
      "geometry": {
        "type": "Point",
        "coordinates": [
          23.6532249,
          38.0119222
        ]
      },
      "properties": {
        "type": "stop",
        "StopCode": "470007",
        "StopID": "470007",
        "StopDescr": "ΜΥΛΩΝΑ",
        "StopOrder": "36",
        "StopType": "0"
      }
    },
    {
      "type": "Feature",
      "geometry": {
        "type": "Point",
        "coordinates": [
          23.6502672,
          38.0109828
        ]
      },
      "properties": {
        "type": "stop",
        "StopCode": "470008",
        "StopID": "470008",
        "StopDescr": "ΦΟΥΡΝΟΣ",
        "StopOrder": "37",
        "StopType": "0"
      }
    },
    {
      "type": "Feature",
      "geometry": {
        "type": "Point",
        "coordinates": [
          23.6467408,
          38.0110157
        ]
      },
      "properties": {
        "type": "stop",
        "StopCode": "470022",
        "StopID": "470022",
        "StopDescr": "ΔΑΦΝΙ",
        "StopOrder": "38",
        "StopType": "0"
      }
    },
    {
      "type": "Feature",
      "geometry": {
        "type": "Point",
        "coordinates": [
          23.6399203,
          38.0127378
        ]
      },
      "properties": {
        "type": "stop",
        "StopCode": "470023",
        "StopID": "470023",
        "StopDescr": "ΨΥΧΙΑΤΡΕΙΟΝ - ΜΟΝΗ  ΔΑΦΝΙΟΥ",
        "StopOrder": "39",
        "StopType": "0"
      }
    },
    {
      "type": "Feature",
      "geometry": {
        "type": "Point",
        "coordinates": [
          23.6353894,
          38.0136952
        ]
      },
      "properties": {
        "type": "stop",
        "StopCode": "470024",
        "StopID": "470024",
        "StopDescr": "ΒΥΖΑΝΤΙΟΥ",
        "StopOrder": "40",
        "StopType": "0"
      }
    },
    {
      "type": "Feature",
      "geometry": {
        "type": "Point",
        "coordinates": [
          23.6159484,
          38.0123386
        ]
      },
      "properties": {
        "type": "stop",
        "StopCode": "470026",
        "StopID": "470026",
        "StopDescr": "1η ΑΦΑΙΑΣ - ΙΕΡΟ ΑΦΡΟΔΙΤΗΣ",
        "StopOrder": "41",
        "StopType": "0"
      }
    },
    {
      "type": "Feature",
      "geometry": {
        "type": "Point",
        "coordinates": [
          23.6116147,
          38.0117126
        ]
      },
      "properties": {
        "type": "stop",
        "StopCode": "470027",
        "StopID": "470027",
        "StopDescr": "2η ΑΦΑΙΑΣ",
        "StopOrder": "42",
        "StopType": "0"
      }
    },
    {
      "type": "Feature",
      "geometry": {
        "type": "Point",
        "coordinates": [
          23.5989149,
          38.0157756
        ]
      },
      "properties": {
        "type": "stop",
        "StopCode": "470030",
        "StopID": "470030",
        "StopDescr": "ΣΚΑΡΑΜΑΓΚΑΣ",
        "StopOrder": "43",
        "StopType": "0"
      }
    },
    {
      "type": "Feature",
      "geometry": {
        "type": "Point",
        "coordinates": [
          23.5980559,
          38.0284189
        ]
      },
      "properties": {
        "type": "stop",
        "StopCode": "120002",
        "StopID": "120002",
        "StopDescr": "ΔΙΥΛΙΣΤΗΡΙΑ",
        "StopOrder": "44",
        "StopType": "0"
      }
    },
    {
      "type": "Feature",
      "geometry": {
        "type": "Point",
        "coordinates": [
          23.5953212,
          38.0334796
        ]
      },
      "properties": {
        "type": "stop",
        "StopCode": "120008",
        "StopID": "120008",
        "StopDescr": "ΧΑΛΥΒΟΥΡΓΕΙΑ",
        "StopOrder": "45",
        "StopType": "0"
      }
    },
    {
      "type": "Feature",
      "geometry": {
        "type": "Point",
        "coordinates": [
          23.5931533,
          38.0371809
        ]
      },
      "properties": {
        "type": "stop",
        "StopCode": "120009",
        "StopID": "120009",
        "StopDescr": "ΧΑΛΥΨ",
        "StopOrder": "46",
        "StopType": "0"
      }
    },
    {
      "type": "Feature",
      "geometry": {
        "type": "Point",
        "coordinates": [
          23.5901487,
          38.0398969
        ]
      },
      "properties": {
        "type": "stop",
        "StopCode": "120010",
        "StopID": "120010",
        "StopDescr": "ΛΟΥΖΙΤΑΝΙΑ",
        "StopOrder": "47",
        "StopType": "0"
      }
    },
    {
      "type": "Feature",
      "geometry": {
        "type": "Point",
        "coordinates": [
          23.5833462,
          38.0440572
        ]
      },
      "properties": {
        "type": "stop",
        "StopCode": "120037",
        "StopID": "120037",
        "StopDescr": "ΙΚΑ",
        "StopOrder": "48",
        "StopType": "0"
      }
    },
    {
      "type": "Feature",
      "geometry": {
        "type": "Point",
        "coordinates": [
          23.5810616,
          38.0450492
        ]
      },
      "properties": {
        "type": "stop",
        "StopCode": "120038",
        "StopID": "120038",
        "StopDescr": "ΠΑΡΑΔΕΙΣΟΣ",
        "StopOrder": "49",
        "StopType": "0"
      }
    },
    {
      "type": "Feature",
      "geometry": {
        "type": "Point",
        "coordinates": [
          23.5776449,
          38.0467613
        ]
      },
      "properties": {
        "type": "stop",
        "StopCode": "120039",
        "StopID": "120039",
        "StopDescr": "ΦΟΙΝΙΞ",
        "StopOrder": "50",
        "StopType": "0"
      }
    },
    {
      "type": "Feature",
      "geometry": {
        "type": "Point",
        "coordinates": [
          23.5716051,
          38.0491299
        ]
      },
      "properties": {
        "type": "stop",
        "StopCode": "120040",
        "StopID": "120040",
        "StopDescr": "ΠΕΤΡΟΛΙΝΑ",
        "StopOrder": "51",
        "StopType": "0"
      }
    },
    {
      "type": "Feature",
      "geometry": {
        "type": "Point",
        "coordinates": [
          23.5627766,
          38.0502264
        ]
      },
      "properties": {
        "type": "stop",
        "StopCode": "190001",
        "StopID": "190001",
        "StopDescr": "ΑΓΓΕΛΟΠΟΥΛΟΥ",
        "StopOrder": "52",
        "StopType": "0"
      }
    },
    {
      "type": "Feature",
      "geometry": {
        "type": "Point",
        "coordinates": [
          23.5513217,
          38.0475331
        ]
      },
      "properties": {
        "type": "stop",
        "StopCode": "190004",
        "StopID": "190004",
        "StopDescr": "ΛΕΥΚΕΣ",
        "StopOrder": "53",
        "StopType": "0"
      }
    },
    {
      "type": "Feature",
      "geometry": {
        "type": "Point",
        "coordinates": [
          23.546949,
          38.0457741
        ]
      },
      "properties": {
        "type": "stop",
        "StopCode": "190005",
        "StopID": "190005",
        "StopDescr": "2η ΑΕΡΟΔΡΟΜΙΟΥ",
        "StopOrder": "54",
        "StopType": "0"
      }
    },
    {
      "type": "Feature",
      "geometry": {
        "type": "Point",
        "coordinates": [
          23.5443201,
          38.0439793
        ]
      },
      "properties": {
        "type": "stop",
        "StopCode": "190007",
        "StopID": "190007",
        "StopDescr": "1η ΜΟΥΡΙΚΗ",
        "StopOrder": "55",
        "StopType": "0"
      }
    },
    {
      "type": "Feature",
      "geometry": {
        "type": "Point",
        "coordinates": [
          23.5450903,
          38.041748
        ]
      },
      "properties": {
        "type": "stop",
        "StopCode": "190008",
        "StopID": "190008",
        "StopDescr": "2η ΜΟΥΡΙΚΗ",
        "StopOrder": "56",
        "StopType": "0"
      }
    },
    {
      "type": "Feature",
      "geometry": {
        "type": "Point",
        "coordinates": [
          23.5462277,
          38.0384753
        ]
      },
      "properties": {
        "type": "stop",
        "StopCode": "190053",
        "StopID": "190053",
        "StopDescr": "3η ΜΟΥΡΙΚΗ",
        "StopOrder": "57",
        "StopType": "0"
      }
    },
    {
      "type": "Feature",
      "geometry": {
        "type": "Point",
        "coordinates": [
          23.5465344,
          38.0347715
        ]
      },
      "properties": {
        "type": "stop",
        "StopCode": "190068",
        "StopID": "190068",
        "StopDescr": "ΤΕΛΩΝΕΙΟ",
        "StopOrder": "58",
        "StopType": "0"
      }
    },
    {
      "type": "Feature",
      "geometry": {
        "type": "Point",
        "coordinates": [
          23.5439413,
          38.0351806
        ]
      },
      "properties": {
        "type": "stop",
        "StopCode": "190055",
        "StopID": "190055",
        "StopDescr": "ΛΙΜΑΝΑΚΙ",
        "StopOrder": "59",
        "StopType": "0"
      }
    },
    {
      "type": "Feature",
      "geometry": {
        "type": "Point",
        "coordinates": [
          23.5414284,
          38.0355608
        ]
      },
      "properties": {
        "type": "stop",
        "StopCode": "11918",
        "StopID": "190061",
        "StopDescr": "ΤΕΡΜΑ - ΑΠΟΒΙΒΑΣΗ",
        "StopOrder": "60",
        "StopType": "0"
      }
    },
    {
      "type": "Feature",
      "geometry": {
        "type": "Point",
        "coordinates": [
          23.5399225,
          38.035942
        ]
      },
      "properties": {
        "type": "stop",
        "StopCode": "10156",
        "StopID": "03",
        "StopDescr": "ΕΛΕΥΣΙΝΑ",
        "StopOrder": "61",
        "StopType": "0"
      }
    }
  ]
}