{
  "type": "FeatureCollection",
  "features": [
    {
      "type": "Feature",
      "properties": {
        "type": "route_path",
        "route_code": "4731",
        "descr": "ΝΙΚΑΙΑ - ΣΤ. ΝΙΚΑΙΑ"
      },
      "geometry": {
        "type": "LineString",
        "coordinates": [
          [
            23.62646,
            37.98659
          ],
          [
            23.62679,
            37.98663
          ],
          [
            23.62691,
            37.9867
          ],
          [
            23.62708,
            37.98681
          ],
          [
            23.62771,
            37.98695
          ],
          [
            23.62799,
            37.98689
          ],
          [
            23.62823,
            37.9872
          ],
          [
            23.62995,
            37.98639
          ],
          [
            23.63799,
            37.98244
          ],
          [
            23.63885,
            37.98283
          ],
          [
            23.63903,
            37.98299
          ],
          [
            23.63907,
            37.98277
          ],
          [
            23.63912,
            37.98252
          ],
          [
            23.63935,
            37.98218
          ],
          [
            23.63977,
            37.98186
          ],
          [
            23.63976,
            37.9812
          ],
          [
            23.64039,
            37.97899
          ],
          [
            23.63626,
            37.97822
          ],
          [
            23.63556,
            37.97816
          ],
          [
            23.63152,
            37.97793
          ],
          [
            23.63165,
            37.97541
          ],
          [
            23.63223,
            37.97541
          ],
          [
            23.63249,
            37.97534
          ],
          [
            23.63384,
            37.9775
          ],
          [
            23.63412,
            37.97795
          ],
          [
            23.63609,
            37.97808
          ],
          [
            23.6404,
            37.9789
          ],
          [
            23.64047,
            37.9787
          ],
          [
            23.64124,
            37.97617
          ],
          [
            23.64099,
            37.97604
          ],
          [
            23.64078,
            37.97579
          ],
          [
            23.64074,
            37.97549
          ],
          [
            23.64083,
            37.97536
          ],
          [
            23.64149,
            37.97557
          ],
          [
            23.6448,
            37.96918
          ],
          [
            23.64709,
            37.96481
          ],
          [
            23.64773,
            37.96499
          ],
          [
            23.64856,
            37.96333
          ],
          [
            23.64864,
            37.96334
          ],
          [
            23.64875,
            37.96327
          ],
          [
            23.64896,
            37.96312
          ],
          [
            23.64915,
            37.96296
          ],
          [
            23.6493,
            37.9629
          ],
          [
            23.64933,
            37.96268
          ],
          [
            23.64935,
            37.96219
          ],
          [
            23.64936,
            37.96204
          ],
          [
            23.64945,
            37.96188
          ],
          [
            23.64942,
            37.96131
          ],
          [
            23.6494,
            37.96113
          ],
          [
            23.6494,
            37.96085
          ],
          [
            23.64927,
            37.9604
          ],
          [
            23.6487,
            37.96062
          ],
          [
            23.6474,
            37.96126
          ],
          [
            23.64681,
            37.96152
          ],
          [
            23.64653,
            37.96177
          ],
          [
            23.64544,
            37.9626
          ],
          [
            23.64497,
            37.96304
          ],
          [
            23.64567,
            37.9631
          ],
          [
            23.64683,
            37.96319
          ],
          [
            23.64922,
            37.96339
          ],
          [
            23.64922,
            37.96362
          ],
          [
            23.64904,
            37.96395
          ],
          [
            23.64779,
            37.96636
          ],
          [
            23.64572,
            37.97037
          ],
          [
            23.64489,
            37.97193
          ],
          [
            23.64275,
            37.97601
          ],
          [
            23.64212,
            37.97581
          ],
          [
            23.64195,
            37.97601
          ],
          [
            23.64161,
            37.97619
          ],
          [
            23.64128,
            37.97617
          ],
          [
            23.64048,
            37.97884
          ],
          [
            23.63984,
            37.98104
          ],
          [
            23.63748,
            37.98219
          ],
          [
            23.63187,
            37.98491
          ],
          [
            23.6313,
            37.9849
          ],
          [
            23.63079,
            37.98542
          ],
          [
            23.62959,
            37.98598
          ],
          [
            23.62853,
            37.9867
          ],
          [
            23.62797,
            37.98699
          ],
          [
            23.62779,
            37.98701
          ],
          [
            23.62694,
            37.98679
          ],
          [
            23.62645,
            37.98668
          ]
        ]
      }
    },
    {
      "type": "Feature",
      "properties": {
        "type": "stop",
        "stop_code": "10227",
        "stop_id": "61",
        "name": "ΝΕΑΠΟΛΗ",
        "order": "1"
      },
      "geometry": {
        "type": "Point",
        "coordinates": [
          23.626504,
          37.986699
        ]
      }
    },
    {
      "type": "Feature",
      "properties": {
        "type": "stop",
        "stop_code": "370114",
        "stop_id": "370114",
        "name": "ΠΑΛ. ΤΕΡΜΑ",
        "order": "2"
      },
      "geometry": {
        "type": "Point",
        "coordinates": [
          23.6276314,
          37.9868689
        ]
      }
    },
    {
      "type": "Feature",
      "properties": {
        "type": "stop",
        "stop_code": "370139",
        "stop_id": "370139",
        "name": "1η ΓΚΟΥΡΑ",
        "order": "3"
      },
      "geometry": {
        "type": "Point",
        "coordinates": [
          23.6302409,
          37.9861206
        ]
      }
    },
    {
      "type": "Feature",
      "properties": {
        "type": "stop",
        "stop_code": "370185",
        "stop_id": "370185",
        "name": "ΠΑΙΔΙΚΗ ΧΑΡΑ",
        "order": "4"
      },
      "geometry": {
        "type": "Point",
        "coordinates": [
          23.6315193,
          37.9855207
        ]
      }
    },
    {
      "type": "Feature",
      "properties": {
        "type": "stop",
        "stop_code": "370140",
        "stop_id": "370140",
        "name": "2η ΓΚΟΥΡΑ",
        "order": "5"
      },
      "geometry": {
        "type": "Point",
        "coordinates": [
          23.6325923,
          37.9850103
        ]
      }
    },
    {
      "type": "Feature",
      "properties": {
        "type": "stop",
        "stop_code": "370141",
        "stop_id": "370141",
        "name": "3η ΓΚΟΥΡΑ",
        "order": "6"
      },
      "geometry": {
        "type": "Point",
        "coordinates": [
          23.6369188,
          37.9828337
        ]
      }
    },
    {
      "type": "Feature",
      "properties": {
        "type": "stop",
        "stop_code": "370086",
        "stop_id": "370086",
        "name": "ΠΛ. ΑΝΑΛΗΨΕΩΣ",
        "order": "7"
      },
      "geometry": {
        "type": "Point",
        "coordinates": [
          23.63963,
          37.9814807
        ]
      }
    },
    {
      "type": "Feature",
      "properties": {
        "type": "stop",
        "stop_code": "370040",
        "stop_id": "370040",
        "name": "ΚΟΡΥΔΑΛΛΟΣ",
        "order": "8"
      },
      "geometry": {
        "type": "Point",
        "coordinates": [
          23.6400232,
          37.9790488
        ]
      }
    },
    {
      "type": "Feature",
      "properties": {
        "type": "stop",
        "stop_code": "370041",
        "stop_id": "370041",
        "name": "ΓΗΠΕΔΟ",
        "order": "9"
      },
      "geometry": {
        "type": "Point",
        "coordinates": [
          23.6352678,
          37.978205
        ]
      }
    },
    {
      "type": "Feature",
      "properties": {
        "type": "stop",
        "stop_code": "370175",
        "stop_id": "370175",
        "name": "ΤΡΟΙΑΣ",
        "order": "10"
      },
      "geometry": {
        "type": "Point",
        "coordinates": [
          23.6334809,
          37.9781135
        ]
      }
    },
    {
      "type": "Feature",
      "properties": {
        "type": "stop",
        "stop_code": "260076",
        "stop_id": "260076",
        "name": "ΑΡΙΑΔΝΗΣ",
        "order": "11"
      },
      "geometry": {
        "type": "Point",
        "coordinates": [
          23.631469,
          37.9773549
        ]
      }
    },
    {
      "type": "Feature",
      "properties": {
        "type": "stop",
        "stop_code": "260101",
        "stop_id": "260101",
        "name": "ΘΗΣΕΩΣ",
        "order": "12"
      },
      "geometry": {
        "type": "Point",
        "coordinates": [
          23.6314875,
          37.975931
        ]
      }
    },
    {
      "type": "Feature",
      "properties": {
        "type": "stop",
        "stop_code": "370182",
        "stop_id": "370182",
        "name": "ΠΛΑΤΕΙΑ",
        "order": "13"
      },
      "geometry": {
        "type": "Point",
        "coordinates": [
          23.6323221,
          37.9752576
        ]
      }
    },
    {
      "type": "Feature",
      "properties": {
        "type": "stop",
        "stop_code": "370183",
        "stop_id": "370183",
        "name": "ΑΚΡΟΠΟΛΕΩΣ",
        "order": "14"
      },
      "geometry": {
        "type": "Point",
        "coordinates": [
          23.6337591,
          37.9770647
        ]
      }
    },
    {
      "type": "Feature",
      "properties": {
        "type": "stop",
        "stop_code": "370045",
        "stop_id": "370045",
        "name": "ΓΗΠΕΔΟ",
        "order": "15"
      },
      "geometry": {
        "type": "Point",
        "coordinates": [
          23.6351443,
          37.9778621
        ]
      }
    },
    {
      "type": "Feature",
      "properties": {
        "type": "stop",
        "stop_code": "370184",
        "stop_id": "370184",
        "name": "ΣΠΑΘΑ",
        "order": "16"
      },
      "geometry": {
        "type": "Point",
        "coordinates": [
          23.6373367,
          37.9782256
        ]
      }
    },
    {
      "type": "Feature",
      "properties": {
        "type": "stop",
        "stop_code": "370108",
        "stop_id": "370108",
        "name": "ΕΥΑΓΓΕΛΙΣΤΡΙΑ",
        "order": "17"
      },
      "geometry": {
        "type": "Point",
        "coordinates": [
          23.6404604,
          37.9781308
        ]
      }
    },
    {
      "type": "Feature",
      "properties": {
        "type": "stop",
        "stop_code": "370062",
        "stop_id": "370062",
        "name": "ΑΝΩΓΕΙΩΝ",
        "order": "18"
      },
      "geometry": {
        "type": "Point",
        "coordinates": [
          23.6411782,
          37.9754312
        ]
      }
    },
    {
      "type": "Feature",
      "properties": {
        "type": "stop",
        "stop_code": "370063",
        "stop_id": "370063",
        "name": "ΜΟΣΧΟΝΗΣΙΩΝ",
        "order": "19"
      },
      "geometry": {
        "type": "Point",
        "coordinates": [
          23.6421142,
          37.9742431
        ]
      }
    },
    {
      "type": "Feature",
      "properties": {
        "type": "stop",
        "stop_code": "370073",
        "stop_id": "370073",
        "name": "ΑΡΚΑΔΙΟΥ",
        "order": "20"
      },
      "geometry": {
        "type": "Point",
        "coordinates": [
          23.6427521,
          37.9728112
        ]
      }
    },
    {
      "type": "Feature",
      "properties": {
        "type": "stop",
        "stop_code": "370064",
        "stop_id": "370064",
        "name": "ΑΓ. ΓΕΩΡΓΙΟΣ",
        "order": "21"
      },
      "geometry": {
        "type": "Point",
        "coordinates": [
          23.6434645,
          37.9714614
        ]
      }
    },
    {
      "type": "Feature",
      "properties": {
        "type": "stop",
        "stop_code": "370065",
        "stop_id": "370065",
        "name": "ΛΑΟΔΙΚΕΙΑΣ",
        "order": "22"
      },
      "geometry": {
        "type": "Point",
        "coordinates": [
          23.6446714,
          37.9690767
        ]
      }
    },
    {
      "type": "Feature",
      "properties": {
        "type": "stop",
        "stop_code": "370014",
        "stop_id": "370014",
        "name": "ΣΤΡΟΦΗ",
        "order": "23"
      },
      "geometry": {
        "type": "Point",
        "coordinates": [
          23.6451421,
          37.9682669
        ]
      }
    },
    {
      "type": "Feature",
      "properties": {
        "type": "stop",
        "stop_code": "370132",
        "stop_id": "370132",
        "name": "ΚΑΙΣΑΡΕΙΑΣ",
        "order": "24"
      },
      "geometry": {
        "type": "Point",
        "coordinates": [
          23.6454994,
          37.9673577
        ]
      }
    },
    {
      "type": "Feature",
      "properties": {
        "type": "stop",
        "stop_code": "370098",
        "stop_id": "370098",
        "name": "ΣΤ. ΝΙΚΑΙΑ",
        "order": "25"
      },
      "geometry": {
        "type": "Point",
        "coordinates": [
          23.6463457,
          37.966102
        ]
      }
    },
    {
      "type": "Feature",
      "properties": {
        "type": "stop",
        "stop_code": "11438",
        "stop_id": "370900",
        "name": "ΕΦΕΣΟΥ",
        "order": "26"
      },
      "geometry": {
        "type": "Point",
        "coordinates": [
          23.6469576,
          37.9649446
        ]
      }
    },
    {
      "type": "Feature",
      "properties": {
        "type": "stop",
        "stop_code": "11726",
        "stop_id": "370901",
        "name": "ΔΗΜΑΡΧΕΙΟ",
        "order": "27"
      },
      "geometry": {
        "type": "Point",
        "coordinates": [
          23.6482054,
          37.9640374
        ]
      }
    },
    {
      "type": "Feature",
      "properties": {
        "type": "stop",
        "stop_code": "11543",
        "stop_id": "370169",
        "name": "7ης ΜΑΡΤΗ",
        "order": "28"
      },
      "geometry": {
        "type": "Point",
        "coordinates": [
          23.6492672,
          37.9626449
        ]
      }
    },
    {
      "type": "Feature",
      "properties": {
        "type": "stop",
        "stop_code": "400239",
        "stop_id": "400239",
        "name": "ΑΓ. ΑΝΑΡΓΥΡΟΙ",
        "order": "29"
      },
      "geometry": {
        "type": "Point",
        "coordinates": [
          23.6491849,
          37.9608435
        ]
      }
    },
    {
      "type": "Feature",
      "properties": {
        "type": "stop",
        "stop_code": "400237",
        "stop_id": "400237",
        "name": "1η ΒΑΛΑΩΡΙΤΟΥ",
        "order": "30"
      },
      "geometry": {
        "type": "Point",
        "coordinates": [
          23.6487871,
          37.9607161
        ]
      }
    },
    {
      "type": "Feature",
      "properties": {
        "type": "stop",
        "stop_code": "400491",
        "stop_id": "400491",
        "name": "2η ΒΑΛΑΩΡΙΤΟΥ",
        "order": "31"
      },
      "geometry": {
        "type": "Point",
        "coordinates": [
          23.6462761,
          37.9620875
        ]
      }
    },
    {
      "type": "Feature",
      "properties": {
        "type": "stop",
        "stop_code": "370154",
        "stop_id": "370154",
        "name": "ΚΥΠΡΟΥ",
        "order": "32"
      },
      "geometry": {
        "type": "Point",
        "coordinates": [
          23.6466471,
          37.9630711
        ]
      }
    },
    {
      "type": "Feature",
      "properties": {
        "type": "stop",
        "stop_code": "370080",
        "stop_id": "370080",
        "name": "ΓΕΦΥΡΑ",
        "order": "33"
      },
      "geometry": {
        "type": "Point",
        "coordinates": [
          23.649124,
          37.9640789
        ]
      }
    },
    {
      "type": "Feature",
      "properties": {
        "type": "stop",
        "stop_code": "370081",
        "stop_id": "370081",
        "name": "ΑΓ. ΝΙΚΟΛΑΟΣ - ΣΤ. ΝΙΚΑΙΑ",
        "order": "34"
      },
      "geometry": {
        "type": "Point",
        "coordinates": [
          23.6478143,
          37.9665715
        ]
      }
    },
    {
      "type": "Feature",
      "properties": {
        "type": "stop",
        "stop_code": "370052",
        "stop_id": "370052",
        "name": "Π. ΡΑΛΛΗ",
        "order": "35"
      },
      "geometry": {
        "type": "Point",
        "coordinates": [
          23.6469292,
          37.9683444
        ]
      }
    },
    {
      "type": "Feature",
      "properties": {
        "type": "stop",
        "stop_code": "370053",
        "stop_id": "370053",
        "name": "ΑΓ. ΓΕΩΡΓΙΟΣ",
        "order": "36"
      },
      "geometry": {
        "type": "Point",
        "coordinates": [
          23.6454582,
          37.9711971
        ]
      }
    },
    {
      "type": "Feature",
      "properties": {
        "type": "stop",
        "stop_code": "370054",
        "stop_id": "370054",
        "name": "ΦΙΛΑΔΕΛΦΕΙΑΣ",
        "order": "37"
      },
      "geometry": {
        "type": "Point",
        "coordinates": [
          23.644034,
          37.9737705
        ]
      }
    },
    {
      "type": "Feature",
      "properties": {
        "type": "stop",
        "stop_code": "370178",
        "stop_id": "370178",
        "name": "ΠΛ. ΚΡΗΝΗΣ",
        "order": "38"
      },
      "geometry": {
        "type": "Point",
        "coordinates": [
          23.6415565,
          37.9761957
        ]
      }
    },
    {
      "type": "Feature",
      "properties": {
        "type": "stop",
        "stop_code": "370107",
        "stop_id": "370107",
        "name": "ΕΥΑΓΓΕΛΙΣΤΡΙΑΣ",
        "order": "39"
      },
      "geometry": {
        "type": "Point",
        "coordinates": [
          23.6408357,
          37.9782311
        ]
      }
    },
    {
      "type": "Feature",
      "properties": {
        "type": "stop",
        "stop_code": "370168",
        "stop_id": "370168",
        "name": "ΠΛ. ΑΝΑΛΗΨΕΩΣ",
        "order": "40"
      },
      "geometry": {
        "type": "Point",
        "coordinates": [
          23.6393857,
          37.9813541
        ]
      }
    },
    {
      "type": "Feature",
      "properties": {
        "type": "stop",
        "stop_code": "370092",
        "stop_id": "370092",
        "name": "1η Κ. ΠΑΛΑΜΑ",
        "order": "41"
      },
      "geometry": {
        "type": "Point",
        "coordinates": [
          23.6363122,
          37.982816
        ]
      }
    },
    {
      "type": "Feature",
      "properties": {
        "type": "stop",
        "stop_code": "370123",
        "stop_id": "370123",
        "name": "ΚΟΙΜ. ΘΕΟΤΟΚΟΥ",
        "order": "42"
      },
      "geometry": {
        "type": "Point",
        "coordinates": [
          23.634797,
          37.9836022
        ]
      }
    },
    {
      "type": "Feature",
      "properties": {
        "type": "stop",
        "stop_code": "370126",
        "stop_id": "370126",
        "name": "2η ΠΑΛΑΜΑ",
        "order": "43"
      },
      "geometry": {
        "type": "Point",
        "coordinates": [
          23.6331419,
          37.9844082
        ]
      }
    },
    {
      "type": "Feature",
      "properties": {
        "type": "stop",
        "stop_code": "370186",
        "stop_id": "370186",
        "name": "ΠΛ. ΑΘΗΝΑΣ ΜΑΥΡΟΥ",
        "order": "44"
      },
      "geometry": {
        "type": "Point",
        "coordinates": [
          23.631052,
          37.985195
        ]
      }
    },
    {
      "type": "Feature",
      "properties": {
        "type": "stop",
        "stop_code": "370173",
        "stop_id": "370173",
        "name": "ΜΟΥΧΤΟΥΡΗ",
        "order": "45"
      },
      "geometry": {
        "type": "Point",
        "coordinates": [
          23.6295253,
          37.9860676
        ]
      }
    },
    {
      "type": "Feature",
      "properties": {
        "type": "stop",
        "stop_code": "370113",
        "stop_id": "370113",
        "name": "ΠΑΛ. ΤΕΡΜΑ",
        "order": "46"
      },
      "geometry": {
        "type": "Point",
        "coordinates": [
          23.6281608,
          37.9869392
        ]
      }
    },
    {
      "type": "Feature",
      "properties": {
        "type": "stop",
        "stop_code": "10227",
        "stop_id": "61",
        "name": "ΝΕΑΠΟΛΗ",
        "order": "47"
      },
      "geometry": {
        "type": "Point",
        "coordinates": [
          23.626504,
          37.986699
        ]
      }
    }
  ]
}