{
  "type": "FeatureCollection",
  "features": [
    {
      "type": "Feature",
      "properties": {
        "type": "route_path",
        "route_code": "5479",
        "descr": "ΓΛΥΦΑΔΑ - ΑΓΙΑ ΤΡΙΑΔΑ - ΣΤ. ΑΡΓΥΡΟΥΠΟΛΗΣ [Εναλλακτική λόγω λαϊκής κάθε Πέμπτη 06:00-18:00]"
      },
      "geometry": {
        "type": "LineString",
        "coordinates": [
          [
            23.74047,
            37.87318
          ],
          [
            23.7404,
            37.87285
          ],
          [
            23.74031,
            37.87233
          ],
          [
            23.74052,
            37.87144
          ],
          [
            23.74317,
            37.86858
          ],
          [
            23.74451,
            37.86746
          ],
          [
            23.74498,
            37.86679
          ],
          [
            23.74531,
            37.86612
          ],
          [
            23.74525,
            37.86551
          ],
          [
            23.74522,
            37.86546
          ],
          [
            23.74675,
            37.86454
          ],
          [
            23.7517,
            37.8693
          ],
          [
            23.75222,
            37.86999
          ],
          [
            23.75242,
            37.87008
          ],
          [
            23.75369,
            37.86961
          ],
          [
            23.75447,
            37.86917
          ],
          [
            23.755,
            37.86854
          ],
          [
            23.75529,
            37.86783
          ],
          [
            23.7555,
            37.86755
          ],
          [
            23.7569,
            37.86673
          ],
          [
            23.75702,
            37.8668
          ],
          [
            23.7582,
            37.86893
          ],
          [
            23.75864,
            37.86954
          ],
          [
            23.75925,
            37.86973
          ],
          [
            23.7594,
            37.8698
          ],
          [
            23.75943,
            37.86988
          ],
          [
            23.75924,
            37.87054
          ],
          [
            23.75931,
            37.87067
          ],
          [
            23.76025,
            37.87141
          ],
          [
            23.76038,
            37.87143
          ],
          [
            23.7605,
            37.87135
          ],
          [
            23.7609,
            37.87067
          ],
          [
            23.76118,
            37.87019
          ],
          [
            23.76382,
            37.87118
          ],
          [
            23.76427,
            37.87045
          ],
          [
            23.76469,
            37.86987
          ],
          [
            23.76812,
            37.87124
          ],
          [
            23.76853,
            37.87133
          ],
          [
            23.76908,
            37.87022
          ],
          [
            23.76925,
            37.8702
          ],
          [
            23.77038,
            37.87139
          ],
          [
            23.77054,
            37.87173
          ],
          [
            23.77049,
            37.87317
          ],
          [
            23.77042,
            37.87457
          ],
          [
            23.77031,
            37.87457
          ],
          [
            23.76863,
            37.87464
          ],
          [
            23.76736,
            37.87451
          ],
          [
            23.7673,
            37.87463
          ],
          [
            23.76731,
            37.87474
          ],
          [
            23.76729,
            37.87592
          ],
          [
            23.76662,
            37.8792
          ],
          [
            23.76653,
            37.87988
          ],
          [
            23.77115,
            37.88249
          ],
          [
            23.77146,
            37.88285
          ],
          [
            23.77014,
            37.88399
          ],
          [
            23.76973,
            37.88428
          ],
          [
            23.77216,
            37.88554
          ],
          [
            23.77243,
            37.88568
          ],
          [
            23.77342,
            37.88478
          ],
          [
            23.77414,
            37.88525
          ],
          [
            23.77519,
            37.88629
          ],
          [
            23.77596,
            37.88748
          ],
          [
            23.77662,
            37.88892
          ],
          [
            23.77682,
            37.8898
          ],
          [
            23.77693,
            37.89031
          ],
          [
            23.76199,
            37.89115
          ],
          [
            23.7618,
            37.89113
          ],
          [
            23.76107,
            37.89118
          ],
          [
            23.76096,
            37.89121
          ],
          [
            23.76092,
            37.89128
          ],
          [
            23.76072,
            37.89232
          ],
          [
            23.76047,
            37.89246
          ],
          [
            23.74783,
            37.89222
          ],
          [
            23.74748,
            37.893
          ],
          [
            23.74714,
            37.89504
          ],
          [
            23.74683,
            37.8974
          ],
          [
            23.74616,
            37.90196
          ],
          [
            23.74596,
            37.90498
          ],
          [
            23.74584,
            37.90607
          ],
          [
            23.7452,
            37.90608
          ],
          [
            23.74541,
            37.90498
          ],
          [
            23.74563,
            37.90389
          ],
          [
            23.74629,
            37.89901
          ],
          [
            23.74665,
            37.89679
          ],
          [
            23.74698,
            37.89461
          ],
          [
            23.747,
            37.89447
          ],
          [
            23.74733,
            37.89293
          ],
          [
            23.74765,
            37.89225
          ],
          [
            23.7478,
            37.89209
          ],
          [
            23.76014,
            37.89241
          ],
          [
            23.7606,
            37.89235
          ],
          [
            23.76068,
            37.89225
          ],
          [
            23.76083,
            37.89131
          ],
          [
            23.76087,
            37.89114
          ],
          [
            23.77687,
            37.89025
          ],
          [
            23.7766,
            37.8891
          ],
          [
            23.7759,
            37.88749
          ],
          [
            23.77526,
            37.88651
          ],
          [
            23.77464,
            37.88583
          ],
          [
            23.77387,
            37.88514
          ],
          [
            23.77344,
            37.8849
          ],
          [
            23.77055,
            37.88743
          ],
          [
            23.76967,
            37.88689
          ],
          [
            23.7618,
            37.8812
          ],
          [
            23.75968,
            37.8796
          ],
          [
            23.75977,
            37.87954
          ],
          [
            23.76631,
            37.87972
          ],
          [
            23.76645,
            37.8796
          ],
          [
            23.76725,
            37.8759
          ],
          [
            23.76718,
            37.87561
          ],
          [
            23.76678,
            37.87492
          ],
          [
            23.76711,
            37.87437
          ],
          [
            23.76806,
            37.87452
          ],
          [
            23.76896,
            37.87458
          ],
          [
            23.76988,
            37.87452
          ],
          [
            23.77036,
            37.87447
          ],
          [
            23.77042,
            37.87276
          ],
          [
            23.77045,
            37.8717
          ],
          [
            23.7686,
            37.87137
          ],
          [
            23.76843,
            37.87147
          ],
          [
            23.76812,
            37.87214
          ],
          [
            23.76775,
            37.87273
          ],
          [
            23.76125,
            37.87027
          ],
          [
            23.76118,
            37.87033
          ],
          [
            23.76075,
            37.87105
          ],
          [
            23.76037,
            37.87163
          ],
          [
            23.76012,
            37.87148
          ],
          [
            23.75945,
            37.87091
          ],
          [
            23.75896,
            37.87061
          ],
          [
            23.75894,
            37.87048
          ],
          [
            23.75909,
            37.86988
          ],
          [
            23.75899,
            37.86978
          ],
          [
            23.7585,
            37.86962
          ],
          [
            23.75838,
            37.86939
          ],
          [
            23.75708,
            37.86704
          ],
          [
            23.75695,
            37.86688
          ],
          [
            23.75336,
            37.86349
          ],
          [
            23.75308,
            37.86328
          ],
          [
            23.75048,
            37.86065
          ],
          [
            23.74787,
            37.86242
          ],
          [
            23.74578,
            37.86415
          ],
          [
            23.73689,
            37.87207
          ],
          [
            23.73715,
            37.87258
          ],
          [
            23.73975,
            37.87293
          ],
          [
            23.74025,
            37.87315
          ],
          [
            23.74025,
            37.87251
          ]
        ]
      }
    },
    {
      "type": "Feature",
      "properties": {
        "type": "stop",
        "stop_code": "10284",
        "stop_id": "83",
        "name": "ΓΛΥΦΑΔΑ",
        "order": "1"
      },
      "geometry": {
        "type": "Point",
        "coordinates": [
          23.740379,
          37.8728805
        ]
      }
    },
    {
      "type": "Feature",
      "properties": {
        "type": "stop",
        "stop_code": "160349",
        "stop_id": "160349",
        "name": "ΝΑΥΣΙΚΑ",
        "order": "2"
      },
      "geometry": {
        "type": "Point",
        "coordinates": [
          23.7418141,
          37.8697548
        ]
      }
    },
    {
      "type": "Feature",
      "properties": {
        "type": "stop",
        "stop_code": "160210",
        "stop_id": "160210",
        "name": "ΑΓ. ΚΩΝΣΤΑΝΤΙΝΟΣ",
        "order": "3"
      },
      "geometry": {
        "type": "Point",
        "coordinates": [
          23.7452831,
          37.8660761
        ]
      }
    },
    {
      "type": "Feature",
      "properties": {
        "type": "stop",
        "stop_code": "12519",
        "stop_id": "160376",
        "name": "ΛΑΖΑΡΑΚΗ",
        "order": "4"
      },
      "geometry": {
        "type": "Point",
        "coordinates": [
          23.7462981,
          37.8646742
        ]
      }
    },
    {
      "type": "Feature",
      "properties": {
        "type": "stop",
        "stop_code": "160135",
        "stop_id": "160135",
        "name": "ΚΥΠΡΟΥ",
        "order": "5"
      },
      "geometry": {
        "type": "Point",
        "coordinates": [
          23.7481608,
          37.8657127
        ]
      }
    },
    {
      "type": "Feature",
      "properties": {
        "type": "stop",
        "stop_code": "160136",
        "stop_id": "160136",
        "name": "ΓΥΜΝΑΣΙΟ",
        "order": "6"
      },
      "geometry": {
        "type": "Point",
        "coordinates": [
          23.7513338,
          37.8687749
        ]
      }
    },
    {
      "type": "Feature",
      "properties": {
        "type": "stop",
        "stop_code": "160287",
        "stop_id": "160287",
        "name": "ΑΓ. ΝΙΚΟΛΑΟΣ",
        "order": "7"
      },
      "geometry": {
        "type": "Point",
        "coordinates": [
          23.7532293,
          37.8697342
        ]
      }
    },
    {
      "type": "Feature",
      "properties": {
        "type": "stop",
        "stop_code": "160144",
        "stop_id": "160144",
        "name": "ΠΑΝΔΡΟΣΟΥ",
        "order": "8"
      },
      "geometry": {
        "type": "Point",
        "coordinates": [
          23.7574209,
          37.8674356
        ]
      }
    },
    {
      "type": "Feature",
      "properties": {
        "type": "stop",
        "stop_code": "160180",
        "stop_id": "160180",
        "name": "ΟΜΗΡΟΥ",
        "order": "9"
      },
      "geometry": {
        "type": "Point",
        "coordinates": [
          23.7584611,
          37.8692223
        ]
      }
    },
    {
      "type": "Feature",
      "properties": {
        "type": "stop",
        "stop_code": "160285",
        "stop_id": "160285",
        "name": "ΕΜΜ. ΔΗΜΕΛΑ",
        "order": "10"
      },
      "geometry": {
        "type": "Point",
        "coordinates": [
          23.7597855,
          37.8710006
        ]
      }
    },
    {
      "type": "Feature",
      "properties": {
        "type": "stop",
        "stop_code": "160030",
        "stop_id": "160030",
        "name": "ΑΓΑΜΕΜΝΟΝΟΣ",
        "order": "11"
      },
      "geometry": {
        "type": "Point",
        "coordinates": [
          23.7638338,
          37.8708376
        ]
      }
    },
    {
      "type": "Feature",
      "properties": {
        "type": "stop",
        "stop_code": "160031",
        "stop_id": "160031",
        "name": "ΙΛΙΟΥ",
        "order": "12"
      },
      "geometry": {
        "type": "Point",
        "coordinates": [
          23.7651101,
          37.8699118
        ]
      }
    },
    {
      "type": "Feature",
      "properties": {
        "type": "stop",
        "stop_code": "160017",
        "stop_id": "160017",
        "name": "ΠΡΟΜΗΘΕΩΣ",
        "order": "13"
      },
      "geometry": {
        "type": "Point",
        "coordinates": [
          23.7685519,
          37.8709461
        ]
      }
    },
    {
      "type": "Feature",
      "properties": {
        "type": "stop",
        "stop_code": "160020",
        "stop_id": "160020",
        "name": "ΘΕΡΜΟΠΥΛΩΝ",
        "order": "14"
      },
      "geometry": {
        "type": "Point",
        "coordinates": [
          23.7700412,
          37.8710121
        ]
      }
    },
    {
      "type": "Feature",
      "properties": {
        "type": "stop",
        "stop_code": "160182",
        "stop_id": "160182",
        "name": "7η ΠΥΡΝΑΡΙ",
        "order": "15"
      },
      "geometry": {
        "type": "Point",
        "coordinates": [
          23.7705101,
          37.873789
        ]
      }
    },
    {
      "type": "Feature",
      "properties": {
        "type": "stop",
        "stop_code": "10954",
        "stop_id": "160366",
        "name": "ΜΕΤΣΟΒΟΥ",
        "order": "16"
      },
      "geometry": {
        "type": "Point",
        "coordinates": [
          23.7700484,
          37.8746571
        ]
      }
    },
    {
      "type": "Feature",
      "properties": {
        "type": "stop",
        "stop_code": "160149",
        "stop_id": "160149",
        "name": "2η ΜΕΤΣΟΒΟΥ",
        "order": "17"
      },
      "geometry": {
        "type": "Point",
        "coordinates": [
          23.7682785,
          37.874731
        ]
      }
    },
    {
      "type": "Feature",
      "properties": {
        "type": "stop",
        "stop_code": "160184",
        "stop_id": "160184",
        "name": "1η ΝΑΞΟΥ",
        "order": "18"
      },
      "geometry": {
        "type": "Point",
        "coordinates": [
          23.7673317,
          37.8757116
        ]
      }
    },
    {
      "type": "Feature",
      "properties": {
        "type": "stop",
        "stop_code": "160185",
        "stop_id": "160185",
        "name": "2η ΝΑΞΟΥ",
        "order": "19"
      },
      "geometry": {
        "type": "Point",
        "coordinates": [
          23.7669956,
          37.8777388
        ]
      }
    },
    {
      "type": "Feature",
      "properties": {
        "type": "stop",
        "stop_code": "160190",
        "stop_id": "160190",
        "name": "3η ΝΑΞΟΥ",
        "order": "20"
      },
      "geometry": {
        "type": "Point",
        "coordinates": [
          23.7667884,
          37.8785316
        ]
      }
    },
    {
      "type": "Feature",
      "properties": {
        "type": "stop",
        "stop_code": "160006",
        "stop_id": "160006",
        "name": "ΚΥΡΗΝΕΙΑ",
        "order": "21"
      },
      "geometry": {
        "type": "Point",
        "coordinates": [
          23.7671587,
          37.8801186
        ]
      }
    },
    {
      "type": "Feature",
      "properties": {
        "type": "stop",
        "stop_code": "160007",
        "stop_id": "160007",
        "name": "ΧΑΛΚΗΣ",
        "order": "22"
      },
      "geometry": {
        "type": "Point",
        "coordinates": [
          23.7692246,
          37.8812853
        ]
      }
    },
    {
      "type": "Feature",
      "properties": {
        "type": "stop",
        "stop_code": "160016",
        "stop_id": "160016",
        "name": "ΑΙΓΑΙΟΥ",
        "order": "23"
      },
      "geometry": {
        "type": "Point",
        "coordinates": [
          23.7707457,
          37.8821536
        ]
      }
    },
    {
      "type": "Feature",
      "properties": {
        "type": "stop",
        "stop_code": "160042",
        "stop_id": "160042",
        "name": "ΜΟΥΣΩΝ",
        "order": "24"
      },
      "geometry": {
        "type": "Point",
        "coordinates": [
          23.7700674,
          37.8844064
        ]
      }
    },
    {
      "type": "Feature",
      "properties": {
        "type": "stop",
        "stop_code": "160327",
        "stop_id": "160327",
        "name": "Γ. ΓΕΝΝΗΜΑΤΑ",
        "order": "25"
      },
      "geometry": {
        "type": "Point",
        "coordinates": [
          23.7713623,
          37.8850029
        ]
      }
    },
    {
      "type": "Feature",
      "properties": {
        "type": "stop",
        "stop_code": "11718",
        "stop_id": "160367",
        "name": "ΗΒΗΣ",
        "order": "26"
      },
      "geometry": {
        "type": "Point",
        "coordinates": [
          23.7733185,
          37.8848976
        ]
      }
    },
    {
      "type": "Feature",
      "properties": {
        "type": "stop",
        "stop_code": "160242",
        "stop_id": "160242",
        "name": "ΣΧΟΛΕΙΟ",
        "order": "27"
      },
      "geometry": {
        "type": "Point",
        "coordinates": [
          23.7748172,
          37.8857306
        ]
      }
    },
    {
      "type": "Feature",
      "properties": {
        "type": "stop",
        "stop_code": "160209",
        "stop_id": "160209",
        "name": "ΑΓ. ΝΕΚΤΑΡΙΟΣ",
        "order": "28"
      },
      "geometry": {
        "type": "Point",
        "coordinates": [
          23.7755764,
          37.8866423
        ]
      }
    },
    {
      "type": "Feature",
      "properties": {
        "type": "stop",
        "stop_code": "160363",
        "stop_id": "160363",
        "name": "ΠΡΙΓΚΙΠΟΝΝΗΣΩΝ",
        "order": "29"
      },
      "geometry": {
        "type": "Point",
        "coordinates": [
          23.7769423,
          37.8899797
        ]
      }
    },
    {
      "type": "Feature",
      "properties": {
        "type": "stop",
        "stop_code": "160208",
        "stop_id": "160208",
        "name": "ΗΒΗΣ",
        "order": "30"
      },
      "geometry": {
        "type": "Point",
        "coordinates": [
          23.7749845,
          37.8905438
        ]
      }
    },
    {
      "type": "Feature",
      "properties": {
        "type": "stop",
        "stop_code": "160043",
        "stop_id": "160043",
        "name": "ΜΕΤΕΩΡΩΝ",
        "order": "31"
      },
      "geometry": {
        "type": "Point",
        "coordinates": [
          23.7719247,
          37.8907002
        ]
      }
    },
    {
      "type": "Feature",
      "properties": {
        "type": "stop",
        "stop_code": "160044",
        "stop_id": "160044",
        "name": "ΑΘΩΝΟΣ",
        "order": "32"
      },
      "geometry": {
        "type": "Point",
        "coordinates": [
          23.7698832,
          37.8907674
        ]
      }
    },
    {
      "type": "Feature",
      "properties": {
        "type": "stop",
        "stop_code": "160282",
        "stop_id": "160282",
        "name": "ΠΡΟΥΣΣΗΣ",
        "order": "33"
      },
      "geometry": {
        "type": "Point",
        "coordinates": [
          23.7670336,
          37.890934
        ]
      }
    },
    {
      "type": "Feature",
      "properties": {
        "type": "stop",
        "stop_code": "160134",
        "stop_id": "160134",
        "name": "ΑΓ. ΤΡΥΦΩΝ",
        "order": "34"
      },
      "geometry": {
        "type": "Point",
        "coordinates": [
          23.765498,
          37.891012
        ]
      }
    },
    {
      "type": "Feature",
      "properties": {
        "type": "stop",
        "stop_code": "160058",
        "stop_id": "160058",
        "name": "ΤΑΧΥΔΡΟΜΕΙΟ",
        "order": "35"
      },
      "geometry": {
        "type": "Point",
        "coordinates": [
          23.7632002,
          37.8911516
        ]
      }
    },
    {
      "type": "Feature",
      "properties": {
        "type": "stop",
        "stop_code": "590046",
        "stop_id": "590046",
        "name": "ΓΟΥΝΑΡΗ",
        "order": "36"
      },
      "geometry": {
        "type": "Point",
        "coordinates": [
          23.7596813,
          37.8925866
        ]
      }
    },
    {
      "type": "Feature",
      "properties": {
        "type": "stop",
        "stop_code": "590047",
        "stop_id": "590047",
        "name": "ΕΚΚΛΗΣΙΑ",
        "order": "37"
      },
      "geometry": {
        "type": "Point",
        "coordinates": [
          23.7567474,
          37.8924814
        ]
      }
    },
    {
      "type": "Feature",
      "properties": {
        "type": "stop",
        "stop_code": "590059",
        "stop_id": "590059",
        "name": "ΤΡΑΠΕΖΑ",
        "order": "38"
      },
      "geometry": {
        "type": "Point",
        "coordinates": [
          23.7545639,
          37.8924228
        ]
      }
    },
    {
      "type": "Feature",
      "properties": {
        "type": "stop",
        "stop_code": "590049",
        "stop_id": "590049",
        "name": "ΑΡΓΟΝΑΥΤΩΝ",
        "order": "39"
      },
      "geometry": {
        "type": "Point",
        "coordinates": [
          23.7513569,
          37.892344
        ]
      }
    },
    {
      "type": "Feature",
      "properties": {
        "type": "stop",
        "stop_code": "590050",
        "stop_id": "590050",
        "name": "ΔΙΑΣΤΑΥΡΩΣΗ ΙΑΣΩΝΙΔΟΥ",
        "order": "40"
      },
      "geometry": {
        "type": "Point",
        "coordinates": [
          23.748548,
          37.8922749
        ]
      }
    },
    {
      "type": "Feature",
      "properties": {
        "type": "stop",
        "stop_code": "590031",
        "stop_id": "590031",
        "name": "ΑΜΕΡΙΚΑΝΙΚΗ ΒΑΣΗ",
        "order": "41"
      },
      "geometry": {
        "type": "Point",
        "coordinates": [
          23.74737,
          37.8941922
        ]
      }
    },
    {
      "type": "Feature",
      "properties": {
        "type": "stop",
        "stop_code": "590032",
        "stop_id": "590032",
        "name": "ΛΑΒΑΣΣΑ",
        "order": "42"
      },
      "geometry": {
        "type": "Point",
        "coordinates": [
          23.7469371,
          37.8977153
        ]
      }
    },
    {
      "type": "Feature",
      "properties": {
        "type": "stop",
        "stop_code": "590033",
        "stop_id": "590033",
        "name": "6η ΑΡΓΥΡΟΥΠΟΛΕΩΣ",
        "order": "43"
      },
      "geometry": {
        "type": "Point",
        "coordinates": [
          23.7464597,
          37.9009409
        ]
      }
    },
    {
      "type": "Feature",
      "properties": {
        "type": "stop",
        "stop_code": "110094",
        "stop_id": "110094",
        "name": "ΣΤ. ΑΡΓΥΡΟΥΠΟΛΗ",
        "order": "44"
      },
      "geometry": {
        "type": "Point",
        "coordinates": [
          23.7462364,
          37.9030405
        ]
      }
    },
    {
      "type": "Feature",
      "properties": {
        "type": "stop",
        "stop_code": "590023",
        "stop_id": "590023",
        "name": "ΣΤ. ΑΡΓΥΡΟΥΠΟΛΗ",
        "order": "45"
      },
      "geometry": {
        "type": "Point",
        "coordinates": [
          23.7456568,
          37.902886
        ]
      }
    },
    {
      "type": "Feature",
      "properties": {
        "type": "stop",
        "stop_code": "590024",
        "stop_id": "590024",
        "name": "6η ΑΡΓΥΡΟΥΠΟΛΗΣ",
        "order": "46"
      },
      "geometry": {
        "type": "Point",
        "coordinates": [
          23.7459827,
          37.9007236
        ]
      }
    },
    {
      "type": "Feature",
      "properties": {
        "type": "stop",
        "stop_code": "590041",
        "stop_id": "590041",
        "name": "ΣΤΡΟΦΗ ΙΑΣΩΝΙΔΟΥ",
        "order": "47"
      },
      "geometry": {
        "type": "Point",
        "coordinates": [
          23.7487082,
          37.8921076
        ]
      }
    },
    {
      "type": "Feature",
      "properties": {
        "type": "stop",
        "stop_code": "590042",
        "stop_id": "590042",
        "name": "ΑΡΓΟΝΑΥΤΩΝ",
        "order": "48"
      },
      "geometry": {
        "type": "Point",
        "coordinates": [
          23.7516396,
          37.892173
        ]
      }
    },
    {
      "type": "Feature",
      "properties": {
        "type": "stop",
        "stop_code": "590043",
        "stop_id": "590043",
        "name": "ΤΡΑΠΕΖΑ",
        "order": "49"
      },
      "geometry": {
        "type": "Point",
        "coordinates": [
          23.7542373,
          37.8922268
        ]
      }
    },
    {
      "type": "Feature",
      "properties": {
        "type": "stop",
        "stop_code": "590044",
        "stop_id": "590044",
        "name": "ΕΚΚΛΗΣΙΑ",
        "order": "50"
      },
      "geometry": {
        "type": "Point",
        "coordinates": [
          23.7563983,
          37.8922779
        ]
      }
    },
    {
      "type": "Feature",
      "properties": {
        "type": "stop",
        "stop_code": "590045",
        "stop_id": "590045",
        "name": "ΙΑΣΩΝΙΔΟΥ",
        "order": "51"
      },
      "geometry": {
        "type": "Point",
        "coordinates": [
          23.7597959,
          37.8923254
        ]
      }
    },
    {
      "type": "Feature",
      "properties": {
        "type": "stop",
        "stop_code": "160059",
        "stop_id": "160059",
        "name": "ΤΑΧΥΔΡΟΜΕΙΟ",
        "order": "52"
      },
      "geometry": {
        "type": "Point",
        "coordinates": [
          23.7634171,
          37.8909087
        ]
      }
    },
    {
      "type": "Feature",
      "properties": {
        "type": "stop",
        "stop_code": "160057",
        "stop_id": "160057",
        "name": "ΠΑΛΑΙΟ ΤΕΡΜΑ",
        "order": "53"
      },
      "geometry": {
        "type": "Point",
        "coordinates": [
          23.7660673,
          37.8908059
        ]
      }
    },
    {
      "type": "Feature",
      "properties": {
        "type": "stop",
        "stop_code": "160008",
        "stop_id": "160008",
        "name": "ΑΘΩΝΟΣ",
        "order": "54"
      },
      "geometry": {
        "type": "Point",
        "coordinates": [
          23.7690363,
          37.8905864
        ]
      }
    },
    {
      "type": "Feature",
      "properties": {
        "type": "stop",
        "stop_code": "160009",
        "stop_id": "160009",
        "name": "ΜΕΤΕΩΡΩΝ",
        "order": "55"
      },
      "geometry": {
        "type": "Point",
        "coordinates": [
          23.7719938,
          37.8904299
        ]
      }
    },
    {
      "type": "Feature",
      "properties": {
        "type": "stop",
        "stop_code": "160204",
        "stop_id": "160204",
        "name": "Π. ΔΕΞΑΜΕΝΗ",
        "order": "56"
      },
      "geometry": {
        "type": "Point",
        "coordinates": [
          23.7753946,
          37.8903103
        ]
      }
    },
    {
      "type": "Feature",
      "properties": {
        "type": "stop",
        "stop_code": "160364",
        "stop_id": "160364",
        "name": "ΠΡΙΓΚΙΠΟΝΝΗΣΩΝ",
        "order": "57"
      },
      "geometry": {
        "type": "Point",
        "coordinates": [
          23.7767148,
          37.8900244
        ]
      }
    },
    {
      "type": "Feature",
      "properties": {
        "type": "stop",
        "stop_code": "160205",
        "stop_id": "160205",
        "name": "ΑΓ. ΝΕΚΤΑΡΙΟΣ",
        "order": "58"
      },
      "geometry": {
        "type": "Point",
        "coordinates": [
          23.7760296,
          37.8877756
        ]
      }
    },
    {
      "type": "Feature",
      "properties": {
        "type": "stop",
        "stop_code": "160243",
        "stop_id": "160243",
        "name": "ΣΧΟΛΕΙΟ",
        "order": "59"
      },
      "geometry": {
        "type": "Point",
        "coordinates": [
          23.7746911,
          37.8860638
        ]
      }
    },
    {
      "type": "Feature",
      "properties": {
        "type": "stop",
        "stop_code": "160206",
        "stop_id": "160206",
        "name": "ΣΤΡΟΦΗ",
        "order": "60"
      },
      "geometry": {
        "type": "Point",
        "coordinates": [
          23.7729986,
          37.8854116
        ]
      }
    },
    {
      "type": "Feature",
      "properties": {
        "type": "stop",
        "stop_code": "160207",
        "stop_id": "160207",
        "name": "ΧΟΝΔΡΟΔΟΥΚΑ",
        "order": "61"
      },
      "geometry": {
        "type": "Point",
        "coordinates": [
          23.7711398,
          37.8870935
        ]
      }
    },
    {
      "type": "Feature",
      "properties": {
        "type": "stop",
        "stop_code": "160011",
        "stop_id": "160011",
        "name": "ΑΓ. ΠΑΥΛΟΣ",
        "order": "62"
      },
      "geometry": {
        "type": "Point",
        "coordinates": [
          23.7695142,
          37.886874
        ]
      }
    },
    {
      "type": "Feature",
      "properties": {
        "type": "stop",
        "stop_code": "160012",
        "stop_id": "160012",
        "name": "ΑΡΒΑΝΙΤΑΚΗ",
        "order": "63"
      },
      "geometry": {
        "type": "Point",
        "coordinates": [
          23.7667342,
          37.8849127
        ]
      }
    },
    {
      "type": "Feature",
      "properties": {
        "type": "stop",
        "stop_code": "160013",
        "stop_id": "160013",
        "name": "ΣΚΡΕΚΗ",
        "order": "64"
      },
      "geometry": {
        "type": "Point",
        "coordinates": [
          23.7646011,
          37.8833852
        ]
      }
    },
    {
      "type": "Feature",
      "properties": {
        "type": "stop",
        "stop_code": "160300",
        "stop_id": "160300",
        "name": "ΔΟΥΣΗ",
        "order": "65"
      },
      "geometry": {
        "type": "Point",
        "coordinates": [
          23.7620596,
          37.8815865
        ]
      }
    },
    {
      "type": "Feature",
      "properties": {
        "type": "stop",
        "stop_code": "160301",
        "stop_id": "160301",
        "name": "ΚΑΡΑΧΑΛΙΟΥ",
        "order": "66"
      },
      "geometry": {
        "type": "Point",
        "coordinates": [
          23.7597794,
          37.8798874
        ]
      }
    },
    {
      "type": "Feature",
      "properties": {
        "type": "stop",
        "stop_code": "160302",
        "stop_id": "160302",
        "name": "ΑΡΙΣΤΟΤΕΛΟΥΣ",
        "order": "67"
      },
      "geometry": {
        "type": "Point",
        "coordinates": [
          23.7616797,
          37.8795037
        ]
      }
    },
    {
      "type": "Feature",
      "properties": {
        "type": "stop",
        "stop_code": "160039",
        "stop_id": "160039",
        "name": "ΟΛΓΑΣ",
        "order": "68"
      },
      "geometry": {
        "type": "Point",
        "coordinates": [
          23.7659207,
          37.8796294
        ]
      }
    },
    {
      "type": "Feature",
      "properties": {
        "type": "stop",
        "stop_code": "160018",
        "stop_id": "160018",
        "name": "2η ΝΑΞΟΥ",
        "order": "69"
      },
      "geometry": {
        "type": "Point",
        "coordinates": [
          23.7667806,
          37.8773869
        ]
      }
    },
    {
      "type": "Feature",
      "properties": {
        "type": "stop",
        "stop_code": "160019",
        "stop_id": "160019",
        "name": "1η ΝΑΞΟΥ",
        "order": "70"
      },
      "geometry": {
        "type": "Point",
        "coordinates": [
          23.7669006,
          37.8754043
        ]
      }
    },
    {
      "type": "Feature",
      "properties": {
        "type": "stop",
        "stop_code": "160033",
        "stop_id": "160033",
        "name": "ΜΕΤΣΟΒΟΥ",
        "order": "71"
      },
      "geometry": {
        "type": "Point",
        "coordinates": [
          23.7686886,
          37.8745065
        ]
      }
    },
    {
      "type": "Feature",
      "properties": {
        "type": "stop",
        "stop_code": "160035",
        "stop_id": "160035",
        "name": "7η ΠΥΡΝΑΡΙ",
        "order": "72"
      },
      "geometry": {
        "type": "Point",
        "coordinates": [
          23.770287,
          37.8724006
        ]
      }
    },
    {
      "type": "Feature",
      "properties": {
        "type": "stop",
        "stop_code": "160036",
        "stop_id": "160036",
        "name": "6η ΠΥΡΝΑΡΙ",
        "order": "73"
      },
      "geometry": {
        "type": "Point",
        "coordinates": [
          23.7695843,
          37.8716601
        ]
      }
    },
    {
      "type": "Feature",
      "properties": {
        "type": "stop",
        "stop_code": "160037",
        "stop_id": "160037",
        "name": "ΦΟΥΡΝΟΣ",
        "order": "74"
      },
      "geometry": {
        "type": "Point",
        "coordinates": [
          23.768207,
          37.8721712
        ]
      }
    },
    {
      "type": "Feature",
      "properties": {
        "type": "stop",
        "stop_code": "160034",
        "stop_id": "160034",
        "name": "ΑΓ. ΤΡΙΑΔΑ",
        "order": "75"
      },
      "geometry": {
        "type": "Point",
        "coordinates": [
          23.7662509,
          37.8722935
        ]
      }
    },
    {
      "type": "Feature",
      "properties": {
        "type": "stop",
        "stop_code": "160038",
        "stop_id": "160038",
        "name": "ΕΠΑΜΕΙΝΩΝΔΑ",
        "order": "76"
      },
      "geometry": {
        "type": "Point",
        "coordinates": [
          23.7631734,
          37.8711156
        ]
      }
    },
    {
      "type": "Feature",
      "properties": {
        "type": "stop",
        "stop_code": "160328",
        "stop_id": "160328",
        "name": "ΥΜΗΤΤΟΥ",
        "order": "77"
      },
      "geometry": {
        "type": "Point",
        "coordinates": [
          23.7610371,
          37.8707238
        ]
      }
    },
    {
      "type": "Feature",
      "properties": {
        "type": "stop",
        "stop_code": "160077",
        "stop_id": "160077",
        "name": "ΟΜΗΡΟΥ",
        "order": "78"
      },
      "geometry": {
        "type": "Point",
        "coordinates": [
          23.7580071,
          37.8689871
        ]
      }
    },
    {
      "type": "Feature",
      "properties": {
        "type": "stop",
        "stop_code": "160078",
        "stop_id": "160078",
        "name": "ΠΑΝΔΡΟΣΟΥ",
        "order": "79"
      },
      "geometry": {
        "type": "Point",
        "coordinates": [
          23.7554414,
          37.8655
        ]
      }
    },
    {
      "type": "Feature",
      "properties": {
        "type": "stop",
        "stop_code": "160231",
        "stop_id": "160231",
        "name": "ΕΦΟΡΙΑ",
        "order": "80"
      },
      "geometry": {
        "type": "Point",
        "coordinates": [
          23.7525516,
          37.8628238
        ]
      }
    },
    {
      "type": "Feature",
      "properties": {
        "type": "stop",
        "stop_code": "160171",
        "stop_id": "160171",
        "name": "ΑΝΤΩΝΟΠΟΥΛΟΥ",
        "order": "81"
      },
      "geometry": {
        "type": "Point",
        "coordinates": [
          23.7500298,
          37.8610068
        ]
      }
    },
    {
      "type": "Feature",
      "properties": {
        "type": "stop",
        "stop_code": "160081",
        "stop_id": "160081",
        "name": "ΠΛ. ΓΛΥΦΑΔΑΣ",
        "order": "82"
      },
      "geometry": {
        "type": "Point",
        "coordinates": [
          23.7466557,
          37.8636545
        ]
      }
    },
    {
      "type": "Feature",
      "properties": {
        "type": "stop",
        "stop_code": "10284",
        "stop_id": "83",
        "name": "ΓΛΥΦΑΔΑ",
        "order": "83"
      },
      "geometry": {
        "type": "Point",
        "coordinates": [
          23.740379,
          37.8728805
        ]
      }
    }
  ]
}