{
  "type": "FeatureCollection",
  "features": [
    {
      "type": "Feature",
      "properties": {
        "type": "route_path",
        "route_code": "1891",
        "descr": "ΝΕΑΠΟΛΗ - ΑΓ. ΑΝΤΩΝΙΟΣ - ΠΕΙΡΑΙΑΣ Α"
      },
      "geometry": {
        "type": "LineString",
        "coordinates": [
          [
            23.62658,
            37.9865
          ],
          [
            23.62683,
            37.98666
          ],
          [
            23.62691,
            37.98671
          ],
          [
            23.62708,
            37.98678
          ],
          [
            23.62743,
            37.98686
          ],
          [
            23.62771,
            37.98695
          ],
          [
            23.62803,
            37.98689
          ],
          [
            23.62846,
            37.98672
          ],
          [
            23.62883,
            37.98646
          ],
          [
            23.62959,
            37.98594
          ],
          [
            23.62996,
            37.98639
          ],
          [
            23.63538,
            37.98373
          ],
          [
            23.63802,
            37.98242
          ],
          [
            23.63902,
            37.98298
          ],
          [
            23.63912,
            37.98252
          ],
          [
            23.63934,
            37.98221
          ],
          [
            23.63651,
            37.97857
          ],
          [
            23.63616,
            37.97821
          ],
          [
            23.63525,
            37.97815
          ],
          [
            23.63346,
            37.97804
          ],
          [
            23.62878,
            37.9778
          ],
          [
            23.62801,
            37.97728
          ],
          [
            23.62679,
            37.97615
          ],
          [
            23.62555,
            37.97501
          ],
          [
            23.62506,
            37.97447
          ],
          [
            23.625,
            37.97393
          ],
          [
            23.62415,
            37.97015
          ],
          [
            23.62233,
            37.97094
          ],
          [
            23.62208,
            37.97099
          ],
          [
            23.62165,
            37.97057
          ],
          [
            23.62153,
            37.97049
          ],
          [
            23.62144,
            37.97034
          ],
          [
            23.62184,
            37.96929
          ],
          [
            23.62232,
            37.96784
          ],
          [
            23.62306,
            37.96565
          ],
          [
            23.62344,
            37.96459
          ],
          [
            23.62362,
            37.96453
          ],
          [
            23.62456,
            37.96444
          ],
          [
            23.62517,
            37.96437
          ],
          [
            23.62878,
            37.96386
          ],
          [
            23.6294,
            37.96379
          ],
          [
            23.63303,
            37.96419
          ],
          [
            23.63396,
            37.9644
          ],
          [
            23.63715,
            37.9654
          ],
          [
            23.63864,
            37.96468
          ],
          [
            23.63891,
            37.96379
          ],
          [
            23.63852,
            37.96376
          ],
          [
            23.63852,
            37.96356
          ],
          [
            23.63851,
            37.96169
          ],
          [
            23.63856,
            37.95909
          ],
          [
            23.63859,
            37.95778
          ],
          [
            23.63855,
            37.95517
          ],
          [
            23.63856,
            37.95063
          ],
          [
            23.63864,
            37.94929
          ],
          [
            23.63876,
            37.94923
          ],
          [
            23.64143,
            37.94927
          ],
          [
            23.6419,
            37.94921
          ],
          [
            23.64215,
            37.94898
          ],
          [
            23.64219,
            37.94812
          ],
          [
            23.64217,
            37.94759
          ],
          [
            23.64217,
            37.9471
          ],
          [
            23.64224,
            37.94653
          ],
          [
            23.64197,
            37.94649
          ],
          [
            23.64129,
            37.94651
          ],
          [
            23.64125,
            37.94569
          ],
          [
            23.64207,
            37.94553
          ],
          [
            23.64223,
            37.94554
          ],
          [
            23.64234,
            37.94588
          ],
          [
            23.64234,
            37.94676
          ],
          [
            23.64236,
            37.94762
          ],
          [
            23.64239,
            37.94879
          ],
          [
            23.64228,
            37.94902
          ],
          [
            23.64211,
            37.94925
          ],
          [
            23.64192,
            37.94931
          ],
          [
            23.64167,
            37.9494
          ],
          [
            23.64135,
            37.94943
          ],
          [
            23.63849,
            37.94942
          ],
          [
            23.63663,
            37.9494
          ],
          [
            23.63587,
            37.94945
          ],
          [
            23.63577,
            37.94958
          ],
          [
            23.63557,
            37.95028
          ],
          [
            23.63519,
            37.95045
          ],
          [
            23.63508,
            37.95585
          ],
          [
            23.63507,
            37.96073
          ],
          [
            23.6351,
            37.96381
          ],
          [
            23.63499,
            37.96407
          ],
          [
            23.63473,
            37.96442
          ],
          [
            23.6342,
            37.96453
          ],
          [
            23.63331,
            37.96429
          ],
          [
            23.62991,
            37.96389
          ],
          [
            23.62941,
            37.96387
          ],
          [
            23.62659,
            37.96428
          ],
          [
            23.62521,
            37.96447
          ],
          [
            23.62351,
            37.96467
          ],
          [
            23.62249,
            37.96749
          ],
          [
            23.62188,
            37.96931
          ],
          [
            23.62146,
            37.97053
          ],
          [
            23.62131,
            37.97105
          ],
          [
            23.62141,
            37.97121
          ],
          [
            23.62512,
            37.97451
          ],
          [
            23.62674,
            37.97598
          ],
          [
            23.62805,
            37.97716
          ],
          [
            23.62882,
            37.97767
          ],
          [
            23.63078,
            37.97779
          ],
          [
            23.63325,
            37.97791
          ],
          [
            23.63603,
            37.9781
          ],
          [
            23.63703,
            37.97828
          ],
          [
            23.6404,
            37.97895
          ],
          [
            23.64023,
            37.97961
          ],
          [
            23.63983,
            37.98111
          ],
          [
            23.63842,
            37.98173
          ],
          [
            23.63182,
            37.98491
          ],
          [
            23.63129,
            37.98488
          ],
          [
            23.63074,
            37.98545
          ],
          [
            23.62971,
            37.98592
          ],
          [
            23.62926,
            37.98623
          ],
          [
            23.62882,
            37.98652
          ],
          [
            23.62848,
            37.98676
          ],
          [
            23.62805,
            37.98693
          ],
          [
            23.6277,
            37.98699
          ],
          [
            23.62742,
            37.98691
          ],
          [
            23.62706,
            37.98682
          ],
          [
            23.62681,
            37.98671
          ],
          [
            23.6266,
            37.98656
          ]
        ]
      }
    },
    {
      "type": "Feature",
      "properties": {
        "type": "stop",
        "stop_code": "10227",
        "stop_id": "61",
        "name": "ΝΕΑΠΟΛΗ",
        "order": "1"
      },
      "geometry": {
        "type": "Point",
        "coordinates": [
          23.626504,
          37.986699
        ]
      }
    },
    {
      "type": "Feature",
      "properties": {
        "type": "stop",
        "stop_code": "370114",
        "stop_id": "370114",
        "name": "ΠΑΛ. ΤΕΡΜΑ",
        "order": "2"
      },
      "geometry": {
        "type": "Point",
        "coordinates": [
          23.6276314,
          37.9868689
        ]
      }
    },
    {
      "type": "Feature",
      "properties": {
        "type": "stop",
        "stop_code": "370139",
        "stop_id": "370139",
        "name": "1η ΓΚΟΥΡΑ",
        "order": "3"
      },
      "geometry": {
        "type": "Point",
        "coordinates": [
          23.6302409,
          37.9861206
        ]
      }
    },
    {
      "type": "Feature",
      "properties": {
        "type": "stop",
        "stop_code": "370185",
        "stop_id": "370185",
        "name": "ΠΑΙΔΙΚΗ ΧΑΡΑ",
        "order": "4"
      },
      "geometry": {
        "type": "Point",
        "coordinates": [
          23.6315193,
          37.9855207
        ]
      }
    },
    {
      "type": "Feature",
      "properties": {
        "type": "stop",
        "stop_code": "370140",
        "stop_id": "370140",
        "name": "2η ΓΚΟΥΡΑ",
        "order": "5"
      },
      "geometry": {
        "type": "Point",
        "coordinates": [
          23.6325923,
          37.9850103
        ]
      }
    },
    {
      "type": "Feature",
      "properties": {
        "type": "stop",
        "stop_code": "370141",
        "stop_id": "370141",
        "name": "3η ΓΚΟΥΡΑ",
        "order": "6"
      },
      "geometry": {
        "type": "Point",
        "coordinates": [
          23.6369188,
          37.9828337
        ]
      }
    },
    {
      "type": "Feature",
      "properties": {
        "type": "stop",
        "stop_code": "370156",
        "stop_id": "370156",
        "name": "ΚΩΣΤΗΣ ΠΑΛΑΜΑΣ",
        "order": "7"
      },
      "geometry": {
        "type": "Point",
        "coordinates": [
          23.6388028,
          37.981794
        ]
      }
    },
    {
      "type": "Feature",
      "properties": {
        "type": "stop",
        "stop_code": "370091",
        "stop_id": "370091",
        "name": "ΣΑΓΙΟΝΑΡΑ",
        "order": "8"
      },
      "geometry": {
        "type": "Point",
        "coordinates": [
          23.6376942,
          37.9803034
        ]
      }
    },
    {
      "type": "Feature",
      "properties": {
        "type": "stop",
        "stop_code": "370059",
        "stop_id": "370059",
        "name": "ΣΠΑΘΑ",
        "order": "9"
      },
      "geometry": {
        "type": "Point",
        "coordinates": [
          23.6363587,
          37.978659
        ]
      }
    },
    {
      "type": "Feature",
      "properties": {
        "type": "stop",
        "stop_code": "370041",
        "stop_id": "370041",
        "name": "ΓΗΠΕΔΟ",
        "order": "10"
      },
      "geometry": {
        "type": "Point",
        "coordinates": [
          23.6352678,
          37.978205
        ]
      }
    },
    {
      "type": "Feature",
      "properties": {
        "type": "stop",
        "stop_code": "370042",
        "stop_id": "370042",
        "name": "ΚΟΡΑΗ",
        "order": "11"
      },
      "geometry": {
        "type": "Point",
        "coordinates": [
          23.6325473,
          37.9780343
        ]
      }
    },
    {
      "type": "Feature",
      "properties": {
        "type": "stop",
        "stop_code": "370043",
        "stop_id": "370043",
        "name": "ΣΑΜΟΥ",
        "order": "12"
      },
      "geometry": {
        "type": "Point",
        "coordinates": [
          23.629735,
          37.9780074
        ]
      }
    },
    {
      "type": "Feature",
      "properties": {
        "type": "stop",
        "stop_code": "260001",
        "stop_id": "260001",
        "name": "ΑΓ. ΑΝΤΩΝΙΟΣ",
        "order": "13"
      },
      "geometry": {
        "type": "Point",
        "coordinates": [
          23.6270327,
          37.9765118
        ]
      }
    },
    {
      "type": "Feature",
      "properties": {
        "type": "stop",
        "stop_code": "260098",
        "stop_id": "260098",
        "name": "ΑΓ. ΓΕΩΡΓΙΟΣ",
        "order": "14"
      },
      "geometry": {
        "type": "Point",
        "coordinates": [
          23.6248814,
          37.9741255
        ]
      }
    },
    {
      "type": "Feature",
      "properties": {
        "type": "stop",
        "stop_code": "260047",
        "stop_id": "260047",
        "name": "ΒΑΦΕΙΑ",
        "order": "15"
      },
      "geometry": {
        "type": "Point",
        "coordinates": [
          23.6244373,
          37.971907
        ]
      }
    },
    {
      "type": "Feature",
      "properties": {
        "type": "stop",
        "stop_code": "260111",
        "stop_id": "260111",
        "name": "ΕΒΓΑ",
        "order": "16"
      },
      "geometry": {
        "type": "Point",
        "coordinates": [
          23.624115,
          37.9703647
        ]
      }
    },
    {
      "type": "Feature",
      "properties": {
        "type": "stop",
        "stop_code": "260049",
        "stop_id": "260049",
        "name": "ΑΜΦΙΑΛΗ",
        "order": "17"
      },
      "geometry": {
        "type": "Point",
        "coordinates": [
          23.6214517,
          37.970194
        ]
      }
    },
    {
      "type": "Feature",
      "properties": {
        "type": "stop",
        "stop_code": "260050",
        "stop_id": "260050",
        "name": "ΠΑΛΑΙΟ ΤΕΡΜΑ",
        "order": "18"
      },
      "geometry": {
        "type": "Point",
        "coordinates": [
          23.622284,
          37.9677541
        ]
      }
    },
    {
      "type": "Feature",
      "properties": {
        "type": "stop",
        "stop_code": "260051",
        "stop_id": "260051",
        "name": "ΣΤΡΟΦΗ ΑΜΦΙΑΛΗΣ",
        "order": "19"
      },
      "geometry": {
        "type": "Point",
        "coordinates": [
          23.6230477,
          37.9653502
        ]
      }
    },
    {
      "type": "Feature",
      "properties": {
        "type": "stop",
        "stop_code": "260164",
        "stop_id": "260164",
        "name": "ΣΟΛΩΜΟΥ",
        "order": "20"
      },
      "geometry": {
        "type": "Point",
        "coordinates": [
          23.6247946,
          37.9643373
        ]
      }
    },
    {
      "type": "Feature",
      "properties": {
        "type": "stop",
        "stop_code": "260035",
        "stop_id": "260035",
        "name": "ΝΕΡΟ",
        "order": "21"
      },
      "geometry": {
        "type": "Point",
        "coordinates": [
          23.6271414,
          37.9640113
        ]
      }
    },
    {
      "type": "Feature",
      "properties": {
        "type": "stop",
        "stop_code": "260036",
        "stop_id": "260036",
        "name": "ΡΟΜΑΝΤΖΟ",
        "order": "22"
      },
      "geometry": {
        "type": "Point",
        "coordinates": [
          23.6288962,
          37.9637014
        ]
      }
    },
    {
      "type": "Feature",
      "properties": {
        "type": "stop",
        "stop_code": "370152",
        "stop_id": "370152",
        "name": "ΤΖΑΝΗ",
        "order": "23"
      },
      "geometry": {
        "type": "Point",
        "coordinates": [
          23.6331061,
          37.9641472
        ]
      }
    },
    {
      "type": "Feature",
      "properties": {
        "type": "stop",
        "stop_code": "370015",
        "stop_id": "370015",
        "name": "25ης ΜΑΡΤΙΟΥ",
        "order": "24"
      },
      "geometry": {
        "type": "Point",
        "coordinates": [
          23.6356525,
          37.9648852
        ]
      }
    },
    {
      "type": "Feature",
      "properties": {
        "type": "stop",
        "stop_code": "370119",
        "stop_id": "370119",
        "name": "ΚΑΜΠΟΥΡΗ",
        "order": "25"
      },
      "geometry": {
        "type": "Point",
        "coordinates": [
          23.6385951,
          37.9645195
        ]
      }
    },
    {
      "type": "Feature",
      "properties": {
        "type": "stop",
        "stop_code": "400168",
        "stop_id": "400168",
        "name": "ΚΑΛΟΚΑΙΡΙΝΟΥ",
        "order": "26"
      },
      "geometry": {
        "type": "Point",
        "coordinates": [
          23.6383143,
          37.9629917
        ]
      }
    },
    {
      "type": "Feature",
      "properties": {
        "type": "stop",
        "stop_code": "400169",
        "stop_id": "400169",
        "name": "ΜΑΝΙΑΤΙΚΑ",
        "order": "27"
      },
      "geometry": {
        "type": "Point",
        "coordinates": [
          23.638384,
          37.9603871
        ]
      }
    },
    {
      "type": "Feature",
      "properties": {
        "type": "stop",
        "stop_code": "400170",
        "stop_id": "400170",
        "name": "ΧΟΡΜΟΒΙΤΟΥ",
        "order": "28"
      },
      "geometry": {
        "type": "Point",
        "coordinates": [
          23.6383952,
          37.9581159
        ]
      }
    },
    {
      "type": "Feature",
      "properties": {
        "type": "stop",
        "stop_code": "400171",
        "stop_id": "400171",
        "name": "ΧΑΡΤΟΦΥΛΑΚΑΣ",
        "order": "29"
      },
      "geometry": {
        "type": "Point",
        "coordinates": [
          23.63844,
          37.9559259
        ]
      }
    },
    {
      "type": "Feature",
      "properties": {
        "type": "stop",
        "stop_code": "400172",
        "stop_id": "400172",
        "name": "ΣΙΔΕΡΑ",
        "order": "30"
      },
      "geometry": {
        "type": "Point",
        "coordinates": [
          23.6384503,
          37.953835
        ]
      }
    },
    {
      "type": "Feature",
      "properties": {
        "type": "stop",
        "stop_code": "400173",
        "stop_id": "400173",
        "name": "ΠΑΠΑΣΤΡΑΤΟΣ",
        "order": "31"
      },
      "geometry": {
        "type": "Point",
        "coordinates": [
          23.6385054,
          37.9518703
        ]
      }
    },
    {
      "type": "Feature",
      "properties": {
        "type": "stop",
        "stop_code": "400174",
        "stop_id": "400174",
        "name": "ΚΑΣΤΟΡΟΣ",
        "order": "32"
      },
      "geometry": {
        "type": "Point",
        "coordinates": [
          23.6385036,
          37.9499145
        ]
      }
    },
    {
      "type": "Feature",
      "properties": {
        "type": "stop",
        "stop_code": "400160",
        "stop_id": "400160",
        "name": "ΣΤ.ΜΕΤΡΟ ΠΕΙΡΑΙΑΣ",
        "order": "33"
      },
      "geometry": {
        "type": "Point",
        "coordinates": [
          23.6420818,
          37.9482284
        ]
      }
    },
    {
      "type": "Feature",
      "properties": {
        "type": "stop",
        "stop_code": "400142",
        "stop_id": "400142",
        "name": "ΠΛ. ΚΑΡΑΙΣΚΑΚΗ",
        "order": "34"
      },
      "geometry": {
        "type": "Point",
        "coordinates": [
          23.641096,
          37.9458036
        ]
      }
    },
    {
      "type": "Feature",
      "properties": {
        "type": "stop",
        "stop_code": "400130",
        "stop_id": "400130",
        "name": "ΣΤ.ΜΕΤΡΟ ΠΕΙΡΑΙΑΣ",
        "order": "35"
      },
      "geometry": {
        "type": "Point",
        "coordinates": [
          23.6424299,
          37.9481133
        ]
      }
    },
    {
      "type": "Feature",
      "properties": {
        "type": "stop",
        "stop_code": "400149",
        "stop_id": "400149",
        "name": "ΑΙΤΩΛΙΚΟΥ",
        "order": "36"
      },
      "geometry": {
        "type": "Point",
        "coordinates": [
          23.6392111,
          37.9495472
        ]
      }
    },
    {
      "type": "Feature",
      "properties": {
        "type": "stop",
        "stop_code": "400150",
        "stop_id": "400150",
        "name": "ΑΓ. ΔΙΟΝΥΣΙΟΣ",
        "order": "37"
      },
      "geometry": {
        "type": "Point",
        "coordinates": [
          23.6363659,
          37.9494934
        ]
      }
    },
    {
      "type": "Feature",
      "properties": {
        "type": "stop",
        "stop_code": "400151",
        "stop_id": "400151",
        "name": "ΓΕΦΥΡΑ",
        "order": "38"
      },
      "geometry": {
        "type": "Point",
        "coordinates": [
          23.6352201,
          37.951031
        ]
      }
    },
    {
      "type": "Feature",
      "properties": {
        "type": "stop",
        "stop_code": "400305",
        "stop_id": "400305",
        "name": "ΚΟΣΤΑΛ",
        "order": "39"
      },
      "geometry": {
        "type": "Point",
        "coordinates": [
          23.6351648,
          37.9530047
        ]
      }
    },
    {
      "type": "Feature",
      "properties": {
        "type": "stop",
        "stop_code": "400306",
        "stop_id": "400306",
        "name": "ΠΑΡΘΕΝΗ",
        "order": "40"
      },
      "geometry": {
        "type": "Point",
        "coordinates": [
          23.6351536,
          37.9552669
        ]
      }
    },
    {
      "type": "Feature",
      "properties": {
        "type": "stop",
        "stop_code": "400307",
        "stop_id": "400307",
        "name": "ΑΓΧΙΑΛΟΥ",
        "order": "41"
      },
      "geometry": {
        "type": "Point",
        "coordinates": [
          23.6352001,
          37.957385
        ]
      }
    },
    {
      "type": "Feature",
      "properties": {
        "type": "stop",
        "stop_code": "400184",
        "stop_id": "400184",
        "name": "ΚΟΥΜΟΥΝΔΟΥΡΟΥ",
        "order": "42"
      },
      "geometry": {
        "type": "Point",
        "coordinates": [
          23.6352706,
          37.9592419
        ]
      }
    },
    {
      "type": "Feature",
      "properties": {
        "type": "stop",
        "stop_code": "400039",
        "stop_id": "400039",
        "name": "ΠΑΠΑΦΛΕΣΣΑ",
        "order": "43"
      },
      "geometry": {
        "type": "Point",
        "coordinates": [
          23.6352161,
          37.9610533
        ]
      }
    },
    {
      "type": "Feature",
      "properties": {
        "type": "stop",
        "stop_code": "370024",
        "stop_id": "370024",
        "name": "ΑΛΣΟΣ",
        "order": "44"
      },
      "geometry": {
        "type": "Point",
        "coordinates": [
          23.635157,
          37.963784
        ]
      }
    },
    {
      "type": "Feature",
      "properties": {
        "type": "stop",
        "stop_code": "370013",
        "stop_id": "370013",
        "name": "ΤΖΑΝΗ",
        "order": "45"
      },
      "geometry": {
        "type": "Point",
        "coordinates": [
          23.6329758,
          37.9643581
        ]
      }
    },
    {
      "type": "Feature",
      "properties": {
        "type": "stop",
        "stop_code": "260024",
        "stop_id": "260024",
        "name": "ΡΟΜΑΝΤΖΟ",
        "order": "46"
      },
      "geometry": {
        "type": "Point",
        "coordinates": [
          23.6288261,
          37.9640436
        ]
      }
    },
    {
      "type": "Feature",
      "properties": {
        "type": "stop",
        "stop_code": "260026",
        "stop_id": "260026",
        "name": "ΝΕΡΟ",
        "order": "47"
      },
      "geometry": {
        "type": "Point",
        "coordinates": [
          23.6252945,
          37.9645372
        ]
      }
    },
    {
      "type": "Feature",
      "properties": {
        "type": "stop",
        "stop_code": "260040",
        "stop_id": "260040",
        "name": "ΣΤΡΟΦΗ ΑΜΦΙΑΛΗΣ",
        "order": "48"
      },
      "geometry": {
        "type": "Point",
        "coordinates": [
          23.6234597,
          37.9649099
        ]
      }
    },
    {
      "type": "Feature",
      "properties": {
        "type": "stop",
        "stop_code": "260041",
        "stop_id": "260041",
        "name": "ΠΑΛΑΙΟ ΤΕΡΜΑ",
        "order": "49"
      },
      "geometry": {
        "type": "Point",
        "coordinates": [
          23.6225121,
          37.9676647
        ]
      }
    },
    {
      "type": "Feature",
      "properties": {
        "type": "stop",
        "stop_code": "260181",
        "stop_id": "260181",
        "name": "Δ. ΑΡΕΟΠΑΓΙΤΟΥ",
        "order": "50"
      },
      "geometry": {
        "type": "Point",
        "coordinates": [
          23.6216103,
          37.9703567
        ]
      }
    },
    {
      "type": "Feature",
      "properties": {
        "type": "stop",
        "stop_code": "260020",
        "stop_id": "260020",
        "name": "ΜΑΚΡΥΓΙΑΝΝΗ",
        "order": "51"
      },
      "geometry": {
        "type": "Point",
        "coordinates": [
          23.6225918,
          37.9721174
        ]
      }
    },
    {
      "type": "Feature",
      "properties": {
        "type": "stop",
        "stop_code": "260021",
        "stop_id": "260021",
        "name": "ΣΧΟΛΕΙΑ",
        "order": "52"
      },
      "geometry": {
        "type": "Point",
        "coordinates": [
          23.6252215,
          37.974424
        ]
      }
    },
    {
      "type": "Feature",
      "properties": {
        "type": "stop",
        "stop_code": "260022",
        "stop_id": "260022",
        "name": "ΑΓ. ΑΝΤΩΝΙΟΣ",
        "order": "53"
      },
      "geometry": {
        "type": "Point",
        "coordinates": [
          23.626956,
          37.9759167
        ]
      }
    },
    {
      "type": "Feature",
      "properties": {
        "type": "stop",
        "stop_code": "260023",
        "stop_id": "260023",
        "name": "ΣΑΜΟΥ",
        "order": "54"
      },
      "geometry": {
        "type": "Point",
        "coordinates": [
          23.6302263,
          37.9776845
        ]
      }
    },
    {
      "type": "Feature",
      "properties": {
        "type": "stop",
        "stop_code": "370044",
        "stop_id": "370044",
        "name": "ΑΚΡΟΠΟΛΕΩΣ",
        "order": "55"
      },
      "geometry": {
        "type": "Point",
        "coordinates": [
          23.6329356,
          37.9778102
        ]
      }
    },
    {
      "type": "Feature",
      "properties": {
        "type": "stop",
        "stop_code": "370045",
        "stop_id": "370045",
        "name": "ΓΗΠΕΔΟ",
        "order": "56"
      },
      "geometry": {
        "type": "Point",
        "coordinates": [
          23.6351443,
          37.9778621
        ]
      }
    },
    {
      "type": "Feature",
      "properties": {
        "type": "stop",
        "stop_code": "370159",
        "stop_id": "370159",
        "name": "ΣΤΡΟΦΗ ΚΟΡΥΔΑΛΛΟΥ",
        "order": "57"
      },
      "geometry": {
        "type": "Point",
        "coordinates": [
          23.6403,
          37.9795656
        ]
      }
    },
    {
      "type": "Feature",
      "properties": {
        "type": "stop",
        "stop_code": "370168",
        "stop_id": "370168",
        "name": "ΠΛ. ΑΝΑΛΗΨΕΩΣ",
        "order": "58"
      },
      "geometry": {
        "type": "Point",
        "coordinates": [
          23.6393857,
          37.9813541
        ]
      }
    },
    {
      "type": "Feature",
      "properties": {
        "type": "stop",
        "stop_code": "370092",
        "stop_id": "370092",
        "name": "1η Κ. ΠΑΛΑΜΑ",
        "order": "59"
      },
      "geometry": {
        "type": "Point",
        "coordinates": [
          23.6363122,
          37.982816
        ]
      }
    },
    {
      "type": "Feature",
      "properties": {
        "type": "stop",
        "stop_code": "370123",
        "stop_id": "370123",
        "name": "ΚΟΙΜ. ΘΕΟΤΟΚΟΥ",
        "order": "60"
      },
      "geometry": {
        "type": "Point",
        "coordinates": [
          23.634797,
          37.9836022
        ]
      }
    },
    {
      "type": "Feature",
      "properties": {
        "type": "stop",
        "stop_code": "370126",
        "stop_id": "370126",
        "name": "2η ΠΑΛΑΜΑ",
        "order": "61"
      },
      "geometry": {
        "type": "Point",
        "coordinates": [
          23.6331419,
          37.9844082
        ]
      }
    },
    {
      "type": "Feature",
      "properties": {
        "type": "stop",
        "stop_code": "370186",
        "stop_id": "370186",
        "name": "ΠΛ. ΑΘΗΝΑΣ ΜΑΥΡΟΥ",
        "order": "62"
      },
      "geometry": {
        "type": "Point",
        "coordinates": [
          23.631052,
          37.985195
        ]
      }
    },
    {
      "type": "Feature",
      "properties": {
        "type": "stop",
        "stop_code": "370173",
        "stop_id": "370173",
        "name": "ΜΟΥΧΤΟΥΡΗ",
        "order": "63"
      },
      "geometry": {
        "type": "Point",
        "coordinates": [
          23.6295253,
          37.9860676
        ]
      }
    },
    {
      "type": "Feature",
      "properties": {
        "type": "stop",
        "stop_code": "370113",
        "stop_id": "370113",
        "name": "ΠΑΛ. ΤΕΡΜΑ",
        "order": "64"
      },
      "geometry": {
        "type": "Point",
        "coordinates": [
          23.6281608,
          37.9869392
        ]
      }
    },
    {
      "type": "Feature",
      "properties": {
        "type": "stop",
        "stop_code": "10227",
        "stop_id": "61",
        "name": "ΝΕΑΠΟΛΗ",
        "order": "65"
      },
      "geometry": {
        "type": "Point",
        "coordinates": [
          23.626504,
          37.986699
        ]
      }
    }
  ]
}