{
  "type": "FeatureCollection",
  "features": [
    {
      "type": "Feature",
      "properties": {
        "type": "route_path",
        "route_code": "4712",
        "descr": "ΠΑΠΑΓΟΥ - ΣΤ. ΕΘΝ. ΑΜΥΝΑ [ΕΩΣ ΑΚΑΔΗΜΙΑ]"
      },
      "geometry": {
        "type": "LineString",
        "coordinates": [
          [
            23.79563,
            37.97934
          ],
          [
            23.79555,
            37.97923
          ],
          [
            23.79524,
            37.97869
          ],
          [
            23.79483,
            37.97802
          ],
          [
            23.79466,
            37.97784
          ],
          [
            23.79437,
            37.97736
          ],
          [
            23.79434,
            37.97718
          ],
          [
            23.79431,
            37.97664
          ],
          [
            23.79425,
            37.97623
          ],
          [
            23.79416,
            37.97603
          ],
          [
            23.79332,
            37.97638
          ],
          [
            23.79237,
            37.97674
          ],
          [
            23.79125,
            37.97781
          ],
          [
            23.79049,
            37.97845
          ],
          [
            23.79088,
            37.97884
          ],
          [
            23.78942,
            37.97985
          ],
          [
            23.79151,
            37.98186
          ],
          [
            23.78908,
            37.98347
          ],
          [
            23.78985,
            37.98416
          ],
          [
            23.79019,
            37.98403
          ],
          [
            23.79087,
            37.98375
          ],
          [
            23.79193,
            37.98332
          ],
          [
            23.79266,
            37.98294
          ],
          [
            23.79593,
            37.98323
          ],
          [
            23.79559,
            37.98376
          ],
          [
            23.7953,
            37.98395
          ],
          [
            23.79401,
            37.98425
          ],
          [
            23.79373,
            37.98443
          ],
          [
            23.79319,
            37.98567
          ],
          [
            23.79295,
            37.98605
          ],
          [
            23.79252,
            37.98669
          ],
          [
            23.79156,
            37.98793
          ],
          [
            23.79091,
            37.98867
          ],
          [
            23.79011,
            37.98938
          ],
          [
            23.79109,
            37.98941
          ],
          [
            23.79326,
            37.98944
          ],
          [
            23.79346,
            37.98944
          ],
          [
            23.79377,
            37.98951
          ],
          [
            23.79415,
            37.9896
          ],
          [
            23.79546,
            37.98994
          ],
          [
            23.79663,
            37.99026
          ],
          [
            23.79752,
            37.9906
          ],
          [
            23.79911,
            37.99131
          ],
          [
            23.79986,
            37.99169
          ],
          [
            23.79906,
            37.99221
          ],
          [
            23.79858,
            37.99245
          ],
          [
            23.7978,
            37.99296
          ],
          [
            23.79413,
            37.99543
          ],
          [
            23.79086,
            37.99759
          ],
          [
            23.78801,
            37.99949
          ],
          [
            23.78644,
            38.00057
          ],
          [
            23.78486,
            37.99965
          ],
          [
            23.78086,
            37.99653
          ],
          [
            23.77679,
            37.99407
          ],
          [
            23.77612,
            37.99355
          ],
          [
            23.77584,
            37.99338
          ],
          [
            23.7757,
            37.99324
          ],
          [
            23.77501,
            37.99276
          ],
          [
            23.77183,
            37.99126
          ],
          [
            23.77107,
            37.99082
          ],
          [
            23.76915,
            37.98939
          ],
          [
            23.76667,
            37.98795
          ],
          [
            23.76623,
            37.98753
          ],
          [
            23.76603,
            37.98741
          ],
          [
            23.76517,
            37.98677
          ],
          [
            23.76361,
            37.98611
          ],
          [
            23.76304,
            37.98606
          ],
          [
            23.76169,
            37.98635
          ],
          [
            23.76106,
            37.9864
          ],
          [
            23.76041,
            37.98544
          ],
          [
            23.75821,
            37.98347
          ],
          [
            23.75663,
            37.98264
          ],
          [
            23.75627,
            37.98238
          ],
          [
            23.75328,
            37.97937
          ],
          [
            23.75046,
            37.9771
          ],
          [
            23.74299,
            37.97538
          ],
          [
            23.73908,
            37.97586
          ],
          [
            23.73584,
            37.97625
          ],
          [
            23.73593,
            37.97692
          ],
          [
            23.73431,
            37.9788
          ],
          [
            23.73351,
            37.97969
          ],
          [
            23.73334,
            37.9799
          ],
          [
            23.73321,
            37.98006
          ],
          [
            23.73304,
            37.98023
          ]
        ]
      }
    },
    {
      "type": "Feature",
      "properties": {
        "type": "stop",
        "stop_code": "10387",
        "stop_id": "000174",
        "name": "ΠΑΠΑΓΟΥ",
        "order": "1"
      },
      "geometry": {
        "type": "Point",
        "coordinates": [
          23.7957455,
          37.9794445
        ]
      }
    },
    {
      "type": "Feature",
      "properties": {
        "type": "stop",
        "stop_code": "710026",
        "stop_id": "710026",
        "name": "22η ΠΑΠΑΓΟΥ",
        "order": "2"
      },
      "geometry": {
        "type": "Point",
        "coordinates": [
          23.7943146,
          37.9770667
        ]
      }
    },
    {
      "type": "Feature",
      "properties": {
        "type": "stop",
        "stop_code": "710027",
        "stop_id": "710027",
        "name": "21η ΠΑΠΑΓΟΥ",
        "order": "3"
      },
      "geometry": {
        "type": "Point",
        "coordinates": [
          23.7933326,
          37.9764562
        ]
      }
    },
    {
      "type": "Feature",
      "properties": {
        "type": "stop",
        "stop_code": "710028",
        "stop_id": "710028",
        "name": "20η ΠΑΠΑΓΟΥ",
        "order": "4"
      },
      "geometry": {
        "type": "Point",
        "coordinates": [
          23.7909518,
          37.9781202
        ]
      }
    },
    {
      "type": "Feature",
      "properties": {
        "type": "stop",
        "stop_code": "710029",
        "stop_id": "710029",
        "name": "19η ΠΑΠΑΓΟΥ",
        "order": "5"
      },
      "geometry": {
        "type": "Point",
        "coordinates": [
          23.7900919,
          37.9804708
        ]
      }
    },
    {
      "type": "Feature",
      "properties": {
        "type": "stop",
        "stop_code": "710030",
        "stop_id": "710030",
        "name": "18η ΠΑΠΑΓΟΥ",
        "order": "6"
      },
      "geometry": {
        "type": "Point",
        "coordinates": [
          23.7913461,
          37.9816277
        ]
      }
    },
    {
      "type": "Feature",
      "properties": {
        "type": "stop",
        "stop_code": "710031",
        "stop_id": "710031",
        "name": "17η ΠΑΠΑΓΟΥ",
        "order": "7"
      },
      "geometry": {
        "type": "Point",
        "coordinates": [
          23.7891837,
          37.9834217
        ]
      }
    },
    {
      "type": "Feature",
      "properties": {
        "type": "stop",
        "stop_code": "710032",
        "stop_id": "710032",
        "name": "16η ΠΑΠΑΓΟΥ",
        "order": "8"
      },
      "geometry": {
        "type": "Point",
        "coordinates": [
          23.7925532,
          37.9829969
        ]
      }
    },
    {
      "type": "Feature",
      "properties": {
        "type": "stop",
        "stop_code": "710033",
        "stop_id": "710033",
        "name": "15η ΠΑΠΑΓΟΥ",
        "order": "9"
      },
      "geometry": {
        "type": "Point",
        "coordinates": [
          23.795676,
          37.9831855
        ]
      }
    },
    {
      "type": "Feature",
      "properties": {
        "type": "stop",
        "stop_code": "710034",
        "stop_id": "710034",
        "name": "14η ΠΑΠΑΓΟΥ",
        "order": "10"
      },
      "geometry": {
        "type": "Point",
        "coordinates": [
          23.7934964,
          37.9852406
        ]
      }
    },
    {
      "type": "Feature",
      "properties": {
        "type": "stop",
        "stop_code": "710035",
        "stop_id": "710035",
        "name": "ΠΙΝΔΟΥ",
        "order": "11"
      },
      "geometry": {
        "type": "Point",
        "coordinates": [
          23.7926477,
          37.9865799
        ]
      }
    },
    {
      "type": "Feature",
      "properties": {
        "type": "stop",
        "stop_code": "710036",
        "stop_id": "710036",
        "name": "11η ΠΑΠΑΓΟΥ",
        "order": "12"
      },
      "geometry": {
        "type": "Point",
        "coordinates": [
          23.7906387,
          37.989048
        ]
      }
    },
    {
      "type": "Feature",
      "properties": {
        "type": "stop",
        "stop_code": "710037",
        "stop_id": "710037",
        "name": "10η ΠΑΠΑΓΟΥ",
        "order": "13"
      },
      "geometry": {
        "type": "Point",
        "coordinates": [
          23.7944068,
          37.9895414
        ]
      }
    },
    {
      "type": "Feature",
      "properties": {
        "type": "stop",
        "stop_code": "710038",
        "stop_id": "710038",
        "name": "9η ΠΑΠΑΓΟΥ",
        "order": "14"
      },
      "geometry": {
        "type": "Point",
        "coordinates": [
          23.7969785,
          37.9902759
        ]
      }
    },
    {
      "type": "Feature",
      "properties": {
        "type": "stop",
        "stop_code": "710039",
        "stop_id": "710039",
        "name": "8η ΠΑΠΑΓΟΥ",
        "order": "15"
      },
      "geometry": {
        "type": "Point",
        "coordinates": [
          23.7987416,
          37.991045
        ]
      }
    },
    {
      "type": "Feature",
      "properties": {
        "type": "stop",
        "stop_code": "490036",
        "stop_id": "490036",
        "name": "7η ΠΑΠΑΓΟΥ",
        "order": "16"
      },
      "geometry": {
        "type": "Point",
        "coordinates": [
          23.7992397,
          37.9921364
        ]
      }
    },
    {
      "type": "Feature",
      "properties": {
        "type": "stop",
        "stop_code": "490037",
        "stop_id": "490037",
        "name": "ΕΡΑΤΟΥΣ",
        "order": "17"
      },
      "geometry": {
        "type": "Point",
        "coordinates": [
          23.7958397,
          37.9943657
        ]
      }
    },
    {
      "type": "Feature",
      "properties": {
        "type": "stop",
        "stop_code": "490038",
        "stop_id": "490038",
        "name": "ΑΝΑΣΤΑΣΕΩΣ",
        "order": "18"
      },
      "geometry": {
        "type": "Point",
        "coordinates": [
          23.7928273,
          37.9964244
        ]
      }
    },
    {
      "type": "Feature",
      "properties": {
        "type": "stop",
        "stop_code": "490039",
        "stop_id": "490039",
        "name": "ΒΟΥΤΣΙΝΑ",
        "order": "19"
      },
      "geometry": {
        "type": "Point",
        "coordinates": [
          23.7900658,
          37.9982581
        ]
      }
    },
    {
      "type": "Feature",
      "properties": {
        "type": "stop",
        "stop_code": "490040",
        "stop_id": "490040",
        "name": "2η ΧΟΛΑΡΓΟΥ",
        "order": "20"
      },
      "geometry": {
        "type": "Point",
        "coordinates": [
          23.7873267,
          37.9999888
        ]
      }
    },
    {
      "type": "Feature",
      "properties": {
        "type": "stop",
        "stop_code": "690021",
        "stop_id": "690021",
        "name": "ΣΤ. ΕΘΝ. ΑΜΥΝΑ",
        "order": "21"
      },
      "geometry": {
        "type": "Point",
        "coordinates": [
          23.7847177,
          37.9995579
        ]
      }
    },
    {
      "type": "Feature",
      "properties": {
        "type": "stop",
        "stop_code": "690022",
        "stop_id": "690022",
        "name": "ΓΕΝΙΚΟ ΚΡΑΤΙΚΟ",
        "order": "22"
      },
      "geometry": {
        "type": "Point",
        "coordinates": [
          23.7825385,
          37.9978659
        ]
      }
    },
    {
      "type": "Feature",
      "properties": {
        "type": "stop",
        "stop_code": "60689",
        "stop_id": "060689",
        "name": "ΝΟΣ. ΘΩΡΑΚΟΣ",
        "order": "23"
      },
      "geometry": {
        "type": "Point",
        "coordinates": [
          23.7785373,
          37.9952357
        ]
      }
    },
    {
      "type": "Feature",
      "properties": {
        "type": "stop",
        "stop_code": "60690",
        "stop_id": "060690",
        "name": "ΣΤ. ΜΕΤΡΟ ΚΑΤΕΧΑΚΗ",
        "order": "24"
      },
      "geometry": {
        "type": "Point",
        "coordinates": [
          23.7769685,
          37.9942954
        ]
      }
    },
    {
      "type": "Feature",
      "properties": {
        "type": "stop",
        "stop_code": "60697",
        "stop_id": "060697",
        "name": "ΣΧΟΛΗ ΑΣΤΥΝΟΜΙΑΣ",
        "order": "25"
      },
      "geometry": {
        "type": "Point",
        "coordinates": [
          23.7727054,
          37.9917727
        ]
      }
    },
    {
      "type": "Feature",
      "properties": {
        "type": "stop",
        "stop_code": "61047",
        "stop_id": "061047",
        "name": "ΕΡΡΙΚΟΣ ΝΤΥΝΑΝ",
        "order": "26"
      },
      "geometry": {
        "type": "Point",
        "coordinates": [
          23.7702728,
          37.9903439
        ]
      }
    },
    {
      "type": "Feature",
      "properties": {
        "type": "stop",
        "stop_code": "60700",
        "stop_id": "060700",
        "name": "ΤΡΙΚΑΛΩΝ",
        "order": "27"
      },
      "geometry": {
        "type": "Point",
        "coordinates": [
          23.7687841,
          37.9893316
        ]
      }
    },
    {
      "type": "Feature",
      "properties": {
        "type": "stop",
        "stop_code": "61598",
        "stop_id": "061598",
        "name": "ΚΑΡΑΝΙΚΑ",
        "order": "28"
      },
      "geometry": {
        "type": "Point",
        "coordinates": [
          23.7656505,
          37.9871315
        ]
      }
    },
    {
      "type": "Feature",
      "properties": {
        "type": "stop",
        "stop_code": "61040",
        "stop_id": "061040",
        "name": "ΠΛ. ΑΜΠΕΛΟΚΗΠΩΝ",
        "order": "29"
      },
      "geometry": {
        "type": "Point",
        "coordinates": [
          23.7602671,
          37.9854119
        ]
      }
    },
    {
      "type": "Feature",
      "properties": {
        "type": "stop",
        "stop_code": "60672",
        "stop_id": "060672",
        "name": "ΙΠΠΟΚΡΑΤΕΙΟ",
        "order": "30"
      },
      "geometry": {
        "type": "Point",
        "coordinates": [
          23.7588024,
          37.9840931
        ]
      }
    },
    {
      "type": "Feature",
      "properties": {
        "type": "stop",
        "stop_code": "60673",
        "stop_id": "060673",
        "name": "ΠΛ. ΜΑΒΙΛΗ",
        "order": "31"
      },
      "geometry": {
        "type": "Point",
        "coordinates": [
          23.7564327,
          37.9825706
        ]
      }
    },
    {
      "type": "Feature",
      "properties": {
        "type": "stop",
        "stop_code": "61043",
        "stop_id": "061043",
        "name": "ΝΟΣΟΚ. ΑΛΕΞΑΝΔΡΑ",
        "order": "32"
      },
      "geometry": {
        "type": "Point",
        "coordinates": [
          23.7547703,
          37.9809843
        ]
      }
    },
    {
      "type": "Feature",
      "properties": {
        "type": "stop",
        "stop_code": "60674",
        "stop_id": "060674",
        "name": "ΙΛΙΣΙΑ",
        "order": "33"
      },
      "geometry": {
        "type": "Point",
        "coordinates": [
          23.7521274,
          37.9785187
        ]
      }
    },
    {
      "type": "Feature",
      "properties": {
        "type": "stop",
        "stop_code": "60675",
        "stop_id": "060675",
        "name": "ΝΟΣΟΚ. ΕΥΑΓΓΕΛΙΣΜΟΣ",
        "order": "34"
      },
      "geometry": {
        "type": "Point",
        "coordinates": [
          23.7477618,
          37.9765364
        ]
      }
    },
    {
      "type": "Feature",
      "properties": {
        "type": "stop",
        "stop_code": "60676",
        "stop_id": "060676",
        "name": "ΡΗΓΙΛΛΗΣ",
        "order": "35"
      },
      "geometry": {
        "type": "Point",
        "coordinates": [
          23.742435,
          37.9754734
        ]
      }
    },
    {
      "type": "Feature",
      "properties": {
        "type": "stop",
        "stop_code": "61048",
        "stop_id": "061048",
        "name": "ΣΥΝΤΑΓΜΑ",
        "order": "36"
      },
      "geometry": {
        "type": "Point",
        "coordinates": [
          23.7387232,
          37.975966
        ]
      }
    },
    {
      "type": "Feature",
      "properties": {
        "type": "stop",
        "stop_code": "60015",
        "stop_id": "060015",
        "name": "ΝΟΜΙΣΜΑΤΙΚΟ ΜΟΥΣΕΙΟ",
        "order": "37"
      },
      "geometry": {
        "type": "Point",
        "coordinates": [
          23.735413,
          37.9777067
        ]
      }
    },
    {
      "type": "Feature",
      "properties": {
        "type": "stop",
        "stop_code": "11112",
        "stop_id": "910",
        "name": "ΑΚΑΔΗΜΙΑ 106-112",
        "order": "38"
      },
      "geometry": {
        "type": "Point",
        "coordinates": [
          23.733268,
          37.980151
        ]
      }
    }
  ]
}