{
  "type": "FeatureCollection",
  "features": [
    {
      "type": "Feature",
      "properties": {
        "type": "route_path",
        "route_code": "2770",
        "descr": "ΣΤ. ΚΑΝΤΖΑ - ΣΠΑΤΑ - ΑΡΤΕΜΙΣ"
      },
      "geometry": {
        "type": "LineString",
        "coordinates": [
          [
            23.87035,
            37.98392
          ],
          [
            23.86957,
            37.98404
          ],
          [
            23.86898,
            37.98399
          ],
          [
            23.86803,
            37.98392
          ],
          [
            23.86708,
            37.98383
          ],
          [
            23.86535,
            37.9837
          ],
          [
            23.86495,
            37.9838
          ],
          [
            23.86461,
            37.98404
          ],
          [
            23.86444,
            37.9849
          ],
          [
            23.86486,
            37.98579
          ],
          [
            23.86577,
            37.98741
          ],
          [
            23.86635,
            37.98824
          ],
          [
            23.86775,
            37.98949
          ],
          [
            23.86944,
            37.99044
          ],
          [
            23.86978,
            37.99062
          ],
          [
            23.87027,
            37.99026
          ],
          [
            23.8709,
            37.98998
          ],
          [
            23.87264,
            37.98959
          ],
          [
            23.87325,
            37.99028
          ],
          [
            23.87488,
            37.99229
          ],
          [
            23.87539,
            37.99193
          ],
          [
            23.87848,
            37.98986
          ],
          [
            23.87981,
            37.98902
          ],
          [
            23.88087,
            37.98856
          ],
          [
            23.88224,
            37.98789
          ],
          [
            23.88339,
            37.98753
          ],
          [
            23.88395,
            37.98724
          ],
          [
            23.88542,
            37.98642
          ],
          [
            23.88872,
            37.98461
          ],
          [
            23.88932,
            37.98426
          ],
          [
            23.89199,
            37.98241
          ],
          [
            23.89384,
            37.98117
          ],
          [
            23.89649,
            37.97945
          ],
          [
            23.89994,
            37.97725
          ],
          [
            23.90095,
            37.97659
          ],
          [
            23.90115,
            37.97647
          ],
          [
            23.90183,
            37.97593
          ],
          [
            23.90302,
            37.97509
          ],
          [
            23.90378,
            37.97434
          ],
          [
            23.90462,
            37.97302
          ],
          [
            23.9055,
            37.97116
          ],
          [
            23.90561,
            37.9697
          ],
          [
            23.90566,
            37.96887
          ],
          [
            23.90568,
            37.96857
          ],
          [
            23.90594,
            37.96769
          ],
          [
            23.90624,
            37.9664
          ],
          [
            23.90633,
            37.96578
          ],
          [
            23.90643,
            37.96526
          ],
          [
            23.90663,
            37.96494
          ],
          [
            23.9071,
            37.96454
          ],
          [
            23.90785,
            37.96426
          ],
          [
            23.90847,
            37.96427
          ],
          [
            23.90878,
            37.96433
          ],
          [
            23.90896,
            37.96333
          ],
          [
            23.90918,
            37.96293
          ],
          [
            23.90944,
            37.96255
          ],
          [
            23.91029,
            37.96242
          ],
          [
            23.9109,
            37.96236
          ],
          [
            23.91183,
            37.96245
          ],
          [
            23.91413,
            37.96212
          ],
          [
            23.91537,
            37.96173
          ],
          [
            23.91711,
            37.96123
          ],
          [
            23.91968,
            37.96058
          ],
          [
            23.92226,
            37.96044
          ],
          [
            23.92361,
            37.96045
          ],
          [
            23.92512,
            37.96024
          ],
          [
            23.926,
            37.96003
          ],
          [
            23.92699,
            37.95977
          ],
          [
            23.92871,
            37.95964
          ],
          [
            23.93179,
            37.95971
          ],
          [
            23.93395,
            37.9598
          ],
          [
            23.93626,
            37.96022
          ],
          [
            23.93759,
            37.96032
          ],
          [
            23.93866,
            37.96039
          ],
          [
            23.93943,
            37.96035
          ],
          [
            23.94143,
            37.96004
          ],
          [
            23.94315,
            37.95998
          ],
          [
            23.94631,
            37.9596
          ],
          [
            23.94975,
            37.95935
          ],
          [
            23.95432,
            37.95875
          ],
          [
            23.95827,
            37.95884
          ],
          [
            23.96268,
            37.95958
          ],
          [
            23.96539,
            37.95994
          ],
          [
            23.96809,
            37.95959
          ],
          [
            23.97214,
            37.95819
          ],
          [
            23.97449,
            37.95845
          ],
          [
            23.97628,
            37.95962
          ],
          [
            23.97725,
            37.96005
          ],
          [
            23.97908,
            37.96056
          ],
          [
            23.97981,
            37.96051
          ],
          [
            23.97999,
            37.96076
          ],
          [
            23.98175,
            37.96212
          ],
          [
            23.98252,
            37.96266
          ],
          [
            23.98505,
            37.96457
          ],
          [
            23.98646,
            37.9656
          ],
          [
            23.98718,
            37.966
          ],
          [
            23.99167,
            37.96689
          ],
          [
            23.99678,
            37.9679
          ],
          [
            23.99959,
            37.96844
          ],
          [
            24.00423,
            37.96949
          ],
          [
            24.00705,
            37.96887
          ],
          [
            24.0076,
            37.97
          ],
          [
            24.00776,
            37.9703
          ],
          [
            24.00744,
            37.97026
          ],
          [
            24.00649,
            37.97002
          ],
          [
            24.0007,
            37.96876
          ],
          [
            23.99954,
            37.9685
          ],
          [
            23.99433,
            37.96747
          ],
          [
            23.99321,
            37.96726
          ],
          [
            23.98986,
            37.96659
          ],
          [
            23.98701,
            37.96602
          ],
          [
            23.98621,
            37.96552
          ],
          [
            23.98416,
            37.96397
          ],
          [
            23.98227,
            37.96256
          ],
          [
            23.97987,
            37.96077
          ],
          [
            23.97934,
            37.96067
          ],
          [
            23.97715,
            37.96016
          ],
          [
            23.97578,
            37.95944
          ],
          [
            23.97441,
            37.95858
          ],
          [
            23.97243,
            37.95825
          ],
          [
            23.96912,
            37.95933
          ],
          [
            23.96709,
            37.95992
          ],
          [
            23.96553,
            37.96006
          ],
          [
            23.9626,
            37.95966
          ],
          [
            23.95835,
            37.95897
          ],
          [
            23.95511,
            37.95889
          ],
          [
            23.95166,
            37.95949
          ],
          [
            23.94826,
            37.9595
          ],
          [
            23.94193,
            37.96016
          ],
          [
            23.93829,
            37.9605
          ],
          [
            23.93598,
            37.96028
          ],
          [
            23.93368,
            37.95992
          ],
          [
            23.93161,
            37.95986
          ],
          [
            23.92902,
            37.95976
          ],
          [
            23.92689,
            37.95992
          ],
          [
            23.927,
            37.96103
          ],
          [
            23.92572,
            37.96322
          ],
          [
            23.92411,
            37.96531
          ],
          [
            23.92199,
            37.96593
          ],
          [
            23.91788,
            37.967
          ],
          [
            23.91453,
            37.96776
          ],
          [
            23.91265,
            37.96821
          ],
          [
            23.91068,
            37.96819
          ],
          [
            23.90826,
            37.96816
          ],
          [
            23.9059,
            37.96814
          ],
          [
            23.90577,
            37.96892
          ],
          [
            23.90565,
            37.97124
          ],
          [
            23.90445,
            37.97355
          ],
          [
            23.90398,
            37.97427
          ],
          [
            23.90281,
            37.97539
          ],
          [
            23.90194,
            37.97602
          ],
          [
            23.90023,
            37.9772
          ],
          [
            23.89776,
            37.97874
          ],
          [
            23.89361,
            37.98143
          ],
          [
            23.88962,
            37.98413
          ],
          [
            23.88885,
            37.98466
          ],
          [
            23.88407,
            37.98727
          ],
          [
            23.88358,
            37.98754
          ],
          [
            23.88304,
            37.9877
          ],
          [
            23.88173,
            37.98818
          ],
          [
            23.87987,
            37.98914
          ],
          [
            23.87783,
            37.99046
          ],
          [
            23.87613,
            37.99151
          ],
          [
            23.87557,
            37.99192
          ],
          [
            23.87487,
            37.99243
          ],
          [
            23.87314,
            37.99024
          ],
          [
            23.87261,
            37.98965
          ],
          [
            23.87058,
            37.99026
          ],
          [
            23.86974,
            37.99079
          ],
          [
            23.86922,
            37.99049
          ],
          [
            23.86763,
            37.98957
          ],
          [
            23.8665,
            37.98865
          ],
          [
            23.86608,
            37.98806
          ],
          [
            23.8648,
            37.98598
          ],
          [
            23.86419,
            37.98477
          ],
          [
            23.86431,
            37.98402
          ],
          [
            23.86472,
            37.98375
          ],
          [
            23.86536,
            37.98352
          ],
          [
            23.86713,
            37.98368
          ],
          [
            23.86793,
            37.98376
          ],
          [
            23.86844,
            37.98378
          ],
          [
            23.87008,
            37.98376
          ],
          [
            23.87053,
            37.98351
          ]
        ]
      }
    },
    {
      "type": "Feature",
      "properties": {
        "type": "stop",
        "stop_code": "11119",
        "stop_id": "326",
        "name": "ΑΦΕΤΗΡΙΑ 326",
        "order": "1"
      },
      "geometry": {
        "type": "Point",
        "coordinates": [
          23.8726,
          37.982342
        ]
      }
    },
    {
      "type": "Feature",
      "properties": {
        "type": "stop",
        "stop_code": "390052",
        "stop_id": "390052",
        "name": "ΚΑΝΤΖΑ 2",
        "order": "2"
      },
      "geometry": {
        "type": "Point",
        "coordinates": [
          23.8691004,
          37.9840808
        ]
      }
    },
    {
      "type": "Feature",
      "properties": {
        "type": "stop",
        "stop_code": "700106",
        "stop_id": "700106",
        "name": "ΣΧΟΛΕΙΑ",
        "order": "3"
      },
      "geometry": {
        "type": "Point",
        "coordinates": [
          23.8648543,
          37.9856442
        ]
      }
    },
    {
      "type": "Feature",
      "properties": {
        "type": "stop",
        "stop_code": "700036",
        "stop_id": "700036",
        "name": "ΚΑΜΠΑ",
        "order": "4"
      },
      "geometry": {
        "type": "Point",
        "coordinates": [
          23.8661239,
          37.9878717
        ]
      }
    },
    {
      "type": "Feature",
      "properties": {
        "type": "stop",
        "stop_code": "700037",
        "stop_id": "700037",
        "name": "ΛΕΟΝΤΑΡΙΟΥ",
        "order": "5"
      },
      "geometry": {
        "type": "Point",
        "coordinates": [
          23.8695655,
          37.9905178
        ]
      }
    },
    {
      "type": "Feature",
      "properties": {
        "type": "stop",
        "stop_code": "700035",
        "stop_id": "700035",
        "name": "2η ΠΑΛΑΙΟΠΑΝΑΓΙΑΣ",
        "order": "6"
      },
      "geometry": {
        "type": "Point",
        "coordinates": [
          23.873232,
          37.9902333
        ]
      }
    },
    {
      "type": "Feature",
      "properties": {
        "type": "stop",
        "stop_code": "700077",
        "stop_id": "700077",
        "name": "ΠΑΛΑΙΟΠΑΝΑΓΙΑΣ",
        "order": "7"
      },
      "geometry": {
        "type": "Point",
        "coordinates": [
          23.8754248,
          37.9918633
        ]
      }
    },
    {
      "type": "Feature",
      "properties": {
        "type": "stop",
        "stop_code": "700072",
        "stop_id": "700072",
        "name": "ΦΥΤΩΡΙΟ",
        "order": "8"
      },
      "geometry": {
        "type": "Point",
        "coordinates": [
          23.8784961,
          37.9898734
        ]
      }
    },
    {
      "type": "Feature",
      "properties": {
        "type": "stop",
        "stop_code": "700073",
        "stop_id": "700073",
        "name": "ΚΡΗΤΙΚΟΣ",
        "order": "9"
      },
      "geometry": {
        "type": "Point",
        "coordinates": [
          23.8808843,
          37.9884997
        ]
      }
    },
    {
      "type": "Feature",
      "properties": {
        "type": "stop",
        "stop_code": "700010",
        "stop_id": "700010",
        "name": "ΓΡΗΓΟΡΗΣ ΛΑΜΠΡΑΚΗΣ",
        "order": "10"
      },
      "geometry": {
        "type": "Point",
        "coordinates": [
          23.8847225,
          37.9867869
        ]
      }
    },
    {
      "type": "Feature",
      "properties": {
        "type": "stop",
        "stop_code": "700011",
        "stop_id": "700011",
        "name": "ΓΑΒΑΛΑ",
        "order": "11"
      },
      "geometry": {
        "type": "Point",
        "coordinates": [
          23.8888364,
          37.9845251
        ]
      }
    },
    {
      "type": "Feature",
      "properties": {
        "type": "stop",
        "stop_code": "440001",
        "stop_id": "440001",
        "name": "ΞΗΡΟΤΥΡΙ",
        "order": "12"
      },
      "geometry": {
        "type": "Point",
        "coordinates": [
          23.8937211,
          37.9812173
        ]
      }
    },
    {
      "type": "Feature",
      "properties": {
        "type": "stop",
        "stop_code": "440002",
        "stop_id": "440002",
        "name": "ΚΑΤΣΑΟΥΝΗ",
        "order": "13"
      },
      "geometry": {
        "type": "Point",
        "coordinates": [
          23.8971681,
          37.9789883
        ]
      }
    },
    {
      "type": "Feature",
      "properties": {
        "type": "stop",
        "stop_code": "440003",
        "stop_id": "440003",
        "name": "ΕΙΚΟΝΟΣΤΑΣΙ",
        "order": "14"
      },
      "geometry": {
        "type": "Point",
        "coordinates": [
          23.899965,
          37.9771932
        ]
      }
    },
    {
      "type": "Feature",
      "properties": {
        "type": "stop",
        "stop_code": "440004",
        "stop_id": "440004",
        "name": "ΦΟΥΡΝΟΣ",
        "order": "15"
      },
      "geometry": {
        "type": "Point",
        "coordinates": [
          23.9018156,
          37.9758633
        ]
      }
    },
    {
      "type": "Feature",
      "properties": {
        "type": "stop",
        "stop_code": "440005",
        "stop_id": "440005",
        "name": "ΑΓ. ΝΙΚΟΛΑΟΣ",
        "order": "16"
      },
      "geometry": {
        "type": "Point",
        "coordinates": [
          23.9042327,
          37.9733958
        ]
      }
    },
    {
      "type": "Feature",
      "properties": {
        "type": "stop",
        "stop_code": "440006",
        "stop_id": "440006",
        "name": "ΖΩΗΣ",
        "order": "17"
      },
      "geometry": {
        "type": "Point",
        "coordinates": [
          23.905129,
          37.971943
        ]
      }
    },
    {
      "type": "Feature",
      "properties": {
        "type": "stop",
        "stop_code": "440007",
        "stop_id": "440007",
        "name": "ΓΗΠΕΔΟ",
        "order": "18"
      },
      "geometry": {
        "type": "Point",
        "coordinates": [
          23.9056259,
          37.9688411
        ]
      }
    },
    {
      "type": "Feature",
      "properties": {
        "type": "stop",
        "stop_code": "440008",
        "stop_id": "440008",
        "name": "ΧΡΙΣΤΟΣ",
        "order": "19"
      },
      "geometry": {
        "type": "Point",
        "coordinates": [
          23.906187,
          37.9662971
        ]
      }
    },
    {
      "type": "Feature",
      "properties": {
        "type": "stop",
        "stop_code": "440009",
        "stop_id": "440009",
        "name": "ΒΡΥΣΗ",
        "order": "20"
      },
      "geometry": {
        "type": "Point",
        "coordinates": [
          23.9076154,
          37.9642846
        ]
      }
    },
    {
      "type": "Feature",
      "properties": {
        "type": "stop",
        "stop_code": "440010",
        "stop_id": "440010",
        "name": "ΠΑΝΑΓΙΑ",
        "order": "21"
      },
      "geometry": {
        "type": "Point",
        "coordinates": [
          23.9108499,
          37.9623306
        ]
      }
    },
    {
      "type": "Feature",
      "properties": {
        "type": "stop",
        "stop_code": "440012",
        "stop_id": "440012",
        "name": "ΔΗΜΑΡΧΕΙΟ",
        "order": "22"
      },
      "geometry": {
        "type": "Point",
        "coordinates": [
          23.9143376,
          37.9620097
        ]
      }
    },
    {
      "type": "Feature",
      "properties": {
        "type": "stop",
        "stop_code": "440013",
        "stop_id": "440013",
        "name": "ΠΛΑΤΕΙΑ",
        "order": "23"
      },
      "geometry": {
        "type": "Point",
        "coordinates": [
          23.9160295,
          37.9615204
        ]
      }
    },
    {
      "type": "Feature",
      "properties": {
        "type": "stop",
        "stop_code": "440015",
        "stop_id": "440015",
        "name": "ΠΕΡΙΠΤΕΡΟ",
        "order": "24"
      },
      "geometry": {
        "type": "Point",
        "coordinates": [
          23.9197882,
          37.9605099
        ]
      }
    },
    {
      "type": "Feature",
      "properties": {
        "type": "stop",
        "stop_code": "440095",
        "stop_id": "440095",
        "name": "ΚΕΚΡΟΠΟΣ",
        "order": "25"
      },
      "geometry": {
        "type": "Point",
        "coordinates": [
          23.9226798,
          37.9603767
        ]
      }
    },
    {
      "type": "Feature",
      "properties": {
        "type": "stop",
        "stop_code": "440011",
        "stop_id": "440011",
        "name": "ΔΙΑΣΤΑΥΡΩΣΗ",
        "order": "26"
      },
      "geometry": {
        "type": "Point",
        "coordinates": [
          23.9281301,
          37.9596336
        ]
      }
    },
    {
      "type": "Feature",
      "properties": {
        "type": "stop",
        "stop_code": "440057",
        "stop_id": "440057",
        "name": "ΑΓ. ΠΕΤΡΟΣ",
        "order": "27"
      },
      "geometry": {
        "type": "Point",
        "coordinates": [
          23.9333939,
          37.9597532
        ]
      }
    },
    {
      "type": "Feature",
      "properties": {
        "type": "stop",
        "stop_code": "440061",
        "stop_id": "440061",
        "name": "ΤΑΧ. ΘΥΡΙΔΕΣ",
        "order": "28"
      },
      "geometry": {
        "type": "Point",
        "coordinates": [
          23.9359038,
          37.9601385
        ]
      }
    },
    {
      "type": "Feature",
      "properties": {
        "type": "stop",
        "stop_code": "440016",
        "stop_id": "440016",
        "name": "ΑΓ. ΚΩΝ/ΝΟΣ",
        "order": "29"
      },
      "geometry": {
        "type": "Point",
        "coordinates": [
          23.9387465,
          37.9603718
        ]
      }
    },
    {
      "type": "Feature",
      "properties": {
        "type": "stop",
        "stop_code": "440049",
        "stop_id": "440049",
        "name": "ΚΟΛΙΚΡΕΠΙ",
        "order": "30"
      },
      "geometry": {
        "type": "Point",
        "coordinates": [
          23.9425358,
          37.9599843
        ]
      }
    },
    {
      "type": "Feature",
      "properties": {
        "type": "stop",
        "stop_code": "440017",
        "stop_id": "440017",
        "name": "1η ΑΕΡΟΔΡΟΜΙΟΥ",
        "order": "31"
      },
      "geometry": {
        "type": "Point",
        "coordinates": [
          23.9501809,
          37.9592752
        ]
      }
    },
    {
      "type": "Feature",
      "properties": {
        "type": "stop",
        "stop_code": "440025",
        "stop_id": "440025",
        "name": "2η ΑΕΡΟΔΡΟΜΙΟΥ",
        "order": "32"
      },
      "geometry": {
        "type": "Point",
        "coordinates": [
          23.958431,
          37.9588131
        ]
      }
    },
    {
      "type": "Feature",
      "properties": {
        "type": "stop",
        "stop_code": "440018",
        "stop_id": "440018",
        "name": "ΣΥΝΕΤΑΙΡΙΣΜΟΣ ΘΥΡΩΡΩΝ",
        "order": "33"
      },
      "geometry": {
        "type": "Point",
        "coordinates": [
          23.9685129,
          37.9594215
        ]
      }
    },
    {
      "type": "Feature",
      "properties": {
        "type": "stop",
        "stop_code": "790001",
        "stop_id": "790001",
        "name": "ΑΠΟΣΠΟΡΗ",
        "order": "34"
      },
      "geometry": {
        "type": "Point",
        "coordinates": [
          23.9764385,
          37.9596199
        ]
      }
    },
    {
      "type": "Feature",
      "properties": {
        "type": "stop",
        "stop_code": "790002",
        "stop_id": "790002",
        "name": "ΑΓ. ΙΩΑΝΝΗΣ",
        "order": "35"
      },
      "geometry": {
        "type": "Point",
        "coordinates": [
          23.9808434,
          37.9613737
        ]
      }
    },
    {
      "type": "Feature",
      "properties": {
        "type": "stop",
        "stop_code": "790003",
        "stop_id": "790003",
        "name": "ΑΓ. ΚΥΡΙΑΚΗ",
        "order": "36"
      },
      "geometry": {
        "type": "Point",
        "coordinates": [
          23.9834801,
          37.963331
        ]
      }
    },
    {
      "type": "Feature",
      "properties": {
        "type": "stop",
        "stop_code": "790004",
        "stop_id": "790004",
        "name": "ΓΙΟΥΡΓΑ",
        "order": "37"
      },
      "geometry": {
        "type": "Point",
        "coordinates": [
          23.984955,
          37.964467
        ]
      }
    },
    {
      "type": "Feature",
      "properties": {
        "type": "stop",
        "stop_code": "790005",
        "stop_id": "790005",
        "name": "ΑΓ. ΝΕΚΤΑΡΙΟΣ",
        "order": "38"
      },
      "geometry": {
        "type": "Point",
        "coordinates": [
          23.9902881,
          37.9665796
        ]
      }
    },
    {
      "type": "Feature",
      "properties": {
        "type": "stop",
        "stop_code": "790006",
        "stop_id": "790006",
        "name": "ΟΤΕ",
        "order": "39"
      },
      "geometry": {
        "type": "Point",
        "coordinates": [
          23.9954312,
          37.9676063
        ]
      }
    },
    {
      "type": "Feature",
      "properties": {
        "type": "stop",
        "stop_code": "790007",
        "stop_id": "790007",
        "name": "ΞΕΝΟΦΩΝΤΟΣ",
        "order": "40"
      },
      "geometry": {
        "type": "Point",
        "coordinates": [
          23.9981884,
          37.9681106
        ]
      }
    },
    {
      "type": "Feature",
      "properties": {
        "type": "stop",
        "stop_code": "790008",
        "stop_id": "790008",
        "name": "ΧΑΡΟΥΛΑ",
        "order": "41"
      },
      "geometry": {
        "type": "Point",
        "coordinates": [
          24.0010305,
          37.9687504
        ]
      }
    },
    {
      "type": "Feature",
      "properties": {
        "type": "stop",
        "stop_code": "790009",
        "stop_id": "790009",
        "name": "ΜΑΚΡΗ",
        "order": "42"
      },
      "geometry": {
        "type": "Point",
        "coordinates": [
          24.0034481,
          37.969282
        ]
      }
    },
    {
      "type": "Feature",
      "properties": {
        "type": "stop",
        "stop_code": "12342",
        "stop_id": "792011",
        "name": "ΠΑΡΑΛΙΑ ΑΡΤΕΜΙΔΑΣ",
        "order": "43"
      },
      "geometry": {
        "type": "Point",
        "coordinates": [
          24.006197,
          37.9690726
        ]
      }
    },
    {
      "type": "Feature",
      "properties": {
        "type": "stop",
        "stop_code": "790042",
        "stop_id": "790042",
        "name": "ΣΤΡΟΦΗ",
        "order": "44"
      },
      "geometry": {
        "type": "Point",
        "coordinates": [
          24.0067186,
          37.9701179
        ]
      }
    },
    {
      "type": "Feature",
      "properties": {
        "type": "stop",
        "stop_code": "790043",
        "stop_id": "790043",
        "name": "ΜΑΚΡΗ",
        "order": "45"
      },
      "geometry": {
        "type": "Point",
        "coordinates": [
          24.0037075,
          37.9694835
        ]
      }
    },
    {
      "type": "Feature",
      "properties": {
        "type": "stop",
        "stop_code": "790044",
        "stop_id": "790044",
        "name": "ΧΑΡΟΥΛΑ",
        "order": "46"
      },
      "geometry": {
        "type": "Point",
        "coordinates": [
          24.0007437,
          37.9688301
        ]
      }
    },
    {
      "type": "Feature",
      "properties": {
        "type": "stop",
        "stop_code": "790045",
        "stop_id": "790045",
        "name": "ΞΕΝΟΦΩΝΤΟΣ",
        "order": "47"
      },
      "geometry": {
        "type": "Point",
        "coordinates": [
          23.9983028,
          37.9683397
        ]
      }
    },
    {
      "type": "Feature",
      "properties": {
        "type": "stop",
        "stop_code": "790046",
        "stop_id": "790046",
        "name": "ΟΤΕ",
        "order": "48"
      },
      "geometry": {
        "type": "Point",
        "coordinates": [
          23.9956129,
          37.9677967
        ]
      }
    },
    {
      "type": "Feature",
      "properties": {
        "type": "stop",
        "stop_code": "790047",
        "stop_id": "790047",
        "name": "ΑΓ.  ΝΕΚΤΑΡΙΟΣ",
        "order": "49"
      },
      "geometry": {
        "type": "Point",
        "coordinates": [
          23.9899575,
          37.9666541
        ]
      }
    },
    {
      "type": "Feature",
      "properties": {
        "type": "stop",
        "stop_code": "790048",
        "stop_id": "790048",
        "name": "ΓΙΟΥΡΓΑ",
        "order": "50"
      },
      "geometry": {
        "type": "Point",
        "coordinates": [
          23.9860756,
          37.9654766
        ]
      }
    },
    {
      "type": "Feature",
      "properties": {
        "type": "stop",
        "stop_code": "790049",
        "stop_id": "790049",
        "name": "ΑΓ. ΚΥΡΙΑΚΗ",
        "order": "51"
      },
      "geometry": {
        "type": "Point",
        "coordinates": [
          23.9823096,
          37.9627014
        ]
      }
    },
    {
      "type": "Feature",
      "properties": {
        "type": "stop",
        "stop_code": "790050",
        "stop_id": "790050",
        "name": "ΑΓ. ΙΩΑΝΝΗΣ",
        "order": "52"
      },
      "geometry": {
        "type": "Point",
        "coordinates": [
          23.9782986,
          37.9605041
        ]
      }
    },
    {
      "type": "Feature",
      "properties": {
        "type": "stop",
        "stop_code": "790051",
        "stop_id": "790051",
        "name": "ΑΠΟΣΠΟΡΗ",
        "order": "53"
      },
      "geometry": {
        "type": "Point",
        "coordinates": [
          23.9757306,
          37.95955
        ]
      }
    },
    {
      "type": "Feature",
      "properties": {
        "type": "stop",
        "stop_code": "440019",
        "stop_id": "440019",
        "name": "ΣΥΝΕΤΑΙΡΙΣΜΟΣ ΘΥΡΩΡΩΝ",
        "order": "54"
      },
      "geometry": {
        "type": "Point",
        "coordinates": [
          23.9670868,
          37.9599871
        ]
      }
    },
    {
      "type": "Feature",
      "properties": {
        "type": "stop",
        "stop_code": "440055",
        "stop_id": "440055",
        "name": "2η ΑΕΡΟΔΡΟΜΙΟΥ",
        "order": "55"
      },
      "geometry": {
        "type": "Point",
        "coordinates": [
          23.9584122,
          37.9590428
        ]
      }
    },
    {
      "type": "Feature",
      "properties": {
        "type": "stop",
        "stop_code": "440020",
        "stop_id": "440020",
        "name": "1η ΑΕΡΟΔΡΟΜΙΟΥ",
        "order": "56"
      },
      "geometry": {
        "type": "Point",
        "coordinates": [
          23.9483463,
          37.9595681
        ]
      }
    },
    {
      "type": "Feature",
      "properties": {
        "type": "stop",
        "stop_code": "440050",
        "stop_id": "440050",
        "name": "ΚΟΛΙΚΡΕΠΙ",
        "order": "57"
      },
      "geometry": {
        "type": "Point",
        "coordinates": [
          23.9418612,
          37.9602493
        ]
      }
    },
    {
      "type": "Feature",
      "properties": {
        "type": "stop",
        "stop_code": "440021",
        "stop_id": "440021",
        "name": "ΑΓ. ΚΩΝ/ΝΟΣ",
        "order": "58"
      },
      "geometry": {
        "type": "Point",
        "coordinates": [
          23.9382321,
          37.9605722
        ]
      }
    },
    {
      "type": "Feature",
      "properties": {
        "type": "stop",
        "stop_code": "440065",
        "stop_id": "440065",
        "name": "ΤΑΧ. ΘΥΡΙΔΕΣ",
        "order": "59"
      },
      "geometry": {
        "type": "Point",
        "coordinates": [
          23.935859,
          37.9603083
        ]
      }
    },
    {
      "type": "Feature",
      "properties": {
        "type": "stop",
        "stop_code": "440056",
        "stop_id": "440056",
        "name": "ΑΓ. ΠΕΤΡΟΣ",
        "order": "60"
      },
      "geometry": {
        "type": "Point",
        "coordinates": [
          23.9327789,
          37.9599521
        ]
      }
    },
    {
      "type": "Feature",
      "properties": {
        "type": "stop",
        "stop_code": "440036",
        "stop_id": "440036",
        "name": "ΔΙΑΣΤΑΥΡΩΣΗ",
        "order": "61"
      },
      "geometry": {
        "type": "Point",
        "coordinates": [
          23.9270118,
          37.9604505
        ]
      }
    },
    {
      "type": "Feature",
      "properties": {
        "type": "stop",
        "stop_code": "440066",
        "stop_id": "440066",
        "name": "ΦΟΥΡΝΟΣ",
        "order": "62"
      },
      "geometry": {
        "type": "Point",
        "coordinates": [
          23.925795,
          37.9632636
        ]
      }
    },
    {
      "type": "Feature",
      "properties": {
        "type": "stop",
        "stop_code": "440052",
        "stop_id": "440052",
        "name": "ΣΤΡΟΦΗ",
        "order": "63"
      },
      "geometry": {
        "type": "Point",
        "coordinates": [
          23.9216947,
          37.9660812
        ]
      }
    },
    {
      "type": "Feature",
      "properties": {
        "type": "stop",
        "stop_code": "440053",
        "stop_id": "440053",
        "name": "Ο.Τ.Ε",
        "order": "64"
      },
      "geometry": {
        "type": "Point",
        "coordinates": [
          23.9176521,
          37.9670789
        ]
      }
    },
    {
      "type": "Feature",
      "properties": {
        "type": "stop",
        "stop_code": "440060",
        "stop_id": "440060",
        "name": "ΣΤΡΟΦΗ ΠΛΑΣΤΗΡΑ",
        "order": "65"
      },
      "geometry": {
        "type": "Point",
        "coordinates": [
          23.914714,
          37.9677437
        ]
      }
    },
    {
      "type": "Feature",
      "properties": {
        "type": "stop",
        "stop_code": "440046",
        "stop_id": "440046",
        "name": "ΑΓΙΟΥ ΔΗΜΗΤΡΙΟΥ",
        "order": "66"
      },
      "geometry": {
        "type": "Point",
        "coordinates": [
          23.9088192,
          37.9682435
        ]
      }
    },
    {
      "type": "Feature",
      "properties": {
        "type": "stop",
        "stop_code": "440029",
        "stop_id": "440029",
        "name": "ΓΗΠΕΔΟ",
        "order": "67"
      },
      "geometry": {
        "type": "Point",
        "coordinates": [
          23.9059236,
          37.9687735
        ]
      }
    },
    {
      "type": "Feature",
      "properties": {
        "type": "stop",
        "stop_code": "440030",
        "stop_id": "440030",
        "name": "ΖΩΗ",
        "order": "68"
      },
      "geometry": {
        "type": "Point",
        "coordinates": [
          23.9057274,
          37.9708644
        ]
      }
    },
    {
      "type": "Feature",
      "properties": {
        "type": "stop",
        "stop_code": "440031",
        "stop_id": "440031",
        "name": "ΑΓ. ΝΙΚΟΛΑΟΣ",
        "order": "69"
      },
      "geometry": {
        "type": "Point",
        "coordinates": [
          23.904574,
          37.9735673
        ]
      }
    },
    {
      "type": "Feature",
      "properties": {
        "type": "stop",
        "stop_code": "440032",
        "stop_id": "440032",
        "name": "ΦΟΥΡΝΟΣ",
        "order": "70"
      },
      "geometry": {
        "type": "Point",
        "coordinates": [
          23.9020621,
          37.9760476
        ]
      }
    },
    {
      "type": "Feature",
      "properties": {
        "type": "stop",
        "stop_code": "440033",
        "stop_id": "440033",
        "name": "ΑΓ. ΘΕΜΙΣΤΟΚΛΗΣ",
        "order": "71"
      },
      "geometry": {
        "type": "Point",
        "coordinates": [
          23.9002408,
          37.9772962
        ]
      }
    },
    {
      "type": "Feature",
      "properties": {
        "type": "stop",
        "stop_code": "440034",
        "stop_id": "440034",
        "name": "ΚΑΤΣΑΟΥΝΗ",
        "order": "72"
      },
      "geometry": {
        "type": "Point",
        "coordinates": [
          23.8978049,
          37.9787762
        ]
      }
    },
    {
      "type": "Feature",
      "properties": {
        "type": "stop",
        "stop_code": "440035",
        "stop_id": "440035",
        "name": "ΞΗΡΟΤΥΡΙ",
        "order": "73"
      },
      "geometry": {
        "type": "Point",
        "coordinates": [
          23.8937565,
          37.9813557
        ]
      }
    },
    {
      "type": "Feature",
      "properties": {
        "type": "stop",
        "stop_code": "700012",
        "stop_id": "700012",
        "name": "ΓΑΒΑΛΑ",
        "order": "74"
      },
      "geometry": {
        "type": "Point",
        "coordinates": [
          23.8886633,
          37.9847739
        ]
      }
    },
    {
      "type": "Feature",
      "properties": {
        "type": "stop",
        "stop_code": "700013",
        "stop_id": "700013",
        "name": "ΓΡΗΓΟΡΗΣ ΛΑΜΠΡΑΚΗΣ",
        "order": "75"
      },
      "geometry": {
        "type": "Point",
        "coordinates": [
          23.8848259,
          37.9868943
        ]
      }
    },
    {
      "type": "Feature",
      "properties": {
        "type": "stop",
        "stop_code": "700074",
        "stop_id": "700074",
        "name": "ΠΡΕΜΙΞ",
        "order": "76"
      },
      "geometry": {
        "type": "Point",
        "coordinates": [
          23.8799048,
          37.9891856
        ]
      }
    },
    {
      "type": "Feature",
      "properties": {
        "type": "stop",
        "stop_code": "700075",
        "stop_id": "700075",
        "name": "ΦΥΤΩΡΙΟ",
        "order": "77"
      },
      "geometry": {
        "type": "Point",
        "coordinates": [
          23.8775744,
          37.9905948
        ]
      }
    },
    {
      "type": "Feature",
      "properties": {
        "type": "stop",
        "stop_code": "700022",
        "stop_id": "700022",
        "name": "ΠΑΛΑΙΟΠΑΝΑΓΙΑΣ",
        "order": "78"
      },
      "geometry": {
        "type": "Point",
        "coordinates": [
          23.8761515,
          37.9915717
        ]
      }
    },
    {
      "type": "Feature",
      "properties": {
        "type": "stop",
        "stop_code": "700038",
        "stop_id": "700038",
        "name": "2η ΠΑΛΑΙΟΠΑΝΑΓΙΑΣ",
        "order": "79"
      },
      "geometry": {
        "type": "Point",
        "coordinates": [
          23.8731374,
          37.990284
        ]
      }
    },
    {
      "type": "Feature",
      "properties": {
        "type": "stop",
        "stop_code": "700089",
        "stop_id": "700089",
        "name": "ΛΕΟΝΤΑΡΙΟΥ",
        "order": "80"
      },
      "geometry": {
        "type": "Point",
        "coordinates": [
          23.8692894,
          37.9905452
        ]
      }
    },
    {
      "type": "Feature",
      "properties": {
        "type": "stop",
        "stop_code": "700060",
        "stop_id": "700060",
        "name": "ΚΑΜΠΑ",
        "order": "81"
      },
      "geometry": {
        "type": "Point",
        "coordinates": [
          23.8660365,
          37.9880733
        ]
      }
    },
    {
      "type": "Feature",
      "properties": {
        "type": "stop",
        "stop_code": "700158",
        "stop_id": "700158",
        "name": "ΣΧΟΛΕΙΑ ΠΑΛΛΗΝΗΣ",
        "order": "82"
      },
      "geometry": {
        "type": "Point",
        "coordinates": [
          23.8645419,
          37.9858937
        ]
      }
    },
    {
      "type": "Feature",
      "properties": {
        "type": "stop",
        "stop_code": "390053",
        "stop_id": "390053",
        "name": "ΚΑΝΤΖΑ 1",
        "order": "83"
      },
      "geometry": {
        "type": "Point",
        "coordinates": [
          23.8700968,
          37.98375
        ]
      }
    },
    {
      "type": "Feature",
      "properties": {
        "type": "stop",
        "stop_code": "11119",
        "stop_id": "326",
        "name": "ΑΦΕΤΗΡΙΑ 326",
        "order": "84"
      },
      "geometry": {
        "type": "Point",
        "coordinates": [
          23.8726,
          37.982342
        ]
      }
    }
  ]
}