{
  "type": "FeatureCollection",
  "features": [
    {
      "type": "Feature",
      "properties": {
        "type": "route_path",
        "route_code": "4359",
        "descr": "ΛΟΦΟΣ ΒΩΚΟΥ - ΠΡ. ΗΛΙΑΣ [ΕΩΣ ΣΤΑΣΗ ΙΕΡΟΥ ΛΟΧΟΥ]"
      },
      "geometry": {
        "type": "LineString",
        "coordinates": [
          [
            23.6451,
            37.95918
          ],
          [
            23.64506,
            37.95879
          ],
          [
            23.64504,
            37.95829
          ],
          [
            23.64231,
            37.95832
          ],
          [
            23.64231,
            37.961
          ],
          [
            23.64103,
            37.961
          ],
          [
            23.64104,
            37.95877
          ],
          [
            23.64106,
            37.95686
          ],
          [
            23.64228,
            37.95685
          ],
          [
            23.64289,
            37.95686
          ],
          [
            23.64367,
            37.95687
          ],
          [
            23.64365,
            37.95625
          ],
          [
            23.64368,
            37.9555
          ],
          [
            23.64364,
            37.95449
          ],
          [
            23.64302,
            37.95459
          ],
          [
            23.64256,
            37.95467
          ],
          [
            23.64109,
            37.95522
          ],
          [
            23.64109,
            37.9545
          ],
          [
            23.64111,
            37.95304
          ],
          [
            23.6411,
            37.95153
          ],
          [
            23.64114,
            37.9501
          ],
          [
            23.64114,
            37.94928
          ],
          [
            23.64195,
            37.9492
          ],
          [
            23.64225,
            37.94887
          ],
          [
            23.6422,
            37.94651
          ],
          [
            23.64221,
            37.94618
          ],
          [
            23.64221,
            37.94578
          ],
          [
            23.64225,
            37.94547
          ],
          [
            23.64447,
            37.94424
          ],
          [
            23.6453,
            37.94519
          ],
          [
            23.64795,
            37.94376
          ],
          [
            23.65096,
            37.94219
          ],
          [
            23.65186,
            37.94323
          ],
          [
            23.65375,
            37.94538
          ],
          [
            23.6545,
            37.94497
          ],
          [
            23.65316,
            37.94341
          ],
          [
            23.65408,
            37.94291
          ],
          [
            23.65554,
            37.94214
          ],
          [
            23.65538,
            37.94184
          ],
          [
            23.65476,
            37.94088
          ],
          [
            23.6544,
            37.94036
          ],
          [
            23.65472,
            37.9398
          ],
          [
            23.65568,
            37.93929
          ],
          [
            23.65611,
            37.93919
          ],
          [
            23.65682,
            37.93929
          ],
          [
            23.6574,
            37.93996
          ],
          [
            23.65783,
            37.94051
          ],
          [
            23.6579,
            37.94063
          ],
          [
            23.65801,
            37.94076
          ]
        ]
      }
    },
    {
      "type": "Feature",
      "properties": {
        "type": "stop",
        "stop_code": "10412",
        "stop_id": "000193",
        "name": "ΛΟΦΟΣ ΒΩΚΟΥ - ΠΑΝΑΓΙΑ ΟΔΗΓΗΤΡΙΑ",
        "order": "1"
      },
      "geometry": {
        "type": "Point",
        "coordinates": [
          23.6445425,
          37.9598055
        ]
      }
    },
    {
      "type": "Feature",
      "properties": {
        "type": "stop",
        "stop_code": "400273",
        "stop_id": "400273",
        "name": "ΕΒΡΟΥ",
        "order": "2"
      },
      "geometry": {
        "type": "Point",
        "coordinates": [
          23.6443814,
          37.9583956
        ]
      }
    },
    {
      "type": "Feature",
      "properties": {
        "type": "stop",
        "stop_code": "400472",
        "stop_id": "400472",
        "name": "ΛΑΚΩΝΙΑΣ",
        "order": "3"
      },
      "geometry": {
        "type": "Point",
        "coordinates": [
          23.6426853,
          37.9583994
        ]
      }
    },
    {
      "type": "Feature",
      "properties": {
        "type": "stop",
        "stop_code": "400499",
        "stop_id": "400499",
        "name": "ΓΥΘΕΙΟΥ",
        "order": "4"
      },
      "geometry": {
        "type": "Point",
        "coordinates": [
          23.6424081,
          37.9592097
        ]
      }
    },
    {
      "type": "Feature",
      "properties": {
        "type": "stop",
        "stop_code": "400500",
        "stop_id": "400500",
        "name": "ΚΑΠΕΤΑΝ ΓΕΡΜΑ",
        "order": "5"
      },
      "geometry": {
        "type": "Point",
        "coordinates": [
          23.6424005,
          37.960787
        ]
      }
    },
    {
      "type": "Feature",
      "properties": {
        "type": "stop",
        "stop_code": "400501",
        "stop_id": "400501",
        "name": "ΔΗΜΗΤΡΑΚΟΠΟΥΛΟΥ",
        "order": "6"
      },
      "geometry": {
        "type": "Point",
        "coordinates": [
          23.6408868,
          37.9607193
        ]
      }
    },
    {
      "type": "Feature",
      "properties": {
        "type": "stop",
        "stop_code": "400502",
        "stop_id": "400502",
        "name": "ΚΟΥΜΟΥΝΔΟΥΡΟΥ",
        "order": "7"
      },
      "geometry": {
        "type": "Point",
        "coordinates": [
          23.6408846,
          37.9588266
        ]
      }
    },
    {
      "type": "Feature",
      "properties": {
        "type": "stop",
        "stop_code": "400214",
        "stop_id": "400214",
        "name": "ΑΓΧΙΑΛΟΥ",
        "order": "8"
      },
      "geometry": {
        "type": "Point",
        "coordinates": [
          23.6409375,
          37.9573216
        ]
      }
    },
    {
      "type": "Feature",
      "properties": {
        "type": "stop",
        "stop_code": "400136",
        "stop_id": "400136",
        "name": "ΠΑΛ. ΤΕΡΜΑ",
        "order": "9"
      },
      "geometry": {
        "type": "Point",
        "coordinates": [
          23.643012,
          37.9567511
        ]
      }
    },
    {
      "type": "Feature",
      "properties": {
        "type": "stop",
        "stop_code": "400137",
        "stop_id": "400137",
        "name": "ΑΣΚΛΗΠΙΟΥ",
        "order": "10"
      },
      "geometry": {
        "type": "Point",
        "coordinates": [
          23.6436001,
          37.9551936
        ]
      }
    },
    {
      "type": "Feature",
      "properties": {
        "type": "stop",
        "stop_code": "400138",
        "stop_id": "400138",
        "name": "ΠΑΛΑΜΗΔΙΟΥ",
        "order": "11"
      },
      "geometry": {
        "type": "Point",
        "coordinates": [
          23.6430448,
          37.9546692
        ]
      }
    },
    {
      "type": "Feature",
      "properties": {
        "type": "stop",
        "stop_code": "400139",
        "stop_id": "400139",
        "name": "ΚΑΛΛΙΦΟΡΝΙΑ",
        "order": "12"
      },
      "geometry": {
        "type": "Point",
        "coordinates": [
          23.6409734,
          37.9546268
        ]
      }
    },
    {
      "type": "Feature",
      "properties": {
        "type": "stop",
        "stop_code": "400140",
        "stop_id": "400140",
        "name": "ΠΑΠΑΣΤΡΑΤΟΥ",
        "order": "13"
      },
      "geometry": {
        "type": "Point",
        "coordinates": [
          23.6410191,
          37.9522476
        ]
      }
    },
    {
      "type": "Feature",
      "properties": {
        "type": "stop",
        "stop_code": "400141",
        "stop_id": "400141",
        "name": "ΠΑΡΑΛΙΑ",
        "order": "14"
      },
      "geometry": {
        "type": "Point",
        "coordinates": [
          23.6410547,
          37.9496069
        ]
      }
    },
    {
      "type": "Feature",
      "properties": {
        "type": "stop",
        "stop_code": "400040",
        "stop_id": "400040",
        "name": "ΣΤ.ΜΕΤΡΟ ΠΕΙΡΑΙΑΣ",
        "order": "15"
      },
      "geometry": {
        "type": "Point",
        "coordinates": [
          23.6420658,
          37.9479935
        ]
      }
    },
    {
      "type": "Feature",
      "properties": {
        "type": "stop",
        "stop_code": "400298",
        "stop_id": "400298",
        "name": "ΠΛ. ΚΑΡΑΙΣΚΑΚΗ",
        "order": "16"
      },
      "geometry": {
        "type": "Point",
        "coordinates": [
          23.6420755,
          37.9456624
        ]
      }
    },
    {
      "type": "Feature",
      "properties": {
        "type": "stop",
        "stop_code": "400505",
        "stop_id": "400505",
        "name": "ΤΣΑΜΑΔΟΥ",
        "order": "17"
      },
      "geometry": {
        "type": "Point",
        "coordinates": [
          23.6459156,
          37.9447096
        ]
      }
    },
    {
      "type": "Feature",
      "properties": {
        "type": "stop",
        "stop_code": "400506",
        "stop_id": "400506",
        "name": "ΔΗΜΟΤΙΚΟ ΘΕΑΤΡΟ",
        "order": "18"
      },
      "geometry": {
        "type": "Point",
        "coordinates": [
          23.648175,
          37.9434546
        ]
      }
    },
    {
      "type": "Feature",
      "properties": {
        "type": "stop",
        "stop_code": "400507",
        "stop_id": "400507",
        "name": "ΚΟΥΝΤΟΥΡΙΩΤΟΥ",
        "order": "19"
      },
      "geometry": {
        "type": "Point",
        "coordinates": [
          23.6495784,
          37.9427197
        ]
      }
    },
    {
      "type": "Feature",
      "properties": {
        "type": "stop",
        "stop_code": "400058",
        "stop_id": "400058",
        "name": "ΒΕΝΙΖΕΛΟΥ",
        "order": "20"
      },
      "geometry": {
        "type": "Point",
        "coordinates": [
          23.6514936,
          37.9426629
        ]
      }
    },
    {
      "type": "Feature",
      "properties": {
        "type": "stop",
        "stop_code": "400059",
        "stop_id": "400059",
        "name": "ΕΥΑΓΓΕΛΙΣΤΡΙΑ",
        "order": "21"
      },
      "geometry": {
        "type": "Point",
        "coordinates": [
          23.6536753,
          37.9451833
        ]
      }
    },
    {
      "type": "Feature",
      "properties": {
        "type": "stop",
        "stop_code": "400060",
        "stop_id": "400060",
        "name": "ΓΗΡΟΚΟΜΕΙΟ",
        "order": "22"
      },
      "geometry": {
        "type": "Point",
        "coordinates": [
          23.654223,
          37.9448875
        ]
      }
    },
    {
      "type": "Feature",
      "properties": {
        "type": "stop",
        "stop_code": "400061",
        "stop_id": "400061",
        "name": "ΒΟΥΛΓΑΡΗ",
        "order": "23"
      },
      "geometry": {
        "type": "Point",
        "coordinates": [
          23.6532158,
          37.9436768
        ]
      }
    },
    {
      "type": "Feature",
      "properties": {
        "type": "stop",
        "stop_code": "400062",
        "stop_id": "400062",
        "name": "ΑΔΕΛΦΟΤΗΣ ΚΡΗΤΩΝ",
        "order": "24"
      },
      "geometry": {
        "type": "Point",
        "coordinates": [
          23.6540391,
          37.9428411
        ]
      }
    },
    {
      "type": "Feature",
      "properties": {
        "type": "stop",
        "stop_code": "400063",
        "stop_id": "400063",
        "name": "ΠΙΠΕΡΙΑ",
        "order": "25"
      },
      "geometry": {
        "type": "Point",
        "coordinates": [
          23.6545836,
          37.9407877
        ]
      }
    },
    {
      "type": "Feature",
      "properties": {
        "type": "stop",
        "stop_code": "400064",
        "stop_id": "400064",
        "name": "ΠΡΟΦ. ΗΛΙΑΣ",
        "order": "26"
      },
      "geometry": {
        "type": "Point",
        "coordinates": [
          23.6551931,
          37.9394376
        ]
      }
    },
    {
      "type": "Feature",
      "properties": {
        "type": "stop",
        "stop_code": "400065",
        "stop_id": "400065",
        "name": "ΚΡΗΤΙΚΑ",
        "order": "27"
      },
      "geometry": {
        "type": "Point",
        "coordinates": [
          23.6572517,
          37.939714
        ]
      }
    },
    {
      "type": "Feature",
      "properties": {
        "type": "stop",
        "stop_code": "11869",
        "stop_id": "915",
        "name": "ΙΕΡΟΥ ΛΟΧΟΥ",
        "order": "28"
      },
      "geometry": {
        "type": "Point",
        "coordinates": [
          23.6580255,
          37.9407085
        ]
      }
    }
  ]
}