{
  "type": "FeatureCollection",
  "features": [
    {
      "type": "Feature",
      "properties": {
        "type": "route_path",
        "route_code": "2445",
        "descr": "ΑΝΘΟΥΠΟΛΗ - ΣΤ. Μ. ΑΝΘΟΥΠΟΛΗ - ΑΤΤΙΚΟ ΝΟΣ. - ΔΑΣΟΣ"
      },
      "geometry": {
        "type": "LineString",
        "coordinates": [
          [
            23.68796,
            38.02752
          ],
          [
            23.68806,
            38.02751
          ],
          [
            23.68871,
            38.02744
          ],
          [
            23.68929,
            38.02687
          ],
          [
            23.69021,
            38.02526
          ],
          [
            23.6881,
            38.02547
          ],
          [
            23.68792,
            38.02463
          ],
          [
            23.68907,
            38.02448
          ],
          [
            23.68906,
            38.02431
          ],
          [
            23.69,
            38.0242
          ],
          [
            23.68997,
            38.02407
          ],
          [
            23.69014,
            38.02406
          ],
          [
            23.69019,
            38.02354
          ],
          [
            23.6903,
            38.02311
          ],
          [
            23.69146,
            38.02319
          ],
          [
            23.69175,
            38.02315
          ],
          [
            23.69211,
            38.02296
          ],
          [
            23.69283,
            38.02276
          ],
          [
            23.69341,
            38.02259
          ],
          [
            23.69426,
            38.02214
          ],
          [
            23.69416,
            38.02193
          ],
          [
            23.69407,
            38.02168
          ],
          [
            23.69333,
            38.01976
          ],
          [
            23.69151,
            38.0166
          ],
          [
            23.69093,
            38.01558
          ],
          [
            23.68967,
            38.01354
          ],
          [
            23.68842,
            38.01198
          ],
          [
            23.68826,
            38.01121
          ],
          [
            23.68822,
            38.0103
          ],
          [
            23.68817,
            38.00877
          ],
          [
            23.68797,
            38.00716
          ],
          [
            23.68789,
            38.00638
          ],
          [
            23.68765,
            38.00567
          ],
          [
            23.68666,
            38.00343
          ],
          [
            23.68626,
            38.00277
          ],
          [
            23.68546,
            38.00175
          ],
          [
            23.68508,
            38.00171
          ],
          [
            23.67966,
            38.00355
          ],
          [
            23.67882,
            38.00394
          ],
          [
            23.66756,
            38.01141
          ],
          [
            23.66629,
            38.01209
          ],
          [
            23.66495,
            38.01261
          ],
          [
            23.66355,
            38.01276
          ],
          [
            23.66176,
            38.01273
          ],
          [
            23.66107,
            38.01277
          ],
          [
            23.66098,
            38.0129
          ],
          [
            23.66096,
            38.0142
          ],
          [
            23.66107,
            38.01472
          ],
          [
            23.66181,
            38.01489
          ],
          [
            23.662,
            38.01515
          ],
          [
            23.66224,
            38.01554
          ],
          [
            23.66316,
            38.01591
          ],
          [
            23.66419,
            38.01565
          ],
          [
            23.66493,
            38.01557
          ],
          [
            23.665,
            38.01566
          ],
          [
            23.66377,
            38.01581
          ],
          [
            23.6631,
            38.01596
          ],
          [
            23.66225,
            38.01564
          ],
          [
            23.66199,
            38.01541
          ],
          [
            23.66181,
            38.01498
          ],
          [
            23.66163,
            38.01488
          ],
          [
            23.66094,
            38.01474
          ],
          [
            23.66088,
            38.01439
          ],
          [
            23.66085,
            38.01288
          ],
          [
            23.66077,
            38.01274
          ],
          [
            23.66066,
            38.01271
          ],
          [
            23.65616,
            38.01262
          ],
          [
            23.65516,
            38.01245
          ],
          [
            23.65333,
            38.01188
          ],
          [
            23.65046,
            38.01097
          ],
          [
            23.64955,
            38.01074
          ],
          [
            23.64822,
            38.01078
          ],
          [
            23.64821,
            38.01107
          ],
          [
            23.6499,
            38.01463
          ],
          [
            23.65004,
            38.01527
          ],
          [
            23.64646,
            38.01631
          ],
          [
            23.64586,
            38.01667
          ],
          [
            23.64734,
            38.01947
          ],
          [
            23.64785,
            38.02023
          ],
          [
            23.64783,
            38.02037
          ],
          [
            23.6473,
            38.02104
          ],
          [
            23.64722,
            38.02136
          ],
          [
            23.64796,
            38.02176
          ],
          [
            23.64801,
            38.0219
          ]
        ]
      }
    },
    {
      "type": "Feature",
      "properties": {
        "type": "stop",
        "stop_code": "10219",
        "stop_id": "53",
        "name": "ΑΝΘΟΥΠΟΛΗ",
        "order": "1"
      },
      "geometry": {
        "type": "Point",
        "coordinates": [
          23.688198,
          38.0275305
        ]
      }
    },
    {
      "type": "Feature",
      "properties": {
        "type": "stop",
        "stop_code": "420249",
        "stop_id": "420249",
        "name": "ΠΕΙΣΑΝΔΡΟΥ",
        "order": "2"
      },
      "geometry": {
        "type": "Point",
        "coordinates": [
          23.6897335,
          38.0257867
        ]
      }
    },
    {
      "type": "Feature",
      "properties": {
        "type": "stop",
        "stop_code": "420232",
        "stop_id": "420232",
        "name": "ΑΜΥΝΤΟΡΟΣ",
        "order": "3"
      },
      "geometry": {
        "type": "Point",
        "coordinates": [
          23.6884242,
          38.0255489
        ]
      }
    },
    {
      "type": "Feature",
      "properties": {
        "type": "stop",
        "stop_code": "420030",
        "stop_id": "420030",
        "name": "ΤΥΡΙΝΘΟΣ",
        "order": "4"
      },
      "geometry": {
        "type": "Point",
        "coordinates": [
          23.688349,
          38.0244852
        ]
      }
    },
    {
      "type": "Feature",
      "properties": {
        "type": "stop",
        "stop_code": "420250",
        "stop_id": "420250",
        "name": "ΠΛ. ΑΓ. ΜΑΡΙΝΑΣ",
        "order": "5"
      },
      "geometry": {
        "type": "Point",
        "coordinates": [
          23.6900603,
          38.0239399
        ]
      }
    },
    {
      "type": "Feature",
      "properties": {
        "type": "stop",
        "stop_code": "420027",
        "stop_id": "420027",
        "name": "ΑΓ. ΜΑΡΙΝΑ",
        "order": "6"
      },
      "geometry": {
        "type": "Point",
        "coordinates": [
          23.6911348,
          38.0231136
        ]
      }
    },
    {
      "type": "Feature",
      "properties": {
        "type": "stop",
        "stop_code": "420216",
        "stop_id": "420216",
        "name": "ΣΤΡΟΦΗ",
        "order": "7"
      },
      "geometry": {
        "type": "Point",
        "coordinates": [
          23.6936785,
          38.0223902
        ]
      }
    },
    {
      "type": "Feature",
      "properties": {
        "type": "stop",
        "stop_code": "420032",
        "stop_id": "420032",
        "name": "ΦΟΥΡΝΟΣ",
        "order": "8"
      },
      "geometry": {
        "type": "Point",
        "coordinates": [
          23.6940113,
          38.0218233
        ]
      }
    },
    {
      "type": "Feature",
      "properties": {
        "type": "stop",
        "stop_code": "420033",
        "stop_id": "420033",
        "name": "ΠΡΟΝΟΙΑ",
        "order": "9"
      },
      "geometry": {
        "type": "Point",
        "coordinates": [
          23.6932331,
          38.0199105
        ]
      }
    },
    {
      "type": "Feature",
      "properties": {
        "type": "stop",
        "stop_code": "10800",
        "stop_id": "420498",
        "name": "ΣΤ. ΜΕΤΡΟ ΑΝΘΟΥΠΟΛΗ",
        "order": "10"
      },
      "geometry": {
        "type": "Point",
        "coordinates": [
          23.6917581,
          38.0170762
        ]
      }
    },
    {
      "type": "Feature",
      "properties": {
        "type": "stop",
        "stop_code": "420183",
        "stop_id": "420183",
        "name": "ΤΕΡΜΑ - ΠΕΡΙΣΤΕΡΙ",
        "order": "11"
      },
      "geometry": {
        "type": "Point",
        "coordinates": [
          23.6906772,
          38.0154154
        ]
      }
    },
    {
      "type": "Feature",
      "properties": {
        "type": "stop",
        "stop_code": "420184",
        "stop_id": "420184",
        "name": "ΕΘΝ. ΑΝΤΙΣΤΑΣΕΩΣ",
        "order": "12"
      },
      "geometry": {
        "type": "Point",
        "coordinates": [
          23.6893416,
          38.013357
        ]
      }
    },
    {
      "type": "Feature",
      "properties": {
        "type": "stop",
        "stop_code": "420185",
        "stop_id": "420185",
        "name": "Ι.Κ.Α",
        "order": "13"
      },
      "geometry": {
        "type": "Point",
        "coordinates": [
          23.6880629,
          38.0113348
        ]
      }
    },
    {
      "type": "Feature",
      "properties": {
        "type": "stop",
        "stop_code": "420178",
        "stop_id": "420178",
        "name": "ΘΗΒΩΝ",
        "order": "14"
      },
      "geometry": {
        "type": "Point",
        "coordinates": [
          23.6878845,
          38.0077472
        ]
      }
    },
    {
      "type": "Feature",
      "properties": {
        "type": "stop",
        "stop_code": "420110",
        "stop_id": "420110",
        "name": "ΦΟΥΡΝΟΣ",
        "order": "15"
      },
      "geometry": {
        "type": "Point",
        "coordinates": [
          23.6876296,
          38.0060791
        ]
      }
    },
    {
      "type": "Feature",
      "properties": {
        "type": "stop",
        "stop_code": "420111",
        "stop_id": "420111",
        "name": "ΣΤΡΟΦΗ",
        "order": "16"
      },
      "geometry": {
        "type": "Point",
        "coordinates": [
          23.6872402,
          38.0049394
        ]
      }
    },
    {
      "type": "Feature",
      "properties": {
        "type": "stop",
        "stop_code": "420112",
        "stop_id": "420112",
        "name": "ΚΑΒΑΛΑΣ",
        "order": "17"
      },
      "geometry": {
        "type": "Point",
        "coordinates": [
          23.6862736,
          38.0028637
        ]
      }
    },
    {
      "type": "Feature",
      "properties": {
        "type": "stop",
        "stop_code": "420126",
        "stop_id": "420126",
        "name": "ΘΗΒΩΝ",
        "order": "18"
      },
      "geometry": {
        "type": "Point",
        "coordinates": [
          23.6846389,
          38.0019175
        ]
      }
    },
    {
      "type": "Feature",
      "properties": {
        "type": "stop",
        "stop_code": "420127",
        "stop_id": "420127",
        "name": "ΣΚΑΛΑΚΙΑ",
        "order": "19"
      },
      "geometry": {
        "type": "Point",
        "coordinates": [
          23.6810274,
          38.0031103
        ]
      }
    },
    {
      "type": "Feature",
      "properties": {
        "type": "stop",
        "stop_code": "420128",
        "stop_id": "420128",
        "name": "ΠΑΝ/ΜΙΟ ΔΥΤΙΚΗΣ ΑΤΤΙΚΗΣ - ΠΑΝ/ΠΟΛΗ ΑΛΣΟΥΣ ΑΙΓΑΛΕΩ",
        "order": "20"
      },
      "geometry": {
        "type": "Point",
        "coordinates": [
          23.6769715,
          38.0052482
        ]
      }
    },
    {
      "type": "Feature",
      "properties": {
        "type": "stop",
        "stop_code": "420129",
        "stop_id": "420129",
        "name": "ΠΗΓΑΔΑΚΙ",
        "order": "21"
      },
      "geometry": {
        "type": "Point",
        "coordinates": [
          23.6750131,
          38.0065177
        ]
      }
    },
    {
      "type": "Feature",
      "properties": {
        "type": "stop",
        "stop_code": "470001",
        "stop_id": "470001",
        "name": "ΚΑΜΠΙΝΓΚ",
        "order": "22"
      },
      "geometry": {
        "type": "Point",
        "coordinates": [
          23.6713787,
          38.0089449
        ]
      }
    },
    {
      "type": "Feature",
      "properties": {
        "type": "stop",
        "stop_code": "470002",
        "stop_id": "470002",
        "name": "ΕΛΑΙΩΝ",
        "order": "23"
      },
      "geometry": {
        "type": "Point",
        "coordinates": [
          23.6694547,
          38.0102251
        ]
      }
    },
    {
      "type": "Feature",
      "properties": {
        "type": "stop",
        "stop_code": "470004",
        "stop_id": "470004",
        "name": "ΠΑΛΑΤΑΚΙ",
        "order": "24"
      },
      "geometry": {
        "type": "Point",
        "coordinates": [
          23.6657077,
          38.012454
        ]
      }
    },
    {
      "type": "Feature",
      "properties": {
        "type": "stop",
        "stop_code": "470005",
        "stop_id": "470005",
        "name": "ΚΕΔ",
        "order": "25"
      },
      "geometry": {
        "type": "Point",
        "coordinates": [
          23.663029,
          38.0128069
        ]
      }
    },
    {
      "type": "Feature",
      "properties": {
        "type": "stop",
        "stop_code": "470003",
        "stop_id": "470003",
        "name": "ΚΕΔΒ",
        "order": "26"
      },
      "geometry": {
        "type": "Point",
        "coordinates": [
          23.6621004,
          38.0151768
        ]
      }
    },
    {
      "type": "Feature",
      "properties": {
        "type": "stop",
        "stop_code": "470013",
        "stop_id": "470013",
        "name": "ΑΤΤΙΚΟΝ ΝΟΣΟΚΟΜΕΙΟ",
        "order": "27"
      },
      "geometry": {
        "type": "Point",
        "coordinates": [
          23.6648955,
          38.0156963
        ]
      }
    },
    {
      "type": "Feature",
      "properties": {
        "type": "stop",
        "stop_code": "470029",
        "stop_id": "470029",
        "name": "ΠΥΛΗ ΚΕΔΒ",
        "order": "28"
      },
      "geometry": {
        "type": "Point",
        "coordinates": [
          23.6625179,
          38.015862
        ]
      }
    },
    {
      "type": "Feature",
      "properties": {
        "type": "stop",
        "stop_code": "470127",
        "stop_id": "470127",
        "name": "ΟΤΕ - ΔΗΜΑΡΧΕΙΟ",
        "order": "29"
      },
      "geometry": {
        "type": "Point",
        "coordinates": [
          23.6600787,
          38.0127623
        ]
      }
    },
    {
      "type": "Feature",
      "properties": {
        "type": "stop",
        "stop_code": "470006",
        "stop_id": "470006",
        "name": "ΔΗΜΑΡΧΕΙΟ",
        "order": "30"
      },
      "geometry": {
        "type": "Point",
        "coordinates": [
          23.6570144,
          38.0127534
        ]
      }
    },
    {
      "type": "Feature",
      "properties": {
        "type": "stop",
        "stop_code": "470007",
        "stop_id": "470007",
        "name": "ΜΥΛΩΝΑ",
        "order": "31"
      },
      "geometry": {
        "type": "Point",
        "coordinates": [
          23.6532249,
          38.0119222
        ]
      }
    },
    {
      "type": "Feature",
      "properties": {
        "type": "stop",
        "stop_code": "470008",
        "stop_id": "470008",
        "name": "ΦΟΥΡΝΟΣ",
        "order": "32"
      },
      "geometry": {
        "type": "Point",
        "coordinates": [
          23.6502672,
          38.0109828
        ]
      }
    },
    {
      "type": "Feature",
      "properties": {
        "type": "stop",
        "stop_code": "470009",
        "stop_id": "470009",
        "name": "ΣΤΡΟΦΗ",
        "order": "33"
      },
      "geometry": {
        "type": "Point",
        "coordinates": [
          23.6484273,
          38.0112382
        ]
      }
    },
    {
      "type": "Feature",
      "properties": {
        "type": "stop",
        "stop_code": "470010",
        "stop_id": "470010",
        "name": "ΚΟΝΤΟΛΕΟΝΤΟΣ",
        "order": "34"
      },
      "geometry": {
        "type": "Point",
        "coordinates": [
          23.6492111,
          38.0127484
        ]
      }
    },
    {
      "type": "Feature",
      "properties": {
        "type": "stop",
        "stop_code": "470011",
        "stop_id": "470011",
        "name": "ΠΑΛ. ΤΕΡΜΑ",
        "order": "35"
      },
      "geometry": {
        "type": "Point",
        "coordinates": [
          23.649665,
          38.0155077
        ]
      }
    },
    {
      "type": "Feature",
      "properties": {
        "type": "stop",
        "stop_code": "470012",
        "stop_id": "470012",
        "name": "ΚΥΠΡΙΩΝ ΑΓΩΝΙΣΤΩΝ",
        "order": "36"
      },
      "geometry": {
        "type": "Point",
        "coordinates": [
          23.6478739,
          38.0160341
        ]
      }
    },
    {
      "type": "Feature",
      "properties": {
        "type": "stop",
        "stop_code": "470015",
        "stop_id": "470015",
        "name": "ΚΑΛΑΒΡΥΤΩΝ",
        "order": "37"
      },
      "geometry": {
        "type": "Point",
        "coordinates": [
          23.6461722,
          38.0169303
        ]
      }
    },
    {
      "type": "Feature",
      "properties": {
        "type": "stop",
        "stop_code": "470132",
        "stop_id": "470132",
        "name": "Γ. ΠΑΠΑΝΔΡΕΟΥ",
        "order": "38"
      },
      "geometry": {
        "type": "Point",
        "coordinates": [
          23.6477864,
          38.0200355
        ]
      }
    },
    {
      "type": "Feature",
      "properties": {
        "type": "stop",
        "stop_code": "10214",
        "stop_id": "48",
        "name": "ΔΑΣΟΣ",
        "order": "39"
      },
      "geometry": {
        "type": "Point",
        "coordinates": [
          23.6480645,
          38.0215975
        ]
      }
    }
  ]
}