{
  "type": "FeatureCollection",
  "features": [
    {
      "type": "Feature",
      "properties": {
        "type": "route_path",
        "route_code": "5284",
        "descr": "ΑΝΩ Ν. ΣΜΥΡΝΗ Β - ΣΤ. ΣΥΓΓΡΟΥ ΦΙΞ"
      },
      "geometry": {
        "type": "LineString",
        "coordinates": [
          [
            23.71484,
            37.93328
          ],
          [
            23.71492,
            37.93328
          ],
          [
            23.71499,
            37.9334
          ],
          [
            23.71518,
            37.93398
          ],
          [
            23.71527,
            37.93416
          ],
          [
            23.71592,
            37.93641
          ],
          [
            23.71637,
            37.93658
          ],
          [
            23.71644,
            37.93679
          ],
          [
            23.71644,
            37.9369
          ],
          [
            23.71634,
            37.93704
          ],
          [
            23.71616,
            37.93717
          ],
          [
            23.71613,
            37.93739
          ],
          [
            23.71648,
            37.94107
          ],
          [
            23.71668,
            37.94141
          ],
          [
            23.7168,
            37.9417
          ],
          [
            23.71686,
            37.94185
          ],
          [
            23.71861,
            37.94316
          ],
          [
            23.71945,
            37.94246
          ],
          [
            23.72066,
            37.94146
          ],
          [
            23.7212,
            37.94109
          ],
          [
            23.72237,
            37.9408
          ],
          [
            23.72256,
            37.94079
          ],
          [
            23.72293,
            37.94119
          ],
          [
            23.72397,
            37.94104
          ],
          [
            23.7243,
            37.94107
          ],
          [
            23.72766,
            37.94369
          ],
          [
            23.72278,
            37.94765
          ],
          [
            23.72291,
            37.9477
          ],
          [
            23.72312,
            37.94785
          ],
          [
            23.72319,
            37.94806
          ],
          [
            23.72345,
            37.94846
          ],
          [
            23.72017,
            37.95102
          ],
          [
            23.71713,
            37.95349
          ],
          [
            23.71493,
            37.95523
          ],
          [
            23.71582,
            37.95594
          ],
          [
            23.71896,
            37.95839
          ],
          [
            23.72056,
            37.95963
          ],
          [
            23.72333,
            37.96184
          ],
          [
            23.72419,
            37.96254
          ],
          [
            23.72486,
            37.96309
          ],
          [
            23.7259,
            37.96376
          ],
          [
            23.72609,
            37.96363
          ],
          [
            23.72622,
            37.96353
          ],
          [
            23.72598,
            37.96329
          ],
          [
            23.72511,
            37.96252
          ],
          [
            23.72473,
            37.96275
          ],
          [
            23.72458,
            37.96279
          ],
          [
            23.72436,
            37.96281
          ],
          [
            23.72266,
            37.96143
          ],
          [
            23.72091,
            37.96012
          ],
          [
            23.72017,
            37.95959
          ],
          [
            23.71621,
            37.95652
          ],
          [
            23.71364,
            37.95454
          ],
          [
            23.71298,
            37.95404
          ],
          [
            23.71209,
            37.9533
          ],
          [
            23.71124,
            37.9539
          ],
          [
            23.71206,
            37.95455
          ],
          [
            23.71222,
            37.95448
          ],
          [
            23.7129,
            37.95397
          ],
          [
            23.71315,
            37.95375
          ],
          [
            23.7136,
            37.95333
          ],
          [
            23.71679,
            37.95076
          ],
          [
            23.71818,
            37.94962
          ],
          [
            23.71832,
            37.94961
          ],
          [
            23.71941,
            37.95039
          ],
          [
            23.72018,
            37.94973
          ],
          [
            23.72396,
            37.94665
          ],
          [
            23.72718,
            37.94404
          ],
          [
            23.72426,
            37.94188
          ],
          [
            23.72333,
            37.942
          ],
          [
            23.72236,
            37.94212
          ],
          [
            23.72145,
            37.94232
          ],
          [
            23.72048,
            37.94311
          ],
          [
            23.71768,
            37.94097
          ],
          [
            23.71726,
            37.94125
          ],
          [
            23.71669,
            37.94146
          ],
          [
            23.71682,
            37.94182
          ],
          [
            23.71654,
            37.94189
          ],
          [
            23.7162,
            37.94126
          ],
          [
            23.71628,
            37.94117
          ],
          [
            23.71646,
            37.94109
          ],
          [
            23.71607,
            37.93752
          ],
          [
            23.71608,
            37.93717
          ],
          [
            23.71572,
            37.93708
          ],
          [
            23.71561,
            37.93691
          ],
          [
            23.71565,
            37.93665
          ],
          [
            23.71583,
            37.93654
          ],
          [
            23.71587,
            37.93642
          ],
          [
            23.71524,
            37.93419
          ],
          [
            23.71513,
            37.93398
          ],
          [
            23.71472,
            37.93364
          ],
          [
            23.7146,
            37.9335
          ],
          [
            23.71479,
            37.93332
          ]
        ]
      }
    },
    {
      "type": "Feature",
      "properties": {
        "type": "stop",
        "stop_code": "10348",
        "stop_id": "000143",
        "name": "ΑΝΩ ΝΕΑ ΣΜΥΡΝΗ ",
        "order": "1"
      },
      "geometry": {
        "type": "Point",
        "coordinates": [
          23.7149265,
          37.933533
        ]
      }
    },
    {
      "type": "Feature",
      "properties": {
        "type": "stop",
        "stop_code": "340044",
        "stop_id": "340044",
        "name": "ΑΝΟΙΞΗ",
        "order": "2"
      },
      "geometry": {
        "type": "Point",
        "coordinates": [
          23.7157183,
          37.9354264
        ]
      }
    },
    {
      "type": "Feature",
      "properties": {
        "type": "stop",
        "stop_code": "340046",
        "stop_id": "340046",
        "name": "ΠΛ. ΗΡΩΩΝ",
        "order": "3"
      },
      "geometry": {
        "type": "Point",
        "coordinates": [
          23.716463,
          37.9370685
        ]
      }
    },
    {
      "type": "Feature",
      "properties": {
        "type": "stop",
        "stop_code": "340047",
        "stop_id": "340047",
        "name": "ΣΧΟΛΕΙΟ",
        "order": "4"
      },
      "geometry": {
        "type": "Point",
        "coordinates": [
          23.7165,
          37.9392948
        ]
      }
    },
    {
      "type": "Feature",
      "properties": {
        "type": "stop",
        "stop_code": "340048",
        "stop_id": "340048",
        "name": "ΠΑΛ. ΤΕΡΜΑ",
        "order": "5"
      },
      "geometry": {
        "type": "Point",
        "coordinates": [
          23.7170364,
          37.9418648
        ]
      }
    },
    {
      "type": "Feature",
      "properties": {
        "type": "stop",
        "stop_code": "340049",
        "stop_id": "340049",
        "name": "10η ΑΡΤΑΚΗΣ",
        "order": "6"
      },
      "geometry": {
        "type": "Point",
        "coordinates": [
          23.7180463,
          37.9426423
        ]
      }
    },
    {
      "type": "Feature",
      "properties": {
        "type": "stop",
        "stop_code": "340055",
        "stop_id": "340055",
        "name": "ΛΟΥΤΡΑ",
        "order": "7"
      },
      "geometry": {
        "type": "Point",
        "coordinates": [
          23.7203494,
          37.9415392
        ]
      }
    },
    {
      "type": "Feature",
      "properties": {
        "type": "stop",
        "stop_code": "340056",
        "stop_id": "340056",
        "name": "ΠΑΙΔΙΚΗ ΧΑΡΑ",
        "order": "8"
      },
      "geometry": {
        "type": "Point",
        "coordinates": [
          23.7222986,
          37.9407146
        ]
      }
    },
    {
      "type": "Feature",
      "properties": {
        "type": "stop",
        "stop_code": "340057",
        "stop_id": "340057",
        "name": "ΚΑΛΑΜΩΝ",
        "order": "9"
      },
      "geometry": {
        "type": "Point",
        "coordinates": [
          23.7248795,
          37.9413877
        ]
      }
    },
    {
      "type": "Feature",
      "properties": {
        "type": "stop",
        "stop_code": "340058",
        "stop_id": "340058",
        "name": "ΑΓ. ΛΑΥΡΑΣ",
        "order": "10"
      },
      "geometry": {
        "type": "Point",
        "coordinates": [
          23.7265024,
          37.9426262
        ]
      }
    },
    {
      "type": "Feature",
      "properties": {
        "type": "stop",
        "stop_code": "340059",
        "stop_id": "340059",
        "name": "7η ΑΙΓΑΙΟΥ",
        "order": "11"
      },
      "geometry": {
        "type": "Point",
        "coordinates": [
          23.7276473,
          37.9438727
        ]
      }
    },
    {
      "type": "Feature",
      "properties": {
        "type": "stop",
        "stop_code": "340060",
        "stop_id": "340060",
        "name": "6η ΑΙΓΑΙΟΥ",
        "order": "12"
      },
      "geometry": {
        "type": "Point",
        "coordinates": [
          23.7254269,
          37.9455548
        ]
      }
    },
    {
      "type": "Feature",
      "properties": {
        "type": "stop",
        "stop_code": "340052",
        "stop_id": "340052",
        "name": "5η ΑΙΓΑΙΟΥ",
        "order": "13"
      },
      "geometry": {
        "type": "Point",
        "coordinates": [
          23.7232483,
          37.9473116
        ]
      }
    },
    {
      "type": "Feature",
      "properties": {
        "type": "stop",
        "stop_code": "60948",
        "stop_id": "060948",
        "name": "4η ΑΙΓΑΙΟΥ",
        "order": "14"
      },
      "geometry": {
        "type": "Point",
        "coordinates": [
          23.7227917,
          37.9490199
        ]
      }
    },
    {
      "type": "Feature",
      "properties": {
        "type": "stop",
        "stop_code": "60949",
        "stop_id": "060949",
        "name": "3η ΑΙΓΑΙΟΥ",
        "order": "15"
      },
      "geometry": {
        "type": "Point",
        "coordinates": [
          23.7214387,
          37.9500885
        ]
      }
    },
    {
      "type": "Feature",
      "properties": {
        "type": "stop",
        "stop_code": "60950",
        "stop_id": "060950",
        "name": "2η ΑΙΓΑΙΟΥ",
        "order": "16"
      },
      "geometry": {
        "type": "Point",
        "coordinates": [
          23.7191503,
          37.9519404
        ]
      }
    },
    {
      "type": "Feature",
      "properties": {
        "type": "stop",
        "stop_code": "60951",
        "stop_id": "060951",
        "name": "1η ΑΙΓΑΙΟΥ",
        "order": "17"
      },
      "geometry": {
        "type": "Point",
        "coordinates": [
          23.7168207,
          37.953793
        ]
      }
    },
    {
      "type": "Feature",
      "properties": {
        "type": "stop",
        "stop_code": "60809",
        "stop_id": "060809",
        "name": "ΑΓ. ΣΩΣΤΗΣ",
        "order": "18"
      },
      "geometry": {
        "type": "Point",
        "coordinates": [
          23.7161799,
          37.9561168
        ]
      }
    },
    {
      "type": "Feature",
      "properties": {
        "type": "stop",
        "stop_code": "60810",
        "stop_id": "060810",
        "name": "ΠΑΝΤΕΙΟΣ",
        "order": "19"
      },
      "geometry": {
        "type": "Point",
        "coordinates": [
          23.7198878,
          37.9589516
        ]
      }
    },
    {
      "type": "Feature",
      "properties": {
        "type": "stop",
        "stop_code": "60811",
        "stop_id": "060811",
        "name": "ΓΕΦΥΡΑ",
        "order": "20"
      },
      "geometry": {
        "type": "Point",
        "coordinates": [
          23.721689,
          37.9604249
        ]
      }
    },
    {
      "type": "Feature",
      "properties": {
        "type": "stop",
        "stop_code": "60813",
        "stop_id": "060813",
        "name": "ΟΛΥΜΠΙΑΚΗ",
        "order": "21"
      },
      "geometry": {
        "type": "Point",
        "coordinates": [
          23.7241743,
          37.9623823
        ]
      }
    },
    {
      "type": "Feature",
      "properties": {
        "type": "stop",
        "stop_code": "12364",
        "stop_id": "060815",
        "name": "ΣΤ. ΜΕΤΡΟ ΦΙΞ",
        "order": "22"
      },
      "geometry": {
        "type": "Point",
        "coordinates": [
          23.726143,
          37.963541
        ]
      }
    },
    {
      "type": "Feature",
      "properties": {
        "type": "stop",
        "stop_code": "60807",
        "stop_id": "060807",
        "name": "ΟΛΥΜΠΙΑΚΗ",
        "order": "23"
      },
      "geometry": {
        "type": "Point",
        "coordinates": [
          23.7240855,
          37.962626
        ]
      }
    },
    {
      "type": "Feature",
      "properties": {
        "type": "stop",
        "stop_code": "60808",
        "stop_id": "060808",
        "name": "ΓΕΦΥΡΑ",
        "order": "24"
      },
      "geometry": {
        "type": "Point",
        "coordinates": [
          23.7218499,
          37.9609096
        ]
      }
    },
    {
      "type": "Feature",
      "properties": {
        "type": "stop",
        "stop_code": "240001",
        "stop_id": "240001",
        "name": "ΠΑΝΤΕΙΟΣ",
        "order": "25"
      },
      "geometry": {
        "type": "Point",
        "coordinates": [
          23.7190716,
          37.9588496
        ]
      }
    },
    {
      "type": "Feature",
      "properties": {
        "type": "stop",
        "stop_code": "240002",
        "stop_id": "240002",
        "name": "ΑΓ. ΣΩΣΤΗΣ",
        "order": "26"
      },
      "geometry": {
        "type": "Point",
        "coordinates": [
          23.715776,
          37.9562828
        ]
      }
    },
    {
      "type": "Feature",
      "properties": {
        "type": "stop",
        "stop_code": "240003",
        "stop_id": "240003",
        "name": "ΕΦΕΣΟΥ",
        "order": "27"
      },
      "geometry": {
        "type": "Point",
        "coordinates": [
          23.7129988,
          37.9541476
        ]
      }
    },
    {
      "type": "Feature",
      "properties": {
        "type": "stop",
        "stop_code": "240034",
        "stop_id": "240034",
        "name": "ΔΟΪΡΑΝΗΣ",
        "order": "28"
      },
      "geometry": {
        "type": "Point",
        "coordinates": [
          23.7116158,
          37.9543525
        ]
      }
    },
    {
      "type": "Feature",
      "properties": {
        "type": "stop",
        "stop_code": "340089",
        "stop_id": "340089",
        "name": "ΕΦΕΣΟΥ",
        "order": "29"
      },
      "geometry": {
        "type": "Point",
        "coordinates": [
          23.714801,
          37.9522433
        ]
      }
    },
    {
      "type": "Feature",
      "properties": {
        "type": "stop",
        "stop_code": "340090",
        "stop_id": "340090",
        "name": "ΑΛΣΟΣ",
        "order": "30"
      },
      "geometry": {
        "type": "Point",
        "coordinates": [
          23.7177915,
          37.9497529
        ]
      }
    },
    {
      "type": "Feature",
      "properties": {
        "type": "stop",
        "stop_code": "340021",
        "stop_id": "340021",
        "name": "3η ΑΙΓΑΙΟΥ",
        "order": "31"
      },
      "geometry": {
        "type": "Point",
        "coordinates": [
          23.7201304,
          37.9497059
        ]
      }
    },
    {
      "type": "Feature",
      "properties": {
        "type": "stop",
        "stop_code": "340022",
        "stop_id": "340022",
        "name": "4η ΑΙΓΑΙΟΥ",
        "order": "32"
      },
      "geometry": {
        "type": "Point",
        "coordinates": [
          23.7222301,
          37.9479906
        ]
      }
    },
    {
      "type": "Feature",
      "properties": {
        "type": "stop",
        "stop_code": "340023",
        "stop_id": "340023",
        "name": "5η ΑΙΓΑΙΟΥ",
        "order": "33"
      },
      "geometry": {
        "type": "Point",
        "coordinates": [
          23.7238611,
          37.9466848
        ]
      }
    },
    {
      "type": "Feature",
      "properties": {
        "type": "stop",
        "stop_code": "340101",
        "stop_id": "340101",
        "name": "6η ΑΙΓΑΙΟΥ",
        "order": "34"
      },
      "geometry": {
        "type": "Point",
        "coordinates": [
          23.7252601,
          37.9455674
        ]
      }
    },
    {
      "type": "Feature",
      "properties": {
        "type": "stop",
        "stop_code": "340025",
        "stop_id": "340025",
        "name": "7η ΑΙΓΑΙΟΥ",
        "order": "35"
      },
      "geometry": {
        "type": "Point",
        "coordinates": [
          23.726419,
          37.9436355
        ]
      }
    },
    {
      "type": "Feature",
      "properties": {
        "type": "stop",
        "stop_code": "340026",
        "stop_id": "340026",
        "name": "8η ΑΙΓΑΙΟΥ",
        "order": "36"
      },
      "geometry": {
        "type": "Point",
        "coordinates": [
          23.7247395,
          37.9423067
        ]
      }
    },
    {
      "type": "Feature",
      "properties": {
        "type": "stop",
        "stop_code": "340027",
        "stop_id": "340027",
        "name": "ΛΟΥΤΡΑ",
        "order": "37"
      },
      "geometry": {
        "type": "Point",
        "coordinates": [
          23.7212991,
          37.9425929
        ]
      }
    },
    {
      "type": "Feature",
      "properties": {
        "type": "stop",
        "stop_code": "340107",
        "stop_id": "340107",
        "name": "ΑΣΤΥΝΟΜΙΑ",
        "order": "38"
      },
      "geometry": {
        "type": "Point",
        "coordinates": [
          23.7184714,
          37.9415978
        ]
      }
    },
    {
      "type": "Feature",
      "properties": {
        "type": "stop",
        "stop_code": "340032",
        "stop_id": "340032",
        "name": "ΠΑΛΑΙΟ ΤΕΡΜΑ",
        "order": "39"
      },
      "geometry": {
        "type": "Point",
        "coordinates": [
          23.716116,
          37.941493
        ]
      }
    },
    {
      "type": "Feature",
      "properties": {
        "type": "stop",
        "stop_code": "340033",
        "stop_id": "340033",
        "name": "ΣΧΟΛΕΙΟ",
        "order": "40"
      },
      "geometry": {
        "type": "Point",
        "coordinates": [
          23.7161261,
          37.9388523
        ]
      }
    },
    {
      "type": "Feature",
      "properties": {
        "type": "stop",
        "stop_code": "340034",
        "stop_id": "340034",
        "name": "ΠΛ. ΗΡΩΩΝ",
        "order": "41"
      },
      "geometry": {
        "type": "Point",
        "coordinates": [
          23.715603,
          37.9370226
        ]
      }
    },
    {
      "type": "Feature",
      "properties": {
        "type": "stop",
        "stop_code": "340099",
        "stop_id": "340099",
        "name": "ΑΝΟΙΞΗ",
        "order": "42"
      },
      "geometry": {
        "type": "Point",
        "coordinates": [
          23.7153215,
          37.9350288
        ]
      }
    },
    {
      "type": "Feature",
      "properties": {
        "type": "stop",
        "stop_code": "10348",
        "stop_id": "000143",
        "name": "ΑΝΩ ΝΕΑ ΣΜΥΡΝΗ ",
        "order": "43"
      },
      "geometry": {
        "type": "Point",
        "coordinates": [
          23.7149265,
          37.933533
        ]
      }
    }
  ]
}