{
  "type": "FeatureCollection",
  "properties": {
    "LineCode": "934",
    "LineID": "815",
    "LineDescr": "ΓΟΥΔΗ - ΤΑΥΡΟΣ",
    "RouteCode": "5433",
    "RouteDescr": "ΓΟΥΔΗ - ΤΑΥΡΟΣ [Εναλλακτική λόγω έργων]",
    "RouteType": "1"
  },
  "features": [
    {
      "type": "Feature",
      "geometry": {
        "type": "LineString",
        "coordinates": [
          [
            23.77495,
            37.98172
          ],
          [
            23.77492,
            37.98207
          ],
          [
            23.77492,
            37.98242
          ],
          [
            23.77221,
            37.98235
          ],
          [
            23.77221,
            37.98223
          ],
          [
            23.77154,
            37.98222
          ],
          [
            23.77149,
            37.98373
          ],
          [
            23.77118,
            37.98357
          ],
          [
            23.77098,
            37.9829
          ],
          [
            23.77072,
            37.98265
          ],
          [
            23.77013,
            37.98234
          ],
          [
            23.76987,
            37.98228
          ],
          [
            23.76797,
            37.98416
          ],
          [
            23.76781,
            37.98413
          ],
          [
            23.75615,
            37.97902
          ],
          [
            23.75232,
            37.97811
          ],
          [
            23.75194,
            37.97813
          ],
          [
            23.75096,
            37.97741
          ],
          [
            23.75028,
            37.9771
          ],
          [
            23.74302,
            37.97536
          ],
          [
            23.73668,
            37.97615
          ],
          [
            23.73591,
            37.97634
          ],
          [
            23.73586,
            37.97663
          ],
          [
            23.73588,
            37.97682
          ],
          [
            23.73572,
            37.97713
          ],
          [
            23.73011,
            37.9836
          ],
          [
            23.72977,
            37.98388
          ],
          [
            23.72884,
            37.98402
          ],
          [
            23.7282,
            37.98444
          ],
          [
            23.72788,
            37.98441
          ],
          [
            23.72743,
            37.98424
          ],
          [
            23.72682,
            37.98431
          ],
          [
            23.72664,
            37.9835
          ],
          [
            23.71726,
            37.97931
          ],
          [
            23.71697,
            37.97921
          ],
          [
            23.7154,
            37.97816
          ],
          [
            23.71136,
            37.97617
          ],
          [
            23.70259,
            37.97021
          ],
          [
            23.7018,
            37.9698
          ],
          [
            23.7,
            37.9692
          ],
          [
            23.69701,
            37.96763
          ],
          [
            23.69663,
            37.96829
          ],
          [
            23.69631,
            37.96904
          ],
          [
            23.69603,
            37.9697
          ],
          [
            23.69654,
            37.96983
          ],
          [
            23.69572,
            37.97179
          ],
          [
            23.69375,
            37.97212
          ],
          [
            23.69312,
            37.97219
          ],
          [
            23.69129,
            37.97221
          ],
          [
            23.6886,
            37.9729
          ]
        ]
      },
      "properties": {
        "type": "route_path",
        "RouteCode": "5433"
      }
    },
    {
      "type": "Feature",
      "geometry": {
        "type": "Point",
        "coordinates": [
          23.7747655,
          37.982312
        ]
      },
      "properties": {
        "type": "stop",
        "StopCode": "10295",
        "StopID": "94",
        "StopDescr": "ΓΟΥΔΗ",
        "StopOrder": "1",
        "StopType": "0"
      }
    },
    {
      "type": "Feature",
      "geometry": {
        "type": "Point",
        "coordinates": [
          23.7725633,
          37.9824801
        ]
      },
      "properties": {
        "type": "stop",
        "StopCode": "200089",
        "StopID": "200089",
        "StopDescr": "ΓΡΑΜΜΟΥ",
        "StopOrder": "2",
        "StopType": "0"
      }
    },
    {
      "type": "Feature",
      "geometry": {
        "type": "Point",
        "coordinates": [
          23.770192,
          37.982449
        ]
      },
      "properties": {
        "type": "stop",
        "StopCode": "12509",
        "StopID": "200092",
        "StopDescr": "Γ. ΠΑΠΑΝΔΡΕΟΥ",
        "StopOrder": "3",
        "StopType": "0"
      }
    },
    {
      "type": "Feature",
      "geometry": {
        "type": "Point",
        "coordinates": [
          23.768333,
          37.9839712
        ]
      },
      "properties": {
        "type": "stop",
        "StopCode": "60706",
        "StopID": "060706",
        "StopDescr": "ΝΟΣΟΚΟΜΕΙΟ ΠΑΙΔΩΝ",
        "StopOrder": "4",
        "StopType": "0"
      }
    },
    {
      "type": "Feature",
      "geometry": {
        "type": "Point",
        "coordinates": [
          23.7651937,
          37.9831687
        ]
      },
      "properties": {
        "type": "stop",
        "StopCode": "60709",
        "StopID": "060709",
        "StopDescr": "ΛΑΙΚΟ",
        "StopOrder": "5",
        "StopType": "0"
      }
    },
    {
      "type": "Feature",
      "geometry": {
        "type": "Point",
        "coordinates": [
          23.7625881,
          37.9819492
        ]
      },
      "properties": {
        "type": "stop",
        "StopCode": "60710",
        "StopID": "060710",
        "StopDescr": "ΟΤΕ",
        "StopOrder": "6",
        "StopType": "0"
      }
    },
    {
      "type": "Feature",
      "geometry": {
        "type": "Point",
        "coordinates": [
          23.7598835,
          37.9808146
        ]
      },
      "properties": {
        "type": "stop",
        "StopCode": "60711",
        "StopID": "060711",
        "StopDescr": "ΑΛΕΞ",
        "StopOrder": "7",
        "StopType": "0"
      }
    },
    {
      "type": "Feature",
      "geometry": {
        "type": "Point",
        "coordinates": [
          23.7569652,
          37.979448
        ]
      },
      "properties": {
        "type": "stop",
        "StopCode": "60712",
        "StopID": "060712",
        "StopDescr": "ΚΑΦΕΝΕΙΟ",
        "StopOrder": "8",
        "StopType": "0"
      }
    },
    {
      "type": "Feature",
      "geometry": {
        "type": "Point",
        "coordinates": [
          23.7527581,
          37.9782154
        ]
      },
      "properties": {
        "type": "stop",
        "StopCode": "60713",
        "StopID": "060713",
        "StopDescr": "ΙΛIΣΙΑ",
        "StopOrder": "9",
        "StopType": "0"
      }
    },
    {
      "type": "Feature",
      "geometry": {
        "type": "Point",
        "coordinates": [
          23.7477618,
          37.9765364
        ]
      },
      "properties": {
        "type": "stop",
        "StopCode": "60675",
        "StopID": "060675",
        "StopDescr": "ΝΟΣΟΚ. ΕΥΑΓΓΕΛΙΣΜΟΣ",
        "StopOrder": "10",
        "StopType": "0"
      }
    },
    {
      "type": "Feature",
      "geometry": {
        "type": "Point",
        "coordinates": [
          23.742435,
          37.9754734
        ]
      },
      "properties": {
        "type": "stop",
        "StopCode": "60676",
        "StopID": "060676",
        "StopDescr": "ΡΗΓΙΛΛΗΣ",
        "StopOrder": "11",
        "StopType": "0"
      }
    },
    {
      "type": "Feature",
      "geometry": {
        "type": "Point",
        "coordinates": [
          23.7387232,
          37.975966
        ]
      },
      "properties": {
        "type": "stop",
        "StopCode": "61048",
        "StopID": "061048",
        "StopDescr": "ΣΥΝΤΑΓΜΑ",
        "StopOrder": "12",
        "StopType": "0"
      }
    },
    {
      "type": "Feature",
      "geometry": {
        "type": "Point",
        "coordinates": [
          23.7335091,
          37.9798734
        ]
      },
      "properties": {
        "type": "stop",
        "StopCode": "61000",
        "StopID": "061000",
        "StopDescr": "ΑΚΑΔΗΜΙΑ",
        "StopOrder": "13",
        "StopType": "0"
      }
    },
    {
      "type": "Feature",
      "geometry": {
        "type": "Point",
        "coordinates": [
          23.7310565,
          37.982726
        ]
      },
      "properties": {
        "type": "stop",
        "StopCode": "60116",
        "StopID": "060116",
        "StopDescr": "ΡΕΞ",
        "StopOrder": "14",
        "StopType": "0"
      }
    },
    {
      "type": "Feature",
      "geometry": {
        "type": "Point",
        "coordinates": [
          23.7253504,
          37.9830283
        ]
      },
      "properties": {
        "type": "stop",
        "StopCode": "60415",
        "StopID": "060415",
        "StopDescr": "ΟΜΟΝΟΙΑ - MENANΔΡΟΥ",
        "StopOrder": "15",
        "StopType": "0"
      }
    },
    {
      "type": "Feature",
      "geometry": {
        "type": "Point",
        "coordinates": [
          23.7225425,
          37.981787
        ]
      },
      "properties": {
        "type": "stop",
        "StopCode": "60281",
        "StopID": "060281",
        "StopDescr": "ΙΚΑ",
        "StopOrder": "16",
        "StopType": "0"
      }
    },
    {
      "type": "Feature",
      "geometry": {
        "type": "Point",
        "coordinates": [
          23.7198824,
          37.9806
        ]
      },
      "properties": {
        "type": "stop",
        "StopCode": "60282",
        "StopID": "060282",
        "StopDescr": "ΘΕΡΜΟΠΥΛΩΝ",
        "StopOrder": "17",
        "StopType": "0"
      }
    },
    {
      "type": "Feature",
      "geometry": {
        "type": "Point",
        "coordinates": [
          23.7153596,
          37.9782368
        ]
      },
      "properties": {
        "type": "stop",
        "StopCode": "60283",
        "StopID": "060283",
        "StopDescr": "ΠΑΛΑΙΑ ΑΓΟΡΑ",
        "StopOrder": "18",
        "StopType": "0"
      }
    },
    {
      "type": "Feature",
      "geometry": {
        "type": "Point",
        "coordinates": [
          23.7129391,
          37.9770141
        ]
      },
      "properties": {
        "type": "stop",
        "StopCode": "60284",
        "StopID": "060284",
        "StopDescr": "ΦΩΤΑΕΡΙΟ",
        "StopOrder": "19",
        "StopType": "0"
      }
    },
    {
      "type": "Feature",
      "geometry": {
        "type": "Point",
        "coordinates": [
          23.7098717,
          37.9752581
        ]
      },
      "properties": {
        "type": "stop",
        "StopCode": "60285",
        "StopID": "060285",
        "StopDescr": "ΚΑΜΠΑ",
        "StopOrder": "20",
        "StopType": "0"
      }
    },
    {
      "type": "Feature",
      "geometry": {
        "type": "Point",
        "coordinates": [
          23.7084634,
          37.9743533
        ]
      },
      "properties": {
        "type": "stop",
        "StopCode": "61108",
        "StopID": "061108",
        "StopDescr": "ΠΕΤΡΟΥ ΡΑΛΛΗ",
        "StopOrder": "21",
        "StopType": "0"
      }
    },
    {
      "type": "Feature",
      "geometry": {
        "type": "Point",
        "coordinates": [
          23.7073284,
          37.9734673
        ]
      },
      "properties": {
        "type": "stop",
        "StopCode": "60286",
        "StopID": "060286",
        "StopDescr": "ΚΟΛΥΜΒΗΤΗΡΙΟ",
        "StopOrder": "22",
        "StopType": "0"
      }
    },
    {
      "type": "Feature",
      "geometry": {
        "type": "Point",
        "coordinates": [
          23.7047621,
          37.9717484
        ]
      },
      "properties": {
        "type": "stop",
        "StopCode": "60287",
        "StopID": "060287",
        "StopDescr": "ΥΠΟΥΡΓΕΙΟ",
        "StopOrder": "23",
        "StopType": "0"
      }
    },
    {
      "type": "Feature",
      "geometry": {
        "type": "Point",
        "coordinates": [
          23.7024566,
          37.9703366
        ]
      },
      "properties": {
        "type": "stop",
        "StopCode": "60288",
        "StopID": "060288",
        "StopDescr": "ΕΛΟΥΛΟΥ",
        "StopOrder": "24",
        "StopType": "0"
      }
    },
    {
      "type": "Feature",
      "geometry": {
        "type": "Point",
        "coordinates": [
          23.7002062,
          37.9693665
        ]
      },
      "properties": {
        "type": "stop",
        "StopCode": "60289",
        "StopID": "060289",
        "StopDescr": "ΕΡΓΩΝ",
        "StopOrder": "25",
        "StopType": "0"
      }
    },
    {
      "type": "Feature",
      "geometry": {
        "type": "Point",
        "coordinates": [
          23.6966227,
          37.9686904
        ]
      },
      "properties": {
        "type": "stop",
        "StopCode": "450019",
        "StopID": "450019",
        "StopDescr": "ΣΤΡΟΦΗ ΠΕΙΡΑΙΩΣ",
        "StopOrder": "26",
        "StopType": "0"
      }
    },
    {
      "type": "Feature",
      "geometry": {
        "type": "Point",
        "coordinates": [
          23.69625,
          37.9707263
        ]
      },
      "properties": {
        "type": "stop",
        "StopCode": "450038",
        "StopID": "450038",
        "StopDescr": "ΑΧΙΛΛΕΩΣ",
        "StopOrder": "27",
        "StopType": "0"
      }
    },
    {
      "type": "Feature",
      "geometry": {
        "type": "Point",
        "coordinates": [
          23.6953911,
          37.9719498
        ]
      },
      "properties": {
        "type": "stop",
        "StopCode": "450022",
        "StopID": "450022",
        "StopDescr": "ΠΑΛ. ΤΕΡΜΑ",
        "StopOrder": "28",
        "StopType": "0"
      }
    },
    {
      "type": "Feature",
      "geometry": {
        "type": "Point",
        "coordinates": [
          23.6929191,
          37.9722769
        ]
      },
      "properties": {
        "type": "stop",
        "StopCode": "450033",
        "StopID": "450033",
        "StopDescr": "ΔΗΜΗΤΡΟΣ",
        "StopOrder": "29",
        "StopType": "0"
      }
    },
    {
      "type": "Feature",
      "geometry": {
        "type": "Point",
        "coordinates": [
          23.6910881,
          37.972311
        ]
      },
      "properties": {
        "type": "stop",
        "StopCode": "450034",
        "StopID": "450034",
        "StopDescr": "ΣΟΦ. ΒΕΝΙΖΕΛΟΥ",
        "StopOrder": "30",
        "StopType": "0"
      }
    },
    {
      "type": "Feature",
      "geometry": {
        "type": "Point",
        "coordinates": [
          23.6891695,
          37.972758
        ]
      },
      "properties": {
        "type": "stop",
        "StopCode": "10296",
        "StopID": "95",
        "StopDescr": "ΤΑΥΡΟΣ",
        "StopOrder": "31",
        "StopType": "0"
      }
    }
  ]
}