{
  "type": "FeatureCollection",
  "properties": {
    "LineCode": "1651",
    "LineID": "848",
    "LineDescr": "ΝΕΑΠΟΛΗ - ΧΑΡΑΥΓΗ",
    "RouteCode": "4480",
    "RouteDescr": "ΧΑΡΑΥΓΗ - ΝΕΑΠΟΛΗ",
    "RouteType": "2"
  },
  "features": [
    {
      "type": "Feature",
      "geometry": {
        "type": "LineString",
        "coordinates": [
          [
            23.61655,
            37.95606
          ],
          [
            23.61578,
            37.95604
          ],
          [
            23.61557,
            37.95667
          ],
          [
            23.6211,
            37.95676
          ],
          [
            23.62105,
            37.95362
          ],
          [
            23.62091,
            37.95351
          ],
          [
            23.62093,
            37.95333
          ],
          [
            23.62097,
            37.95127
          ],
          [
            23.62281,
            37.95127
          ],
          [
            23.62296,
            37.94747
          ],
          [
            23.62167,
            37.94767
          ],
          [
            23.6216,
            37.9458
          ],
          [
            23.62425,
            37.94685
          ],
          [
            23.62752,
            37.94792
          ],
          [
            23.62747,
            37.95135
          ],
          [
            23.62671,
            37.95162
          ],
          [
            23.62629,
            37.95176
          ],
          [
            23.62554,
            37.95217
          ],
          [
            23.62498,
            37.95275
          ],
          [
            23.62447,
            37.95362
          ],
          [
            23.62288,
            37.9537
          ],
          [
            23.62287,
            37.95446
          ],
          [
            23.62275,
            37.95717
          ],
          [
            23.62316,
            37.95776
          ],
          [
            23.62601,
            37.96305
          ],
          [
            23.62633,
            37.96375
          ],
          [
            23.62648,
            37.96405
          ],
          [
            23.6264,
            37.9643
          ],
          [
            23.62548,
            37.96442
          ],
          [
            23.62452,
            37.96452
          ],
          [
            23.6232,
            37.96458
          ],
          [
            23.61932,
            37.96416
          ],
          [
            23.61453,
            37.96358
          ],
          [
            23.61373,
            37.96419
          ],
          [
            23.61607,
            37.9663
          ],
          [
            23.61803,
            37.96814
          ],
          [
            23.62096,
            37.97078
          ],
          [
            23.62488,
            37.9743
          ],
          [
            23.62794,
            37.97701
          ],
          [
            23.62856,
            37.97752
          ],
          [
            23.62951,
            37.97771
          ],
          [
            23.6305,
            37.97779
          ],
          [
            23.63546,
            37.97802
          ],
          [
            23.63639,
            37.97816
          ],
          [
            23.64044,
            37.97887
          ],
          [
            23.64026,
            37.97966
          ],
          [
            23.63977,
            37.98109
          ],
          [
            23.63822,
            37.98187
          ],
          [
            23.63201,
            37.98484
          ],
          [
            23.63128,
            37.98487
          ],
          [
            23.63076,
            37.98545
          ],
          [
            23.62947,
            37.98608
          ],
          [
            23.628,
            37.98695
          ],
          [
            23.62729,
            37.98683
          ],
          [
            23.62653,
            37.98652
          ]
        ]
      },
      "properties": {
        "type": "route_path",
        "RouteCode": "4480"
      }
    },
    {
      "type": "Feature",
      "geometry": {
        "type": "Point",
        "coordinates": [
          23.616681,
          37.956005
        ]
      },
      "properties": {
        "type": "stop",
        "StopCode": "10473",
        "StopID": "000221",
        "StopDescr": "ΧΑΡΑΥΓΗ",
        "StopOrder": "1",
        "StopType": "0"
      }
    },
    {
      "type": "Feature",
      "geometry": {
        "type": "Point",
        "coordinates": [
          23.6166613,
          37.956542
        ]
      },
      "properties": {
        "type": "stop",
        "StopCode": "260140",
        "StopID": "260140",
        "StopDescr": "ΠΡΟΥΣΣΗΣ",
        "StopOrder": "2",
        "StopType": "0"
      }
    },
    {
      "type": "Feature",
      "geometry": {
        "type": "Point",
        "coordinates": [
          23.6195752,
          37.9565695
        ]
      },
      "properties": {
        "type": "stop",
        "StopCode": "260066",
        "StopID": "260066",
        "StopDescr": "ΒΥΡΩΝΟΣ",
        "StopOrder": "3",
        "StopType": "0"
      }
    },
    {
      "type": "Feature",
      "geometry": {
        "type": "Point",
        "coordinates": [
          23.6209254,
          37.9552129
        ]
      },
      "properties": {
        "type": "stop",
        "StopCode": "260067",
        "StopID": "260067",
        "StopDescr": "ΠΛ. ΕΥΓΕΝΕΙΑΣ",
        "StopOrder": "4",
        "StopType": "0"
      }
    },
    {
      "type": "Feature",
      "geometry": {
        "type": "Point",
        "coordinates": [
          23.6208752,
          37.9538878
        ]
      },
      "properties": {
        "type": "stop",
        "StopCode": "260038",
        "StopID": "260038",
        "StopDescr": "ΑΓ. ΕΥΘΥΜΙΟΣ",
        "StopOrder": "5",
        "StopType": "0"
      }
    },
    {
      "type": "Feature",
      "geometry": {
        "type": "Point",
        "coordinates": [
          23.6209151,
          37.9514445
        ]
      },
      "properties": {
        "type": "stop",
        "StopCode": "260068",
        "StopID": "260068",
        "StopDescr": "ΜΙΑΟΥΛΗ",
        "StopOrder": "6",
        "StopType": "0"
      }
    },
    {
      "type": "Feature",
      "geometry": {
        "type": "Point",
        "coordinates": [
          23.6226818,
          37.9500722
        ]
      },
      "properties": {
        "type": "stop",
        "StopCode": "180054",
        "StopID": "180054",
        "StopDescr": "ΣΩΚΡΑΤΟΥΣ",
        "StopOrder": "7",
        "StopType": "0"
      }
    },
    {
      "type": "Feature",
      "geometry": {
        "type": "Point",
        "coordinates": [
          23.6214355,
          37.9467514
        ]
      },
      "properties": {
        "type": "stop",
        "StopCode": "180056",
        "StopID": "180056",
        "StopDescr": "ΙΚΑ",
        "StopOrder": "8",
        "StopType": "0"
      }
    },
    {
      "type": "Feature",
      "geometry": {
        "type": "Point",
        "coordinates": [
          23.6248485,
          37.9470237
        ]
      },
      "properties": {
        "type": "stop",
        "StopCode": "180011",
        "StopID": "180011",
        "StopDescr": "ΑΜΕΡΙΚΑΝΟΥ",
        "StopOrder": "9",
        "StopType": "0"
      }
    },
    {
      "type": "Feature",
      "geometry": {
        "type": "Point",
        "coordinates": [
          23.6271325,
          37.947761
        ]
      },
      "properties": {
        "type": "stop",
        "StopCode": "180012",
        "StopID": "180012",
        "StopDescr": "ΕΦΡΑΙΜΙΔΗ",
        "StopOrder": "10",
        "StopType": "0"
      }
    },
    {
      "type": "Feature",
      "geometry": {
        "type": "Point",
        "coordinates": [
          23.6266231,
          37.9517071
        ]
      },
      "properties": {
        "type": "stop",
        "StopCode": "260069",
        "StopID": "260069",
        "StopDescr": "ΚΕΡΑΤΣΑΚΗ",
        "StopOrder": "11",
        "StopType": "0"
      }
    },
    {
      "type": "Feature",
      "geometry": {
        "type": "Point",
        "coordinates": [
          23.6249782,
          37.9528645
        ]
      },
      "properties": {
        "type": "stop",
        "StopCode": "260070",
        "StopID": "260070",
        "StopDescr": "ΑΝΑΣΤΑΣΗΣ",
        "StopOrder": "12",
        "StopType": "0"
      }
    },
    {
      "type": "Feature",
      "geometry": {
        "type": "Point",
        "coordinates": [
          23.6230034,
          37.9539668
        ]
      },
      "properties": {
        "type": "stop",
        "StopCode": "260063",
        "StopID": "260063",
        "StopDescr": "25ης ΜΑΡΤΙΟΥ",
        "StopOrder": "13",
        "StopType": "0"
      }
    },
    {
      "type": "Feature",
      "geometry": {
        "type": "Point",
        "coordinates": [
          23.6228312,
          37.9564718
        ]
      },
      "properties": {
        "type": "stop",
        "StopCode": "260175",
        "StopID": "260175",
        "StopDescr": "ΧΡΥΣΟΣΤΟΜΟΥ ΣΜΥΡΝΗΣ",
        "StopOrder": "14",
        "StopType": "0"
      }
    },
    {
      "type": "Feature",
      "geometry": {
        "type": "Point",
        "coordinates": [
          23.624791,
          37.9605789
        ]
      },
      "properties": {
        "type": "stop",
        "StopCode": "260176",
        "StopID": "260176",
        "StopDescr": "ΔΗΜΑΡΧΕΙΟ",
        "StopOrder": "15",
        "StopType": "0"
      }
    },
    {
      "type": "Feature",
      "geometry": {
        "type": "Point",
        "coordinates": [
          23.6259295,
          37.9627997
        ]
      },
      "properties": {
        "type": "stop",
        "StopCode": "260177",
        "StopID": "260177",
        "StopDescr": "ΣΧΟΛΕΙΟ",
        "StopOrder": "16",
        "StopType": "0"
      }
    },
    {
      "type": "Feature",
      "geometry": {
        "type": "Point",
        "coordinates": [
          23.6252945,
          37.9645372
        ]
      },
      "properties": {
        "type": "stop",
        "StopCode": "260026",
        "StopID": "260026",
        "StopDescr": "ΝΕΡΟ",
        "StopOrder": "17",
        "StopType": "0"
      }
    },
    {
      "type": "Feature",
      "geometry": {
        "type": "Point",
        "coordinates": [
          23.6227555,
          37.9646102
        ]
      },
      "properties": {
        "type": "stop",
        "StopCode": "260027",
        "StopID": "260027",
        "StopDescr": "ΣΤΡΟΦΗ ΑΜΦΙΑΛΗΣ",
        "StopOrder": "18",
        "StopType": "0"
      }
    },
    {
      "type": "Feature",
      "geometry": {
        "type": "Point",
        "coordinates": [
          23.6192282,
          37.9642383
        ]
      },
      "properties": {
        "type": "stop",
        "StopCode": "260028",
        "StopID": "260028",
        "StopDescr": "ΑΣΤΡΟΝ",
        "StopOrder": "19",
        "StopType": "0"
      }
    },
    {
      "type": "Feature",
      "geometry": {
        "type": "Point",
        "coordinates": [
          23.6164864,
          37.9639049
        ]
      },
      "properties": {
        "type": "stop",
        "StopCode": "260141",
        "StopID": "260141",
        "StopDescr": "ΔΑΓΚΛΗ",
        "StopOrder": "20",
        "StopType": "0"
      }
    },
    {
      "type": "Feature",
      "geometry": {
        "type": "Point",
        "coordinates": [
          23.6147611,
          37.965107
        ]
      },
      "properties": {
        "type": "stop",
        "StopCode": "260016",
        "StopID": "260016",
        "StopDescr": "ΥΔΡΑΣ",
        "StopOrder": "21",
        "StopType": "0"
      }
    },
    {
      "type": "Feature",
      "geometry": {
        "type": "Point",
        "coordinates": [
          23.6164158,
          37.9665364
        ]
      },
      "properties": {
        "type": "stop",
        "StopCode": "260017",
        "StopID": "260017",
        "StopDescr": "ΑΣΤΡΟ",
        "StopOrder": "22",
        "StopType": "0"
      }
    },
    {
      "type": "Feature",
      "geometry": {
        "type": "Point",
        "coordinates": [
          23.6185803,
          37.9684542
        ]
      },
      "properties": {
        "type": "stop",
        "StopCode": "260018",
        "StopID": "260018",
        "StopDescr": "ΣΤΡΟΦΗ ΑΜΦΙΑΛΗΣ",
        "StopOrder": "23",
        "StopType": "0"
      }
    },
    {
      "type": "Feature",
      "geometry": {
        "type": "Point",
        "coordinates": [
          23.6206541,
          37.9703356
        ]
      },
      "properties": {
        "type": "stop",
        "StopCode": "260019",
        "StopID": "260019",
        "StopDescr": "ΠΑΙΔΙΚΗ ΣΤΕΓΗ",
        "StopOrder": "24",
        "StopType": "0"
      }
    },
    {
      "type": "Feature",
      "geometry": {
        "type": "Point",
        "coordinates": [
          23.6225918,
          37.9721174
        ]
      },
      "properties": {
        "type": "stop",
        "StopCode": "260020",
        "StopID": "260020",
        "StopDescr": "ΜΑΚΡΥΓΙΑΝΝΗ",
        "StopOrder": "25",
        "StopType": "0"
      }
    },
    {
      "type": "Feature",
      "geometry": {
        "type": "Point",
        "coordinates": [
          23.6252215,
          37.974424
        ]
      },
      "properties": {
        "type": "stop",
        "StopCode": "260021",
        "StopID": "260021",
        "StopDescr": "ΣΧΟΛΕΙΑ",
        "StopOrder": "26",
        "StopType": "0"
      }
    },
    {
      "type": "Feature",
      "geometry": {
        "type": "Point",
        "coordinates": [
          23.626956,
          37.9759167
        ]
      },
      "properties": {
        "type": "stop",
        "StopCode": "260022",
        "StopID": "260022",
        "StopDescr": "ΑΓ. ΑΝΤΩΝΙΟΣ",
        "StopOrder": "27",
        "StopType": "0"
      }
    },
    {
      "type": "Feature",
      "geometry": {
        "type": "Point",
        "coordinates": [
          23.6302263,
          37.9776845
        ]
      },
      "properties": {
        "type": "stop",
        "StopCode": "260023",
        "StopID": "260023",
        "StopDescr": "ΣΑΜΟΥ",
        "StopOrder": "28",
        "StopType": "0"
      }
    },
    {
      "type": "Feature",
      "geometry": {
        "type": "Point",
        "coordinates": [
          23.6329356,
          37.9778102
        ]
      },
      "properties": {
        "type": "stop",
        "StopCode": "370044",
        "StopID": "370044",
        "StopDescr": "ΑΚΡΟΠΟΛΕΩΣ",
        "StopOrder": "29",
        "StopType": "0"
      }
    },
    {
      "type": "Feature",
      "geometry": {
        "type": "Point",
        "coordinates": [
          23.6351443,
          37.9778621
        ]
      },
      "properties": {
        "type": "stop",
        "StopCode": "370045",
        "StopID": "370045",
        "StopDescr": "ΓΗΠΕΔΟ",
        "StopOrder": "30",
        "StopType": "0"
      }
    },
    {
      "type": "Feature",
      "geometry": {
        "type": "Point",
        "coordinates": [
          23.6403,
          37.9795656
        ]
      },
      "properties": {
        "type": "stop",
        "StopCode": "370159",
        "StopID": "370159",
        "StopDescr": "ΣΤΡΟΦΗ ΚΟΡΥΔΑΛΛΟΥ",
        "StopOrder": "31",
        "StopType": "0"
      }
    },
    {
      "type": "Feature",
      "geometry": {
        "type": "Point",
        "coordinates": [
          23.6393857,
          37.9813541
        ]
      },
      "properties": {
        "type": "stop",
        "StopCode": "370168",
        "StopID": "370168",
        "StopDescr": "ΠΛ. ΑΝΑΛΗΨΕΩΣ",
        "StopOrder": "32",
        "StopType": "0"
      }
    },
    {
      "type": "Feature",
      "geometry": {
        "type": "Point",
        "coordinates": [
          23.6363122,
          37.982816
        ]
      },
      "properties": {
        "type": "stop",
        "StopCode": "370092",
        "StopID": "370092",
        "StopDescr": "1η Κ. ΠΑΛΑΜΑ",
        "StopOrder": "33",
        "StopType": "0"
      }
    },
    {
      "type": "Feature",
      "geometry": {
        "type": "Point",
        "coordinates": [
          23.634797,
          37.9836022
        ]
      },
      "properties": {
        "type": "stop",
        "StopCode": "370123",
        "StopID": "370123",
        "StopDescr": "ΚΟΙΜ. ΘΕΟΤΟΚΟΥ",
        "StopOrder": "34",
        "StopType": "0"
      }
    },
    {
      "type": "Feature",
      "geometry": {
        "type": "Point",
        "coordinates": [
          23.6331419,
          37.9844082
        ]
      },
      "properties": {
        "type": "stop",
        "StopCode": "370126",
        "StopID": "370126",
        "StopDescr": "2η ΠΑΛΑΜΑ",
        "StopOrder": "35",
        "StopType": "0"
      }
    },
    {
      "type": "Feature",
      "geometry": {
        "type": "Point",
        "coordinates": [
          23.631052,
          37.985195
        ]
      },
      "properties": {
        "type": "stop",
        "StopCode": "370186",
        "StopID": "370186",
        "StopDescr": "ΠΛ. ΑΘΗΝΑΣ ΜΑΥΡΟΥ",
        "StopOrder": "36",
        "StopType": "0"
      }
    },
    {
      "type": "Feature",
      "geometry": {
        "type": "Point",
        "coordinates": [
          23.6295253,
          37.9860676
        ]
      },
      "properties": {
        "type": "stop",
        "StopCode": "370173",
        "StopID": "370173",
        "StopDescr": "ΜΟΥΧΤΟΥΡΗ",
        "StopOrder": "37",
        "StopType": "0"
      }
    },
    {
      "type": "Feature",
      "geometry": {
        "type": "Point",
        "coordinates": [
          23.6281608,
          37.9869392
        ]
      },
      "properties": {
        "type": "stop",
        "StopCode": "370113",
        "StopID": "370113",
        "StopDescr": "ΠΑΛ. ΤΕΡΜΑ",
        "StopOrder": "38",
        "StopType": "0"
      }
    },
    {
      "type": "Feature",
      "geometry": {
        "type": "Point",
        "coordinates": [
          23.626504,
          37.986699
        ]
      },
      "properties": {
        "type": "stop",
        "StopCode": "10227",
        "StopID": "61",
        "StopDescr": "ΝΕΑΠΟΛΗ",
        "StopOrder": "39",
        "StopType": "0"
      }
    }
  ]
}