{
  "type": "FeatureCollection",
  "features": [
    {
      "type": "Feature",
      "properties": {
        "type": "route_path",
        "route_code": "5483",
        "descr": "ΓΛΥΦΑΔΑ - ΠΟΛΥΓΩΝΟ [Εναλλακτική λόγω λαϊκής κάθε Πέμπτη 06:00-18:00]"
      },
      "geometry": {
        "type": "LineString",
        "coordinates": [
          [
            23.74735,
            37.86358
          ],
          [
            23.74701,
            37.86349
          ],
          [
            23.74683,
            37.86345
          ],
          [
            23.74662,
            37.86361
          ],
          [
            23.74642,
            37.8638
          ],
          [
            23.74569,
            37.86433
          ],
          [
            23.73243,
            37.87597
          ],
          [
            23.73188,
            37.87656
          ],
          [
            23.73153,
            37.87723
          ],
          [
            23.7304,
            37.88019
          ],
          [
            23.72211,
            37.89304
          ],
          [
            23.72175,
            37.8938
          ],
          [
            23.71995,
            37.8999
          ],
          [
            23.7199,
            37.90043
          ],
          [
            23.71991,
            37.90245
          ],
          [
            23.71981,
            37.90322
          ],
          [
            23.71972,
            37.90353
          ],
          [
            23.71931,
            37.90417
          ],
          [
            23.71828,
            37.90544
          ],
          [
            23.71808,
            37.90583
          ],
          [
            23.71825,
            37.90613
          ],
          [
            23.71922,
            37.90635
          ],
          [
            23.72875,
            37.9076
          ],
          [
            23.73287,
            37.90724
          ],
          [
            23.7339,
            37.90727
          ],
          [
            23.73522,
            37.90759
          ],
          [
            23.73576,
            37.90714
          ],
          [
            23.7458,
            37.906
          ],
          [
            23.74961,
            37.90597
          ],
          [
            23.74996,
            37.90586
          ],
          [
            23.75016,
            37.90564
          ],
          [
            23.75035,
            37.90561
          ],
          [
            23.75079,
            37.90585
          ],
          [
            23.75078,
            37.9061
          ],
          [
            23.75064,
            37.90625
          ],
          [
            23.75012,
            37.90634
          ],
          [
            23.74689,
            37.90963
          ],
          [
            23.74674,
            37.90985
          ],
          [
            23.74681,
            37.90996
          ],
          [
            23.74929,
            37.91146
          ],
          [
            23.74956,
            37.91167
          ],
          [
            23.7501,
            37.91455
          ],
          [
            23.75033,
            37.91479
          ],
          [
            23.75033,
            37.91489
          ],
          [
            23.75017,
            37.91528
          ],
          [
            23.75082,
            37.9205
          ],
          [
            23.75141,
            37.92959
          ],
          [
            23.75149,
            37.93
          ],
          [
            23.75167,
            37.93026
          ],
          [
            23.75156,
            37.9304
          ],
          [
            23.75148,
            37.93053
          ],
          [
            23.75191,
            37.93689
          ],
          [
            23.75228,
            37.93711
          ],
          [
            23.75231,
            37.93738
          ],
          [
            23.75222,
            37.93761
          ],
          [
            23.75207,
            37.9377
          ],
          [
            23.75161,
            37.93801
          ],
          [
            23.75146,
            37.93827
          ],
          [
            23.75133,
            37.93845
          ],
          [
            23.75129,
            37.93859
          ],
          [
            23.75064,
            37.93971
          ],
          [
            23.75065,
            37.93988
          ],
          [
            23.75061,
            37.93996
          ],
          [
            23.75047,
            37.94006
          ],
          [
            23.75031,
            37.94019
          ],
          [
            23.75023,
            37.94039
          ],
          [
            23.74735,
            37.94613
          ],
          [
            23.74625,
            37.94729
          ],
          [
            23.74488,
            37.94917
          ],
          [
            23.74518,
            37.94949
          ],
          [
            23.74649,
            37.95123
          ],
          [
            23.74703,
            37.9518
          ],
          [
            23.74757,
            37.95209
          ],
          [
            23.74763,
            37.95226
          ],
          [
            23.74757,
            37.95247
          ],
          [
            23.74946,
            37.95359
          ],
          [
            23.74993,
            37.95412
          ],
          [
            23.75018,
            37.95436
          ],
          [
            23.75232,
            37.95413
          ],
          [
            23.75251,
            37.95413
          ],
          [
            23.75265,
            37.95419
          ],
          [
            23.75278,
            37.95516
          ],
          [
            23.75305,
            37.95661
          ],
          [
            23.75307,
            37.95679
          ],
          [
            23.754,
            37.95977
          ],
          [
            23.7542,
            37.95985
          ],
          [
            23.75417,
            37.96001
          ],
          [
            23.75379,
            37.9603
          ],
          [
            23.75294,
            37.96138
          ],
          [
            23.75273,
            37.96156
          ],
          [
            23.75126,
            37.96347
          ],
          [
            23.75112,
            37.96388
          ],
          [
            23.75118,
            37.9643
          ],
          [
            23.75115,
            37.96461
          ],
          [
            23.75055,
            37.96526
          ],
          [
            23.75039,
            37.96545
          ],
          [
            23.75059,
            37.96561
          ],
          [
            23.75139,
            37.96607
          ],
          [
            23.75252,
            37.96672
          ],
          [
            23.75325,
            37.96716
          ],
          [
            23.75424,
            37.96768
          ],
          [
            23.75473,
            37.96802
          ],
          [
            23.75492,
            37.96878
          ],
          [
            23.75499,
            37.96911
          ],
          [
            23.7545,
            37.9692
          ],
          [
            23.75331,
            37.96939
          ],
          [
            23.75454,
            37.97007
          ],
          [
            23.75837,
            37.97205
          ],
          [
            23.75902,
            37.97262
          ],
          [
            23.76072,
            37.97525
          ],
          [
            23.76321,
            37.97932
          ],
          [
            23.7638,
            37.97987
          ],
          [
            23.76486,
            37.98008
          ],
          [
            23.76571,
            37.98035
          ],
          [
            23.7665,
            37.98069
          ],
          [
            23.76696,
            37.98083
          ],
          [
            23.7677,
            37.98087
          ],
          [
            23.76811,
            37.9809
          ],
          [
            23.76861,
            37.98116
          ],
          [
            23.76896,
            37.98127
          ],
          [
            23.76952,
            37.98109
          ],
          [
            23.7708,
            37.98098
          ],
          [
            23.7711,
            37.98087
          ],
          [
            23.7716,
            37.98055
          ],
          [
            23.77251,
            37.98054
          ],
          [
            23.77346,
            37.98043
          ],
          [
            23.77534,
            37.98002
          ],
          [
            23.7763,
            37.97996
          ],
          [
            23.77727,
            37.98033
          ],
          [
            23.78241,
            37.98366
          ],
          [
            23.78289,
            37.98404
          ],
          [
            23.78244,
            37.98479
          ],
          [
            23.77756,
            37.9906
          ],
          [
            23.77724,
            37.99112
          ],
          [
            23.77699,
            37.99187
          ],
          [
            23.77686,
            37.99218
          ],
          [
            23.77616,
            37.99298
          ],
          [
            23.77669,
            37.99344
          ],
          [
            23.77722,
            37.9938
          ],
          [
            23.77844,
            37.99487
          ],
          [
            23.78112,
            37.99655
          ],
          [
            23.78194,
            37.99718
          ],
          [
            23.78203,
            37.9973
          ],
          [
            23.78198,
            37.99738
          ],
          [
            23.77925,
            37.99902
          ],
          [
            23.77909,
            37.99922
          ],
          [
            23.78082,
            38.00142
          ],
          [
            23.78066,
            38.00151
          ],
          [
            23.7778,
            38.00118
          ],
          [
            23.77744,
            38.00119
          ],
          [
            23.77709,
            38.0014
          ],
          [
            23.77685,
            38.00139
          ],
          [
            23.77667,
            38.00127
          ],
          [
            23.77649,
            38.00105
          ],
          [
            23.77603,
            38.00097
          ],
          [
            23.77384,
            38.00191
          ],
          [
            23.7733,
            38.00207
          ],
          [
            23.77315,
            38.00199
          ],
          [
            23.7716,
            38.0004
          ],
          [
            23.76938,
            37.99857
          ],
          [
            23.76916,
            37.99831
          ],
          [
            23.76897,
            37.99834
          ],
          [
            23.76566,
            38.0011
          ],
          [
            23.76552,
            38.00115
          ],
          [
            23.76073,
            38.00099
          ],
          [
            23.7599,
            38.00087
          ],
          [
            23.75977,
            38.0008
          ],
          [
            23.75921,
            38.00022
          ],
          [
            23.75886,
            37.99985
          ],
          [
            23.75857,
            37.99974
          ],
          [
            23.75764,
            37.99944
          ],
          [
            23.75724,
            37.99938
          ],
          [
            23.75678,
            37.99942
          ],
          [
            23.75593,
            37.99977
          ],
          [
            23.75574,
            37.99984
          ],
          [
            23.75553,
            37.99983
          ],
          [
            23.75442,
            37.99936
          ],
          [
            23.75412,
            37.99927
          ],
          [
            23.75364,
            37.99927
          ],
          [
            23.75274,
            37.99945
          ],
          [
            23.75114,
            38.00021
          ],
          [
            23.75046,
            38.00031
          ],
          [
            23.75027,
            38.00021
          ],
          [
            23.75019,
            38.00003
          ],
          [
            23.7507,
            37.99858
          ],
          [
            23.75077,
            37.9983
          ],
          [
            23.74924,
            37.99584
          ],
          [
            23.74914,
            37.99571
          ],
          [
            23.74666,
            37.99664
          ],
          [
            23.74615,
            37.9967
          ],
          [
            23.74569,
            37.99668
          ],
          [
            23.74511,
            37.99659
          ],
          [
            23.74421,
            37.99638
          ],
          [
            23.74355,
            37.9967
          ],
          [
            23.74282,
            37.99653
          ],
          [
            23.74291,
            37.99625
          ],
          [
            23.7435,
            37.99622
          ],
          [
            23.74415,
            37.99622
          ],
          [
            23.74456,
            37.99633
          ],
          [
            23.74525,
            37.99653
          ],
          [
            23.74558,
            37.99658
          ],
          [
            23.74623,
            37.99661
          ],
          [
            23.74678,
            37.99647
          ],
          [
            23.74707,
            37.99636
          ],
          [
            23.74729,
            37.99627
          ]
        ]
      }
    },
    {
      "type": "Feature",
      "properties": {
        "type": "stop",
        "stop_code": "10299",
        "stop_id": "000098",
        "name": "ΓΛΥΦΑΔΑ",
        "order": "1"
      },
      "geometry": {
        "type": "Point",
        "coordinates": [
          23.7465965,
          37.863186
        ]
      }
    },
    {
      "type": "Feature",
      "properties": {
        "type": "stop",
        "stop_code": "160291",
        "stop_id": "160291",
        "name": "ΠΛ. ΓΛΥΦΑΔΑΣ",
        "order": "2"
      },
      "geometry": {
        "type": "Point",
        "coordinates": [
          23.7464847,
          37.8637893
        ]
      }
    },
    {
      "type": "Feature",
      "properties": {
        "type": "stop",
        "stop_code": "160174",
        "stop_id": "160174",
        "name": "5η ΓΛΥΦΑΔΑΣ",
        "order": "3"
      },
      "geometry": {
        "type": "Point",
        "coordinates": [
          23.7435995,
          37.8663518
        ]
      }
    },
    {
      "type": "Feature",
      "properties": {
        "type": "stop",
        "stop_code": "160175",
        "stop_id": "160175",
        "name": "4η ΓΛΥΦΑΔΑΣ",
        "order": "4"
      },
      "geometry": {
        "type": "Point",
        "coordinates": [
          23.7403611,
          37.8690937
        ]
      }
    },
    {
      "type": "Feature",
      "properties": {
        "type": "stop",
        "stop_code": "160176",
        "stop_id": "160176",
        "name": "3η ΓΛΥΦΑΔΑΣ",
        "order": "5"
      },
      "geometry": {
        "type": "Point",
        "coordinates": [
          23.7374417,
          37.8715748
        ]
      }
    },
    {
      "type": "Feature",
      "properties": {
        "type": "stop",
        "stop_code": "160177",
        "stop_id": "160177",
        "name": "2η ΓΛΥΦΑΔΑΣ",
        "order": "6"
      },
      "geometry": {
        "type": "Point",
        "coordinates": [
          23.7352861,
          37.8734177
        ]
      }
    },
    {
      "type": "Feature",
      "properties": {
        "type": "stop",
        "stop_code": "160178",
        "stop_id": "160178",
        "name": "ΔΙΚΗΓΟΡΙΚΑ",
        "order": "7"
      },
      "geometry": {
        "type": "Point",
        "coordinates": [
          23.7337578,
          37.8747391
        ]
      }
    },
    {
      "type": "Feature",
      "properties": {
        "type": "stop",
        "stop_code": "590013",
        "stop_id": "590013",
        "name": "ΚΟΛΛΕΓΙΟ",
        "order": "8"
      },
      "geometry": {
        "type": "Point",
        "coordinates": [
          23.7314503,
          37.8776631
        ]
      }
    },
    {
      "type": "Feature",
      "properties": {
        "type": "stop",
        "stop_code": "590014",
        "stop_id": "590014",
        "name": "4η ΕΛΛΗΝΙΚΟΥ",
        "order": "9"
      },
      "geometry": {
        "type": "Point",
        "coordinates": [
          23.7299763,
          37.8810577
        ]
      }
    },
    {
      "type": "Feature",
      "properties": {
        "type": "stop",
        "stop_code": "590015",
        "stop_id": "590015",
        "name": "3η ΕΛΛΗΝΙΚΟΥ",
        "order": "10"
      },
      "geometry": {
        "type": "Point",
        "coordinates": [
          23.7286694,
          37.8830403
        ]
      }
    },
    {
      "type": "Feature",
      "properties": {
        "type": "stop",
        "stop_code": "590016",
        "stop_id": "590016",
        "name": "2η ΕΛΛΗΝΙΚΟΥ",
        "order": "11"
      },
      "geometry": {
        "type": "Point",
        "coordinates": [
          23.7270789,
          37.8855252
        ]
      }
    },
    {
      "type": "Feature",
      "properties": {
        "type": "stop",
        "stop_code": "590017",
        "stop_id": "590017",
        "name": "1η ΕΛΛΗΝΙΚΟΥ",
        "order": "12"
      },
      "geometry": {
        "type": "Point",
        "coordinates": [
          23.725649,
          37.887714
        ]
      }
    },
    {
      "type": "Feature",
      "properties": {
        "type": "stop",
        "stop_code": "590018",
        "stop_id": "590018",
        "name": "2η ΑΓ. ΚΟΣΜΑΣ",
        "order": "13"
      },
      "geometry": {
        "type": "Point",
        "coordinates": [
          23.7235808,
          37.8909355
        ]
      }
    },
    {
      "type": "Feature",
      "properties": {
        "type": "stop",
        "stop_code": "590019",
        "stop_id": "590019",
        "name": "ΑΘΛΗΤΙΚΟ ΚΕΝΤΡΟ",
        "order": "14"
      },
      "geometry": {
        "type": "Point",
        "coordinates": [
          23.7210798,
          37.8964384
        ]
      }
    },
    {
      "type": "Feature",
      "properties": {
        "type": "stop",
        "stop_code": "590020",
        "stop_id": "590020",
        "name": "1η ΑΓ. ΚΟΣΜΑ",
        "order": "15"
      },
      "geometry": {
        "type": "Point",
        "coordinates": [
          23.7205179,
          37.89827
        ]
      }
    },
    {
      "type": "Feature",
      "properties": {
        "type": "stop",
        "stop_code": "80008",
        "stop_id": "080008",
        "name": "ΑΛΙΜΟΣ",
        "order": "16"
      },
      "geometry": {
        "type": "Point",
        "coordinates": [
          23.7199723,
          37.9029359
        ]
      }
    },
    {
      "type": "Feature",
      "properties": {
        "type": "stop",
        "stop_code": "80009",
        "stop_id": "080009",
        "name": "5η ΚΑΛΑΜΑΚΙΟΥ",
        "order": "17"
      },
      "geometry": {
        "type": "Point",
        "coordinates": [
          23.718743,
          37.9050443
        ]
      }
    },
    {
      "type": "Feature",
      "properties": {
        "type": "stop",
        "stop_code": "80058",
        "stop_id": "080058",
        "name": "1η ΑΛΙΜΟΥ",
        "order": "18"
      },
      "geometry": {
        "type": "Point",
        "coordinates": [
          23.7218802,
          37.9066791
        ]
      }
    },
    {
      "type": "Feature",
      "properties": {
        "type": "stop",
        "stop_code": "80059",
        "stop_id": "080059",
        "name": "2η ΑΛΙΜΟΥ",
        "order": "19"
      },
      "geometry": {
        "type": "Point",
        "coordinates": [
          23.7243251,
          37.907011
        ]
      }
    },
    {
      "type": "Feature",
      "properties": {
        "type": "stop",
        "stop_code": "80060",
        "stop_id": "080060",
        "name": "3η ΑΛΙΜΟΥ",
        "order": "20"
      },
      "geometry": {
        "type": "Point",
        "coordinates": [
          23.7273949,
          37.9074327
        ]
      }
    },
    {
      "type": "Feature",
      "properties": {
        "type": "stop",
        "stop_code": "80061",
        "stop_id": "080061",
        "name": "4η ΑΛΙΜΟΥ",
        "order": "21"
      },
      "geometry": {
        "type": "Point",
        "coordinates": [
          23.733527,
          37.9072124
        ]
      }
    },
    {
      "type": "Feature",
      "properties": {
        "type": "stop",
        "stop_code": "80116",
        "stop_id": "080116",
        "name": "ΚΟΝΤΙΝΕΝΤ",
        "order": "22"
      },
      "geometry": {
        "type": "Point",
        "coordinates": [
          23.7366642,
          37.9069366
        ]
      }
    },
    {
      "type": "Feature",
      "properties": {
        "type": "stop",
        "stop_code": "110046",
        "stop_id": "110046",
        "name": "ΛΑΜΙΑΣ",
        "order": "23"
      },
      "geometry": {
        "type": "Point",
        "coordinates": [
          23.7405709,
          37.9065252
        ]
      }
    },
    {
      "type": "Feature",
      "properties": {
        "type": "stop",
        "stop_code": "590072",
        "stop_id": "590072",
        "name": "ΤΙΤΑΝΩΝ",
        "order": "24"
      },
      "geometry": {
        "type": "Point",
        "coordinates": [
          23.7424373,
          37.9062679
        ]
      }
    },
    {
      "type": "Feature",
      "properties": {
        "type": "stop",
        "stop_code": "110089",
        "stop_id": "110089",
        "name": "ΘΟΥΚΥΔΙΔΟΥ",
        "order": "25"
      },
      "geometry": {
        "type": "Point",
        "coordinates": [
          23.747785,
          37.9059009
        ]
      }
    },
    {
      "type": "Feature",
      "properties": {
        "type": "stop",
        "stop_code": "110028",
        "stop_id": "110028",
        "name": "ΠΛ. ΗΡΩΩΝ ΠΟΛΥΤΕΧΝΕΙΟΥ",
        "order": "26"
      },
      "geometry": {
        "type": "Point",
        "coordinates": [
          23.7501132,
          37.9056164
        ]
      }
    },
    {
      "type": "Feature",
      "properties": {
        "type": "stop",
        "stop_code": "110036",
        "stop_id": "110036",
        "name": "4η ΑΡΓΥΡΟΥΠΟΛΕΩΣ",
        "order": "27"
      },
      "geometry": {
        "type": "Point",
        "coordinates": [
          23.7484025,
          37.9082817
        ]
      }
    },
    {
      "type": "Feature",
      "properties": {
        "type": "stop",
        "stop_code": "110037",
        "stop_id": "110037",
        "name": "3η ΑΡΓΥΡΟΥΠΟΛΕΩΣ",
        "order": "28"
      },
      "geometry": {
        "type": "Point",
        "coordinates": [
          23.7470782,
          37.9096578
        ]
      }
    },
    {
      "type": "Feature",
      "properties": {
        "type": "stop",
        "stop_code": "110090",
        "stop_id": "110090",
        "name": "ΣΑΡΑΦΗ",
        "order": "29"
      },
      "geometry": {
        "type": "Point",
        "coordinates": [
          23.7490183,
          37.9111761
        ]
      }
    },
    {
      "type": "Feature",
      "properties": {
        "type": "stop",
        "stop_code": "110093",
        "stop_id": "110093",
        "name": "ΓΡΑΜΜΟΥ",
        "order": "30"
      },
      "geometry": {
        "type": "Point",
        "coordinates": [
          23.749979,
          37.9130349
        ]
      }
    },
    {
      "type": "Feature",
      "properties": {
        "type": "stop",
        "stop_code": "110054",
        "stop_id": "110054",
        "name": "ΑΦΕΤΗΡΙΑ ΠΛ.ΑΝΕΞΑΡΤΗΣΙΑΣ",
        "order": "31"
      },
      "geometry": {
        "type": "Point",
        "coordinates": [
          23.7505304,
          37.9148386
        ]
      }
    },
    {
      "type": "Feature",
      "properties": {
        "type": "stop",
        "stop_code": "110055",
        "stop_id": "110055",
        "name": "ΦΑΡΜΑΚΕΙΟ",
        "order": "32"
      },
      "geometry": {
        "type": "Point",
        "coordinates": [
          23.7506458,
          37.917732
        ]
      }
    },
    {
      "type": "Feature",
      "properties": {
        "type": "stop",
        "stop_code": "210069",
        "stop_id": "210069",
        "name": "ΑΙΝΤΑ",
        "order": "33"
      },
      "geometry": {
        "type": "Point",
        "coordinates": [
          23.7508894,
          37.9197154
        ]
      }
    },
    {
      "type": "Feature",
      "properties": {
        "type": "stop",
        "stop_code": "210070",
        "stop_id": "210070",
        "name": "ΑΓ. ΠΑΡΑΣΚΕΥΗ",
        "order": "34"
      },
      "geometry": {
        "type": "Point",
        "coordinates": [
          23.7512376,
          37.9244029
        ]
      }
    },
    {
      "type": "Feature",
      "properties": {
        "type": "stop",
        "stop_code": "210071",
        "stop_id": "210071",
        "name": "Ο.Τ.Ε",
        "order": "35"
      },
      "geometry": {
        "type": "Point",
        "coordinates": [
          23.7512645,
          37.9268893
        ]
      }
    },
    {
      "type": "Feature",
      "properties": {
        "type": "stop",
        "stop_code": "210128",
        "stop_id": "210128",
        "name": "ΠΛ. 25ης ΜΑΡΤΙΟΥ",
        "order": "36"
      },
      "geometry": {
        "type": "Point",
        "coordinates": [
          23.7516494,
          37.9305325
        ]
      }
    },
    {
      "type": "Feature",
      "properties": {
        "type": "stop",
        "stop_code": "210119",
        "stop_id": "210119",
        "name": "ΑΓ. ΝΙΚΟΛΑΟΣ",
        "order": "37"
      },
      "geometry": {
        "type": "Point",
        "coordinates": [
          23.7518965,
          37.9348773
        ]
      }
    },
    {
      "type": "Feature",
      "properties": {
        "type": "stop",
        "stop_code": "210101",
        "stop_id": "210101",
        "name": "ΠΛ. ΠΑΛ. ΠΑΤΡΩΝ ΓΕΡΜΑΝΟΥ",
        "order": "38"
      },
      "geometry": {
        "type": "Point",
        "coordinates": [
          23.7523887,
          37.937411
        ]
      }
    },
    {
      "type": "Feature",
      "properties": {
        "type": "stop",
        "stop_code": "210057",
        "stop_id": "210057",
        "name": "ΠΛ. ΚΑΝΑΡΙΑ",
        "order": "39"
      },
      "geometry": {
        "type": "Point",
        "coordinates": [
          23.7501706,
          37.9404707
        ]
      }
    },
    {
      "type": "Feature",
      "properties": {
        "type": "stop",
        "stop_code": "210058",
        "stop_id": "210058",
        "name": "ΑΓ. ΚΩΝ/ΝΟΣ",
        "order": "40"
      },
      "geometry": {
        "type": "Point",
        "coordinates": [
          23.748715,
          37.9434869
        ]
      }
    },
    {
      "type": "Feature",
      "properties": {
        "type": "stop",
        "stop_code": "210059",
        "stop_id": "210059",
        "name": "ΛΥΚΟΥΡΓΟΥ",
        "order": "41"
      },
      "geometry": {
        "type": "Point",
        "coordinates": [
          23.7478322,
          37.9453958
        ]
      }
    },
    {
      "type": "Feature",
      "properties": {
        "type": "stop",
        "stop_code": "460017",
        "stop_id": "460017",
        "name": "ΜΑΡΚΕΑ",
        "order": "42"
      },
      "geometry": {
        "type": "Point",
        "coordinates": [
          23.746746,
          37.9468265
        ]
      }
    },
    {
      "type": "Feature",
      "properties": {
        "type": "stop",
        "stop_code": "460008",
        "stop_id": "460008",
        "name": "ΠΛ. ΗΡΩΩΝ",
        "order": "43"
      },
      "geometry": {
        "type": "Point",
        "coordinates": [
          23.7451433,
          37.9494349
        ]
      }
    },
    {
      "type": "Feature",
      "properties": {
        "type": "stop",
        "stop_code": "460009",
        "stop_id": "460009",
        "name": "ΚΟΛΩΝΕΣ",
        "order": "44"
      },
      "geometry": {
        "type": "Point",
        "coordinates": [
          23.7462063,
          37.9508184
        ]
      }
    },
    {
      "type": "Feature",
      "properties": {
        "type": "stop",
        "stop_code": "460038",
        "stop_id": "460038",
        "name": "ΠΛΑΤΕΙΑ",
        "order": "45"
      },
      "geometry": {
        "type": "Point",
        "coordinates": [
          23.7475269,
          37.9519918
        ]
      }
    },
    {
      "type": "Feature",
      "properties": {
        "type": "stop",
        "stop_code": "460036",
        "stop_id": "460036",
        "name": "ΔΙΑΚΟΥ",
        "order": "46"
      },
      "geometry": {
        "type": "Point",
        "coordinates": [
          23.7488758,
          37.953104
        ]
      }
    },
    {
      "type": "Feature",
      "properties": {
        "type": "stop",
        "stop_code": "140087",
        "stop_id": "140087",
        "name": "ΑΓ. ΣΟΦΙΑ",
        "order": "47"
      },
      "geometry": {
        "type": "Point",
        "coordinates": [
          23.7522555,
          37.9541234
        ]
      }
    },
    {
      "type": "Feature",
      "properties": {
        "type": "stop",
        "stop_code": "140037",
        "stop_id": "140037",
        "name": "ΤΣΙΡΑΚΟΠΟΥΛΟΥ",
        "order": "48"
      },
      "geometry": {
        "type": "Point",
        "coordinates": [
          23.7528561,
          37.9550606
        ]
      }
    },
    {
      "type": "Feature",
      "properties": {
        "type": "stop",
        "stop_code": "140038",
        "stop_id": "140038",
        "name": "ΜΕΤΑΜΟΡΦΩΣΗ",
        "order": "49"
      },
      "geometry": {
        "type": "Point",
        "coordinates": [
          23.753154,
          37.9567348
        ]
      }
    },
    {
      "type": "Feature",
      "properties": {
        "type": "stop",
        "stop_code": "140039",
        "stop_id": "140039",
        "name": "ΑΓΟΡΑ",
        "order": "50"
      },
      "geometry": {
        "type": "Point",
        "coordinates": [
          23.7536498,
          37.958445
        ]
      }
    },
    {
      "type": "Feature",
      "properties": {
        "type": "stop",
        "stop_code": "140024",
        "stop_id": "140024",
        "name": "ΚΑΜΠΟΥΡΗ",
        "order": "51"
      },
      "geometry": {
        "type": "Point",
        "coordinates": [
          23.7537201,
          37.9603488
        ]
      }
    },
    {
      "type": "Feature",
      "properties": {
        "type": "stop",
        "stop_code": "140025",
        "stop_id": "140025",
        "name": "ΔΗΜΑΡΧΕΙΟ",
        "order": "52"
      },
      "geometry": {
        "type": "Point",
        "coordinates": [
          23.7528375,
          37.9615409
        ]
      }
    },
    {
      "type": "Feature",
      "properties": {
        "type": "stop",
        "stop_code": "60732",
        "stop_id": "060732",
        "name": "ΓΕΦΥΡΑ",
        "order": "53"
      },
      "geometry": {
        "type": "Point",
        "coordinates": [
          23.7512032,
          37.9646044
        ]
      }
    },
    {
      "type": "Feature",
      "properties": {
        "type": "stop",
        "stop_code": "61135",
        "stop_id": "061135",
        "name": "ΛΕΥΚΙΠΠΟΥ",
        "order": "54"
      },
      "geometry": {
        "type": "Point",
        "coordinates": [
          23.7516175,
          37.9661427
        ]
      }
    },
    {
      "type": "Feature",
      "properties": {
        "type": "stop",
        "stop_code": "61328",
        "stop_id": "061328",
        "name": "ΠΑΓΚΡΑΤΙ",
        "order": "55"
      },
      "geometry": {
        "type": "Point",
        "coordinates": [
          23.7532286,
          37.9670765
        ]
      }
    },
    {
      "type": "Feature",
      "properties": {
        "type": "stop",
        "stop_code": "12180",
        "stop_id": "230039",
        "name": "ΑΓΙΟΣ ΝΙΚΟΛΑΟΣ",
        "order": "56"
      },
      "geometry": {
        "type": "Point",
        "coordinates": [
          23.7544241,
          37.969275
        ]
      }
    },
    {
      "type": "Feature",
      "properties": {
        "type": "stop",
        "stop_code": "200053",
        "stop_id": "200053",
        "name": "ΦΟΙΤΗΤ. ΕΣΤΙΑ",
        "order": "57"
      },
      "geometry": {
        "type": "Point",
        "coordinates": [
          23.7596433,
          37.9734432
        ]
      }
    },
    {
      "type": "Feature",
      "properties": {
        "type": "stop",
        "stop_code": "200073",
        "stop_id": "200073",
        "name": "ΥΠΕΡΑΓΟΡΑ",
        "order": "58"
      },
      "geometry": {
        "type": "Point",
        "coordinates": [
          23.7616967,
          37.9764561
        ]
      }
    },
    {
      "type": "Feature",
      "properties": {
        "type": "stop",
        "stop_code": "200074",
        "stop_id": "200074",
        "name": "ΜΕΚΑ",
        "order": "59"
      },
      "geometry": {
        "type": "Point",
        "coordinates": [
          23.7633163,
          37.9791542
        ]
      }
    },
    {
      "type": "Feature",
      "properties": {
        "type": "stop",
        "stop_code": "200086",
        "stop_id": "200086",
        "name": "ΛΑΙΚΟ ΝΟΣΟΚΟΜΕΙΟ",
        "order": "60"
      },
      "geometry": {
        "type": "Point",
        "coordinates": [
          23.766796,
          37.9805942
        ]
      }
    },
    {
      "type": "Feature",
      "properties": {
        "type": "stop",
        "stop_code": "200082",
        "stop_id": "200082",
        "name": "ΓΟΥΔΗ",
        "order": "61"
      },
      "geometry": {
        "type": "Point",
        "coordinates": [
          23.7709023,
          37.9808696
        ]
      }
    },
    {
      "type": "Feature",
      "properties": {
        "type": "stop",
        "stop_code": "200085",
        "stop_id": "200085",
        "name": "ΓΕΦΥΡΑ",
        "order": "62"
      },
      "geometry": {
        "type": "Point",
        "coordinates": [
          23.7734468,
          37.9803097
        ]
      }
    },
    {
      "type": "Feature",
      "properties": {
        "type": "stop",
        "stop_code": "200055",
        "stop_id": "200055",
        "name": "ΦΟΙΤ. ΕΣΤ. ΠΟΛΥΤEXNEIOY",
        "order": "63"
      },
      "geometry": {
        "type": "Point",
        "coordinates": [
          23.7781938,
          37.9807334
        ]
      }
    },
    {
      "type": "Feature",
      "properties": {
        "type": "stop",
        "stop_code": "200083",
        "stop_id": "200083",
        "name": "ΠΟΛΥΤΕΧΝΕΙΟΥΠΟΛΗ",
        "order": "64"
      },
      "geometry": {
        "type": "Point",
        "coordinates": [
          23.78106,
          37.982733
        ]
      }
    },
    {
      "type": "Feature",
      "properties": {
        "type": "stop",
        "stop_code": "61320",
        "stop_id": "061320",
        "name": "ΕΘΝΙΚΗ ΓΛΥΠΤΟΘΗΚΗ",
        "order": "65"
      },
      "geometry": {
        "type": "Point",
        "coordinates": [
          23.780918,
          37.986767
        ]
      }
    },
    {
      "type": "Feature",
      "properties": {
        "type": "stop",
        "stop_code": "61314",
        "stop_id": "061314",
        "name": "ΝΟΣΟΚΟΜΕΙΟ ΑΕΡΟΠΟΡΙΑΣ",
        "order": "66"
      },
      "geometry": {
        "type": "Point",
        "coordinates": [
          23.7787783,
          37.9892753
        ]
      }
    },
    {
      "type": "Feature",
      "properties": {
        "type": "stop",
        "stop_code": "61309",
        "stop_id": "061309",
        "name": "ΣΤΡΑΤΙΩΤΙΚΟ ΝΟΣΟΚΟΜΕΙΟ",
        "order": "67"
      },
      "geometry": {
        "type": "Point",
        "coordinates": [
          23.776919,
          37.992233
        ]
      }
    },
    {
      "type": "Feature",
      "properties": {
        "type": "stop",
        "stop_code": "61363",
        "stop_id": "061363",
        "name": "ΣΤ. ΚΑΤΕΧΑΚΗ",
        "order": "68"
      },
      "geometry": {
        "type": "Point",
        "coordinates": [
          23.7771981,
          37.993701
        ]
      }
    },
    {
      "type": "Feature",
      "properties": {
        "type": "stop",
        "stop_code": "60688",
        "stop_id": "060688",
        "name": "ΝΟΣΟΚΟΜΕΙΟ ΘΩΡΑΚΟΣ",
        "order": "69"
      },
      "geometry": {
        "type": "Point",
        "coordinates": [
          23.7789368,
          37.9949661
        ]
      }
    },
    {
      "type": "Feature",
      "properties": {
        "type": "stop",
        "stop_code": "61315",
        "stop_id": "061315",
        "name": "ΓΕΝΙΚΟ ΚΡΑΤΙΚΟ",
        "order": "70"
      },
      "geometry": {
        "type": "Point",
        "coordinates": [
          23.7818446,
          37.9975943
        ]
      }
    },
    {
      "type": "Feature",
      "properties": {
        "type": "stop",
        "stop_code": "690019",
        "stop_id": "690019",
        "name": "ΟΙΚΟΛ. ΠΑΡΚΟ",
        "order": "71"
      },
      "geometry": {
        "type": "Point",
        "coordinates": [
          23.7802756,
          38.0004754
        ]
      }
    },
    {
      "type": "Feature",
      "properties": {
        "type": "stop",
        "stop_code": "690012",
        "stop_id": "690012",
        "name": "ΠΕΝΤΑΓΩΝΟ",
        "order": "72"
      },
      "geometry": {
        "type": "Point",
        "coordinates": [
          23.7799993,
          38.0014663
        ]
      }
    },
    {
      "type": "Feature",
      "properties": {
        "type": "stop",
        "stop_code": "690014",
        "stop_id": "690014",
        "name": "ΠΛ. ΑΓ. ΣΟΦΙΑΣ",
        "order": "73"
      },
      "geometry": {
        "type": "Point",
        "coordinates": [
          23.7773797,
          38.0014344
        ]
      }
    },
    {
      "type": "Feature",
      "properties": {
        "type": "stop",
        "stop_code": "690031",
        "stop_id": "690031",
        "name": "ΣΚΑΛΑΚΙΑ",
        "order": "74"
      },
      "geometry": {
        "type": "Point",
        "coordinates": [
          23.7741833,
          38.0018622
        ]
      }
    },
    {
      "type": "Feature",
      "properties": {
        "type": "stop",
        "stop_code": "770020",
        "stop_id": "770020",
        "name": "ΝΤΑΛΙΑ",
        "order": "75"
      },
      "geometry": {
        "type": "Point",
        "coordinates": [
          23.7727886,
          38.001732
        ]
      }
    },
    {
      "type": "Feature",
      "properties": {
        "type": "stop",
        "stop_code": "770021",
        "stop_id": "770021",
        "name": "ΚΑΤΕΧΑΚΗ",
        "order": "76"
      },
      "geometry": {
        "type": "Point",
        "coordinates": [
          23.7708129,
          37.9997634
        ]
      }
    },
    {
      "type": "Feature",
      "properties": {
        "type": "stop",
        "stop_code": "60306",
        "stop_id": "060306",
        "name": "ΒΑΡΒΑΚΕΙΟ",
        "order": "77"
      },
      "geometry": {
        "type": "Point",
        "coordinates": [
          23.7666305,
          38.0004942
        ]
      }
    },
    {
      "type": "Feature",
      "properties": {
        "type": "stop",
        "stop_code": "60652",
        "stop_id": "060652",
        "name": "7η ΨΥΧΙΚΟΥ",
        "order": "78"
      },
      "geometry": {
        "type": "Point",
        "coordinates": [
          23.7647261,
          38.0012024
        ]
      }
    },
    {
      "type": "Feature",
      "properties": {
        "type": "stop",
        "stop_code": "61323",
        "stop_id": "061323",
        "name": "ΜΗΤΡΟΠΕΤΡΟΒΑ",
        "order": "79"
      },
      "geometry": {
        "type": "Point",
        "coordinates": [
          23.7599549,
          38.0009416
        ]
      }
    },
    {
      "type": "Feature",
      "properties": {
        "type": "stop",
        "stop_code": "60636",
        "stop_id": "060636",
        "name": "4η ΕΛ. ΒΕΝΙΖΕΛΟΥ",
        "order": "80"
      },
      "geometry": {
        "type": "Point",
        "coordinates": [
          23.7551093,
          37.9996962
        ]
      }
    },
    {
      "type": "Feature",
      "properties": {
        "type": "stop",
        "stop_code": "60637",
        "stop_id": "060637",
        "name": "3η ΕΛ. ΒΕΝΙΖΕΛΟΥ",
        "order": "81"
      },
      "geometry": {
        "type": "Point",
        "coordinates": [
          23.7515568,
          38.0000666
        ]
      }
    },
    {
      "type": "Feature",
      "properties": {
        "type": "stop",
        "stop_code": "60638",
        "stop_id": "060638",
        "name": "2η ΕΛ. ΒΕΝΙΖΕΛΟΥ",
        "order": "82"
      },
      "geometry": {
        "type": "Point",
        "coordinates": [
          23.7503537,
          37.999446
        ]
      }
    },
    {
      "type": "Feature",
      "properties": {
        "type": "stop",
        "stop_code": "60639",
        "stop_id": "060639",
        "name": "1η ΕΛ. ΒΕΝΙΖΕΛΟΥ",
        "order": "83"
      },
      "geometry": {
        "type": "Point",
        "coordinates": [
          23.7502493,
          37.9976749
        ]
      }
    },
    {
      "type": "Feature",
      "properties": {
        "type": "stop",
        "stop_code": "60640",
        "stop_id": "060640",
        "name": "ΠΑΛΑΙΟ ΤΕΡΜΑ",
        "order": "84"
      },
      "geometry": {
        "type": "Point",
        "coordinates": [
          23.7491511,
          37.9959608
        ]
      }
    },
    {
      "type": "Feature",
      "properties": {
        "type": "stop",
        "stop_code": "60641",
        "stop_id": "060641",
        "name": "ΚΡΥΣΤΑΛ",
        "order": "85"
      },
      "geometry": {
        "type": "Point",
        "coordinates": [
          23.7476901,
          37.9968065
        ]
      }
    },
    {
      "type": "Feature",
      "properties": {
        "type": "stop",
        "stop_code": "61324",
        "stop_id": "061324",
        "name": "ΔΙΚΑΣΤΗΡΙΑ",
        "order": "86"
      },
      "geometry": {
        "type": "Point",
        "coordinates": [
          23.7446539,
          37.997226
        ]
      }
    },
    {
      "type": "Feature",
      "properties": {
        "type": "stop",
        "stop_code": "61606",
        "stop_id": "061606",
        "name": "ΠΑΡΚΟ ΕΥΕΛΠΙΔΩΝ",
        "order": "87"
      },
      "geometry": {
        "type": "Point",
        "coordinates": [
          23.7429748,
          37.9971686
        ]
      }
    },
    {
      "type": "Feature",
      "properties": {
        "type": "stop",
        "stop_code": "60626",
        "stop_id": "060626",
        "name": "ΜΠΑΛΑ",
        "order": "88"
      },
      "geometry": {
        "type": "Point",
        "coordinates": [
          23.744789,
          37.9957363
        ]
      }
    },
    {
      "type": "Feature",
      "properties": {
        "type": "stop",
        "stop_code": "10298",
        "stop_id": "000097",
        "name": "ΠΟΛΥΓΩΝΟ",
        "order": "89"
      },
      "geometry": {
        "type": "Point",
        "coordinates": [
          23.7451595,
          37.996371
        ]
      }
    }
  ]
}