{
  "type": "FeatureCollection",
  "features": [
    {
      "type": "Feature",
      "properties": {
        "type": "route_path",
        "route_code": "2138",
        "descr": "ΑΚΑΔΗΜΙΑ - ΑΓ. ΠΑΡΑΣΚΕΥΗ - ΑΝΘΟΥΣΑ"
      },
      "geometry": {
        "type": "LineString",
        "coordinates": [
          [
            23.73507,
            37.9805
          ],
          [
            23.73639,
            37.97909
          ],
          [
            23.73777,
            37.97723
          ],
          [
            23.73776,
            37.97654
          ],
          [
            23.73771,
            37.97627
          ],
          [
            23.73777,
            37.97594
          ],
          [
            23.74273,
            37.97527
          ],
          [
            23.74307,
            37.97526
          ],
          [
            23.74846,
            37.97647
          ],
          [
            23.74887,
            37.97643
          ],
          [
            23.74957,
            37.97628
          ],
          [
            23.75207,
            37.97807
          ],
          [
            23.7547,
            37.98047
          ],
          [
            23.75639,
            37.9822
          ],
          [
            23.75706,
            37.98269
          ],
          [
            23.7586,
            37.98349
          ],
          [
            23.75865,
            37.98359
          ],
          [
            23.75977,
            37.98453
          ],
          [
            23.76112,
            37.98515
          ],
          [
            23.76142,
            37.98515
          ],
          [
            23.76223,
            37.98558
          ],
          [
            23.76359,
            37.98604
          ],
          [
            23.76516,
            37.98578
          ],
          [
            23.76569,
            37.98645
          ],
          [
            23.76735,
            37.98782
          ],
          [
            23.76736,
            37.98807
          ],
          [
            23.76745,
            37.98829
          ],
          [
            23.769,
            37.98922
          ],
          [
            23.76981,
            37.98973
          ],
          [
            23.77003,
            37.98982
          ],
          [
            23.7713,
            37.99083
          ],
          [
            23.77181,
            37.99113
          ],
          [
            23.77352,
            37.99185
          ],
          [
            23.77449,
            37.99212
          ],
          [
            23.77585,
            37.99283
          ],
          [
            23.7772,
            37.99379
          ],
          [
            23.77795,
            37.99448
          ],
          [
            23.77867,
            37.99499
          ],
          [
            23.78132,
            37.9966
          ],
          [
            23.78258,
            37.99752
          ],
          [
            23.78503,
            37.99951
          ],
          [
            23.78738,
            38.00091
          ],
          [
            23.7914,
            38.0024
          ],
          [
            23.79214,
            38.00287
          ],
          [
            23.79588,
            38.0056
          ],
          [
            23.79611,
            38.00571
          ],
          [
            23.79894,
            38.00669
          ],
          [
            23.80087,
            38.00708
          ],
          [
            23.80491,
            38.00858
          ],
          [
            23.80978,
            38.01082
          ],
          [
            23.81471,
            38.01201
          ],
          [
            23.82007,
            38.0134
          ],
          [
            23.82626,
            38.01378
          ],
          [
            23.82988,
            38.01379
          ],
          [
            23.83049,
            38.01374
          ],
          [
            23.83305,
            38.01328
          ],
          [
            23.83598,
            38.01266
          ],
          [
            23.83734,
            38.01207
          ],
          [
            23.83933,
            38.01115
          ],
          [
            23.84019,
            38.0108
          ],
          [
            23.84372,
            38.01047
          ],
          [
            23.8492,
            38.00965
          ],
          [
            23.85433,
            38.00867
          ],
          [
            23.85613,
            38.00814
          ],
          [
            23.85626,
            38.00811
          ],
          [
            23.85789,
            38.00759
          ],
          [
            23.86127,
            38.0071
          ],
          [
            23.87148,
            38.00518
          ],
          [
            23.87168,
            38.00517
          ],
          [
            23.87194,
            38.00594
          ],
          [
            23.87218,
            38.00714
          ],
          [
            23.87197,
            38.00763
          ],
          [
            23.87116,
            38.00812
          ],
          [
            23.87084,
            38.00851
          ],
          [
            23.87081,
            38.00887
          ],
          [
            23.87117,
            38.01142
          ],
          [
            23.87112,
            38.0115
          ],
          [
            23.87083,
            38.01162
          ],
          [
            23.86935,
            38.01117
          ]
        ]
      }
    },
    {
      "type": "Feature",
      "properties": {
        "type": "stop",
        "stop_code": "10399",
        "stop_id": "000185",
        "name": "ΑΚΑΔΗΜΙΑ",
        "order": "1"
      },
      "geometry": {
        "type": "Point",
        "coordinates": [
          23.735393,
          37.9803855
        ]
      }
    },
    {
      "type": "Feature",
      "properties": {
        "type": "stop",
        "stop_code": "60588",
        "stop_id": "060588",
        "name": "ΚΗΠΟΣ",
        "order": "2"
      },
      "geometry": {
        "type": "Point",
        "coordinates": [
          23.7412168,
          37.9753943
        ]
      }
    },
    {
      "type": "Feature",
      "properties": {
        "type": "stop",
        "stop_code": "60589",
        "stop_id": "060589",
        "name": "ΒΥΖΑΝΤΙΝΟ ΜΟΥΣΕΙΟ - ΡΗΓΙΛΛΗΣ",
        "order": "3"
      },
      "geometry": {
        "type": "Point",
        "coordinates": [
          23.7443894,
          37.975537
        ]
      }
    },
    {
      "type": "Feature",
      "properties": {
        "type": "stop",
        "stop_code": "60987",
        "stop_id": "060987",
        "name": "ΣΤ. ΕΥΑΓΓΕΛΙΣΜΟΣ",
        "order": "4"
      },
      "geometry": {
        "type": "Point",
        "coordinates": [
          23.7466872,
          37.9760351
        ]
      }
    },
    {
      "type": "Feature",
      "properties": {
        "type": "stop",
        "stop_code": "60591",
        "stop_id": "060591",
        "name": "ΙΛΙΣΙΑ",
        "order": "5"
      },
      "geometry": {
        "type": "Point",
        "coordinates": [
          23.752729,
          37.9784925
        ]
      }
    },
    {
      "type": "Feature",
      "properties": {
        "type": "stop",
        "stop_code": "61024",
        "stop_id": "061024",
        "name": "ΝΟΣΟΚ. ΑΛΕΞΑΝΔΡΑ",
        "order": "6"
      },
      "geometry": {
        "type": "Point",
        "coordinates": [
          23.7548604,
          37.9805472
        ]
      }
    },
    {
      "type": "Feature",
      "properties": {
        "type": "stop",
        "stop_code": "60593",
        "stop_id": "060593",
        "name": "ΙΠΠΟΚΡΑΤΕΙΟ",
        "order": "7"
      },
      "geometry": {
        "type": "Point",
        "coordinates": [
          23.7587588,
          37.9835162
        ]
      }
    },
    {
      "type": "Feature",
      "properties": {
        "type": "stop",
        "stop_code": "60677",
        "stop_id": "060677",
        "name": "ΓΑΛΑΞΙΑΣ",
        "order": "8"
      },
      "geometry": {
        "type": "Point",
        "coordinates": [
          23.7613385,
          37.9851167
        ]
      }
    },
    {
      "type": "Feature",
      "properties": {
        "type": "stop",
        "stop_code": "60771",
        "stop_id": "060771",
        "name": "ΖΑΓΟΡΑ",
        "order": "9"
      },
      "geometry": {
        "type": "Point",
        "coordinates": [
          23.7673909,
          37.987745
        ]
      }
    },
    {
      "type": "Feature",
      "properties": {
        "type": "stop",
        "stop_code": "60679",
        "stop_id": "060679",
        "name": "ΞΥΠΟΛΗΤΟΥ",
        "order": "10"
      },
      "geometry": {
        "type": "Point",
        "coordinates": [
          23.7690876,
          37.9891167
        ]
      }
    },
    {
      "type": "Feature",
      "properties": {
        "type": "stop",
        "stop_code": "60680",
        "stop_id": "060680",
        "name": "ΣΧΟΛΗ ΑΣΤΥΝΟΜΙΑΣ",
        "order": "11"
      },
      "geometry": {
        "type": "Point",
        "coordinates": [
          23.7715189,
          37.9908482
        ]
      }
    },
    {
      "type": "Feature",
      "properties": {
        "type": "stop",
        "stop_code": "61362",
        "stop_id": "061362",
        "name": "ΕΡΤ",
        "order": "12"
      },
      "geometry": {
        "type": "Point",
        "coordinates": [
          23.7746994,
          37.9921167
        ]
      }
    },
    {
      "type": "Feature",
      "properties": {
        "type": "stop",
        "stop_code": "61363",
        "stop_id": "061363",
        "name": "ΣΤ. ΚΑΤΕΧΑΚΗ",
        "order": "13"
      },
      "geometry": {
        "type": "Point",
        "coordinates": [
          23.7771981,
          37.993701
        ]
      }
    },
    {
      "type": "Feature",
      "properties": {
        "type": "stop",
        "stop_code": "60688",
        "stop_id": "060688",
        "name": "ΝΟΣΟΚΟΜΕΙΟ ΘΩΡΑΚΟΣ",
        "order": "14"
      },
      "geometry": {
        "type": "Point",
        "coordinates": [
          23.7789368,
          37.9949661
        ]
      }
    },
    {
      "type": "Feature",
      "properties": {
        "type": "stop",
        "stop_code": "710001",
        "stop_id": "710001",
        "name": "ΓΕΝΙΚΟ ΚΡΑΤΙΚΟ",
        "order": "15"
      },
      "geometry": {
        "type": "Point",
        "coordinates": [
          23.7826324,
          37.9974736
        ]
      }
    },
    {
      "type": "Feature",
      "properties": {
        "type": "stop",
        "stop_code": "710002",
        "stop_id": "710002",
        "name": "ΣΤ. ΕΘΝ. ΑΜΥΝΑ",
        "order": "16"
      },
      "geometry": {
        "type": "Point",
        "coordinates": [
          23.7849101,
          37.9992298
        ]
      }
    },
    {
      "type": "Feature",
      "properties": {
        "type": "stop",
        "stop_code": "490001",
        "stop_id": "490001",
        "name": "2η ΧΟΛΑΡΓΟΥ",
        "order": "17"
      },
      "geometry": {
        "type": "Point",
        "coordinates": [
          23.7882359,
          38.0011798
        ]
      }
    },
    {
      "type": "Feature",
      "properties": {
        "type": "stop",
        "stop_code": "490002",
        "stop_id": "490002",
        "name": "3η ΧΟΛΑΡΓΟΥ",
        "order": "18"
      },
      "geometry": {
        "type": "Point",
        "coordinates": [
          23.7906436,
          38.0020467
        ]
      }
    },
    {
      "type": "Feature",
      "properties": {
        "type": "stop",
        "stop_code": "490003",
        "stop_id": "490003",
        "name": "4η ΧΟΛΑΡΓΟΥ",
        "order": "19"
      },
      "geometry": {
        "type": "Point",
        "coordinates": [
          23.7927997,
          38.0032591
        ]
      }
    },
    {
      "type": "Feature",
      "properties": {
        "type": "stop",
        "stop_code": "490004",
        "stop_id": "490004",
        "name": "5η ΧΟΛΑΡΓΟΥ",
        "order": "20"
      },
      "geometry": {
        "type": "Point",
        "coordinates": [
          23.7958886,
          38.0055463
        ]
      }
    },
    {
      "type": "Feature",
      "properties": {
        "type": "stop",
        "stop_code": "490005",
        "stop_id": "490005",
        "name": "6η ΧΟΛΑΡΓΟΥ",
        "order": "21"
      },
      "geometry": {
        "type": "Point",
        "coordinates": [
          23.7987367,
          38.0065661
        ]
      }
    },
    {
      "type": "Feature",
      "properties": {
        "type": "stop",
        "stop_code": "490006",
        "stop_id": "490006",
        "name": "7η ΧΟΛΑΡΓΟΥ",
        "order": "22"
      },
      "geometry": {
        "type": "Point",
        "coordinates": [
          23.8024145,
          38.0075559
        ]
      }
    },
    {
      "type": "Feature",
      "properties": {
        "type": "stop",
        "stop_code": "490007",
        "stop_id": "490007",
        "name": "8η ΜΕΣΟΓΕΙΩΝ",
        "order": "23"
      },
      "geometry": {
        "type": "Point",
        "coordinates": [
          23.8049107,
          38.0085159
        ]
      }
    },
    {
      "type": "Feature",
      "properties": {
        "type": "stop",
        "stop_code": "30413",
        "stop_id": "030413",
        "name": "ΣΤ. ΝΟΜΙΣΜΑΤΟΚΟΠΕΙΟ",
        "order": "24"
      },
      "geometry": {
        "type": "Point",
        "coordinates": [
          23.8073089,
          38.0096583
        ]
      }
    },
    {
      "type": "Feature",
      "properties": {
        "type": "stop",
        "stop_code": "30001",
        "stop_id": "030001",
        "name": "9η ΜΕΣΟΓΕΙΩΝ",
        "order": "25"
      },
      "geometry": {
        "type": "Point",
        "coordinates": [
          23.8105383,
          38.010908
        ]
      }
    },
    {
      "type": "Feature",
      "properties": {
        "type": "stop",
        "stop_code": "30002",
        "stop_id": "030002",
        "name": "ΤΟΜΠΡΑ",
        "order": "26"
      },
      "geometry": {
        "type": "Point",
        "coordinates": [
          23.8133875,
          38.0116207
        ]
      }
    },
    {
      "type": "Feature",
      "properties": {
        "type": "stop",
        "stop_code": "30003",
        "stop_id": "030003",
        "name": "11η ΑΓ. ΠΑΡΑΣΚΕΥΗΣ",
        "order": "27"
      },
      "geometry": {
        "type": "Point",
        "coordinates": [
          23.815589,
          38.012107
        ]
      }
    },
    {
      "type": "Feature",
      "properties": {
        "type": "stop",
        "stop_code": "30004",
        "stop_id": "030004",
        "name": "12η ΑΓ. ΠΑΡΑΣΚΕΥΗΣ",
        "order": "28"
      },
      "geometry": {
        "type": "Point",
        "coordinates": [
          23.817303,
          38.0125796
        ]
      }
    },
    {
      "type": "Feature",
      "properties": {
        "type": "stop",
        "stop_code": "30005",
        "stop_id": "030005",
        "name": "ΠΛ. ΑΓ. ΠΑΡΑΣΚΕΥΗΣ",
        "order": "29"
      },
      "geometry": {
        "type": "Point",
        "coordinates": [
          23.8207502,
          38.0134167
        ]
      }
    },
    {
      "type": "Feature",
      "properties": {
        "type": "stop",
        "stop_code": "30006",
        "stop_id": "030006",
        "name": "ΕΡΤ",
        "order": "30"
      },
      "geometry": {
        "type": "Point",
        "coordinates": [
          23.8259654,
          38.0137064
        ]
      }
    },
    {
      "type": "Feature",
      "properties": {
        "type": "stop",
        "stop_code": "30008",
        "stop_id": "030008",
        "name": "ΙΚΑ",
        "order": "31"
      },
      "geometry": {
        "type": "Point",
        "coordinates": [
          23.8300992,
          38.0137245
        ]
      }
    },
    {
      "type": "Feature",
      "properties": {
        "type": "stop",
        "stop_code": "30009",
        "stop_id": "030009",
        "name": "ΔΗΜΗΤΡΑΣ",
        "order": "32"
      },
      "geometry": {
        "type": "Point",
        "coordinates": [
          23.8341278,
          38.0129625
        ]
      }
    },
    {
      "type": "Feature",
      "properties": {
        "type": "stop",
        "stop_code": "30010",
        "stop_id": "030010",
        "name": "ΓΕΛΑΔΑΚΗ",
        "order": "33"
      },
      "geometry": {
        "type": "Point",
        "coordinates": [
          23.8376977,
          38.0117615
        ]
      }
    },
    {
      "type": "Feature",
      "properties": {
        "type": "stop",
        "stop_code": "30107",
        "stop_id": "030107",
        "name": "ΣΤΑΥΡΟΣ",
        "order": "34"
      },
      "geometry": {
        "type": "Point",
        "coordinates": [
          23.8422512,
          38.0104952
        ]
      }
    },
    {
      "type": "Feature",
      "properties": {
        "type": "stop",
        "stop_code": "560002",
        "stop_id": "560002",
        "name": "ΠΕΤΡΟΓΙΑΝΝΗ",
        "order": "35"
      },
      "geometry": {
        "type": "Point",
        "coordinates": [
          23.8471513,
          38.0098469
        ]
      }
    },
    {
      "type": "Feature",
      "properties": {
        "type": "stop",
        "stop_code": "560003",
        "stop_id": "560003",
        "name": "ΠΑΝΑΓΙΤΣΑ",
        "order": "36"
      },
      "geometry": {
        "type": "Point",
        "coordinates": [
          23.8524103,
          38.0089688
        ]
      }
    },
    {
      "type": "Feature",
      "properties": {
        "type": "stop",
        "stop_code": "800010",
        "stop_id": "800010",
        "name": "2η ΓΕΡΑΚΑ",
        "order": "37"
      },
      "geometry": {
        "type": "Point",
        "coordinates": [
          23.8558665,
          38.0081632
        ]
      }
    },
    {
      "type": "Feature",
      "properties": {
        "type": "stop",
        "stop_code": "800222",
        "stop_id": "800222",
        "name": "Β. ΡΩΤΑ",
        "order": "38"
      },
      "geometry": {
        "type": "Point",
        "coordinates": [
          23.8578592,
          38.007551
        ]
      }
    },
    {
      "type": "Feature",
      "properties": {
        "type": "stop",
        "stop_code": "800078",
        "stop_id": "800078",
        "name": "1η ΓΕΡΑΚΑ",
        "order": "39"
      },
      "geometry": {
        "type": "Point",
        "coordinates": [
          23.8611542,
          38.0070159
        ]
      }
    },
    {
      "type": "Feature",
      "properties": {
        "type": "stop",
        "stop_code": "800011",
        "stop_id": "800011",
        "name": "ΠΥΡΓΟΣ",
        "order": "40"
      },
      "geometry": {
        "type": "Point",
        "coordinates": [
          23.8651775,
          38.0062265
        ]
      }
    },
    {
      "type": "Feature",
      "properties": {
        "type": "stop",
        "stop_code": "780001",
        "stop_id": "780001",
        "name": "ΣΤΡΟΦΗ ΑΝΘΟΥΣΑΣ",
        "order": "41"
      },
      "geometry": {
        "type": "Point",
        "coordinates": [
          23.8720459,
          38.005877
        ]
      }
    },
    {
      "type": "Feature",
      "properties": {
        "type": "stop",
        "stop_code": "780024",
        "stop_id": "780024",
        "name": "ΦΑΜΑΡ",
        "order": "42"
      },
      "geometry": {
        "type": "Point",
        "coordinates": [
          23.8715116,
          38.0080118
        ]
      }
    },
    {
      "type": "Feature",
      "properties": {
        "type": "stop",
        "stop_code": "780002",
        "stop_id": "780002",
        "name": "ΑΛ. ΣΤΕΦΑΝΟΠΟΥΛΟΣ",
        "order": "43"
      },
      "geometry": {
        "type": "Point",
        "coordinates": [
          23.8713239,
          38.0111602
        ]
      }
    },
    {
      "type": "Feature",
      "properties": {
        "type": "stop",
        "stop_code": "10400",
        "stop_id": "000184",
        "name": "ΑΝΘΟΥΣΑ",
        "order": "44"
      },
      "geometry": {
        "type": "Point",
        "coordinates": [
          23.8699045,
          38.0119145
        ]
      }
    }
  ]
}