{
  "type": "FeatureCollection",
  "features": [
    {
      "type": "Feature",
      "properties": {
        "type": "route_path",
        "route_code": "4032",
        "descr": "ΠΕΡΑΜΑ - ΣΤ. ΝΙΚΑΙΑ [ΝΕΡΟ ΕΩΣ ΠΕΡΑΜΑ]"
      },
      "geometry": {
        "type": "LineString",
        "coordinates": [
          [
            23.62657,
            37.96412
          ],
          [
            23.62696,
            37.9641
          ],
          [
            23.62906,
            37.96381
          ],
          [
            23.62981,
            37.96377
          ],
          [
            23.63359,
            37.96425
          ],
          [
            23.63716,
            37.96544
          ],
          [
            23.6374,
            37.96558
          ],
          [
            23.64455,
            37.9679
          ],
          [
            23.64527,
            37.96814
          ],
          [
            23.64571,
            37.96744
          ],
          [
            23.64684,
            37.96526
          ],
          [
            23.64757,
            37.96395
          ],
          [
            23.64784,
            37.96331
          ],
          [
            23.64915,
            37.96341
          ],
          [
            23.64805,
            37.96578
          ],
          [
            23.64626,
            37.96923
          ],
          [
            23.64488,
            37.96878
          ],
          [
            23.64525,
            37.96894
          ],
          [
            23.64509,
            37.96885
          ],
          [
            23.63794,
            37.96659
          ],
          [
            23.63779,
            37.96648
          ],
          [
            23.63731,
            37.96578
          ],
          [
            23.63693,
            37.96548
          ],
          [
            23.63386,
            37.96441
          ],
          [
            23.63295,
            37.96426
          ],
          [
            23.63282,
            37.96425
          ],
          [
            23.62982,
            37.96389
          ],
          [
            23.62836,
            37.96407
          ],
          [
            23.62618,
            37.96439
          ],
          [
            23.6249,
            37.96451
          ],
          [
            23.62375,
            37.96466
          ],
          [
            23.6234,
            37.96461
          ],
          [
            23.61469,
            37.9636
          ],
          [
            23.61441,
            37.96364
          ],
          [
            23.61359,
            37.96414
          ],
          [
            23.61345,
            37.96412
          ],
          [
            23.61278,
            37.96354
          ],
          [
            23.61236,
            37.96312
          ],
          [
            23.61226,
            37.96287
          ],
          [
            23.61201,
            37.9618
          ],
          [
            23.61189,
            37.96156
          ],
          [
            23.61151,
            37.9618
          ],
          [
            23.6109,
            37.96214
          ],
          [
            23.61058,
            37.96225
          ],
          [
            23.6088,
            37.96236
          ],
          [
            23.60601,
            37.96244
          ],
          [
            23.60468,
            37.9626
          ],
          [
            23.60436,
            37.96259
          ],
          [
            23.603,
            37.96242
          ],
          [
            23.60044,
            37.9622
          ],
          [
            23.59989,
            37.9622
          ],
          [
            23.59795,
            37.96219
          ],
          [
            23.59704,
            37.9621
          ],
          [
            23.59612,
            37.96217
          ],
          [
            23.59516,
            37.96234
          ],
          [
            23.59418,
            37.96243
          ],
          [
            23.59383,
            37.96243
          ],
          [
            23.59327,
            37.96237
          ],
          [
            23.59219,
            37.9622
          ],
          [
            23.59174,
            37.96222
          ],
          [
            23.59142,
            37.96226
          ],
          [
            23.58884,
            37.96271
          ],
          [
            23.58795,
            37.96278
          ],
          [
            23.58678,
            37.96269
          ],
          [
            23.58571,
            37.96286
          ],
          [
            23.58464,
            37.96302
          ],
          [
            23.58408,
            37.96307
          ],
          [
            23.58371,
            37.96301
          ],
          [
            23.58199,
            37.96245
          ],
          [
            23.58154,
            37.96241
          ],
          [
            23.58105,
            37.96247
          ],
          [
            23.57382,
            37.96349
          ],
          [
            23.57034,
            37.96399
          ],
          [
            23.56852,
            37.9642
          ],
          [
            23.5677,
            37.96423
          ],
          [
            23.56582,
            37.96405
          ],
          [
            23.56338,
            37.96432
          ],
          [
            23.56267,
            37.96451
          ],
          [
            23.56249,
            37.96479
          ],
          [
            23.56228,
            37.96495
          ],
          [
            23.56203,
            37.96489
          ],
          [
            23.56201,
            37.96471
          ],
          [
            23.56214,
            37.96453
          ],
          [
            23.562,
            37.96386
          ],
          [
            23.55961,
            37.96421
          ],
          [
            23.55907,
            37.96423
          ],
          [
            23.55815,
            37.96417
          ],
          [
            23.55804,
            37.96413
          ],
          [
            23.55805,
            37.96398
          ],
          [
            23.55836,
            37.96389
          ],
          [
            23.559,
            37.9639
          ]
        ]
      }
    },
    {
      "type": "Feature",
      "properties": {
        "type": "stop",
        "stop_code": "11562",
        "stop_id": "841",
        "name": "ΝΕΡΟ",
        "order": "1"
      },
      "geometry": {
        "type": "Point",
        "coordinates": [
          23.627167,
          37.9640015
        ]
      }
    },
    {
      "type": "Feature",
      "properties": {
        "type": "stop",
        "stop_code": "260036",
        "stop_id": "260036",
        "name": "ΡΟΜΑΝΤΖΟ",
        "order": "2"
      },
      "geometry": {
        "type": "Point",
        "coordinates": [
          23.6288962,
          37.9637014
        ]
      }
    },
    {
      "type": "Feature",
      "properties": {
        "type": "stop",
        "stop_code": "370152",
        "stop_id": "370152",
        "name": "ΤΖΑΝΗ",
        "order": "3"
      },
      "geometry": {
        "type": "Point",
        "coordinates": [
          23.6331061,
          37.9641472
        ]
      }
    },
    {
      "type": "Feature",
      "properties": {
        "type": "stop",
        "stop_code": "370015",
        "stop_id": "370015",
        "name": "25ης ΜΑΡΤΙΟΥ",
        "order": "4"
      },
      "geometry": {
        "type": "Point",
        "coordinates": [
          23.6356525,
          37.9648852
        ]
      }
    },
    {
      "type": "Feature",
      "properties": {
        "type": "stop",
        "stop_code": "370016",
        "stop_id": "370016",
        "name": "ΦΡΥΓΙΑΣ",
        "order": "5"
      },
      "geometry": {
        "type": "Point",
        "coordinates": [
          23.63863,
          37.9659488
        ]
      }
    },
    {
      "type": "Feature",
      "properties": {
        "type": "stop",
        "stop_code": "370018",
        "stop_id": "370018",
        "name": "ΝΙΚΟΜΗΔΕΙΑΣ",
        "order": "6"
      },
      "geometry": {
        "type": "Point",
        "coordinates": [
          23.6413698,
          37.9667323
        ]
      }
    },
    {
      "type": "Feature",
      "properties": {
        "type": "stop",
        "stop_code": "370019",
        "stop_id": "370019",
        "name": "ΟΑΕΔ",
        "order": "7"
      },
      "geometry": {
        "type": "Point",
        "coordinates": [
          23.6426313,
          37.9671868
        ]
      }
    },
    {
      "type": "Feature",
      "properties": {
        "type": "stop",
        "stop_code": "370132",
        "stop_id": "370132",
        "name": "ΚΑΙΣΑΡΕΙΑΣ",
        "order": "8"
      },
      "geometry": {
        "type": "Point",
        "coordinates": [
          23.6454994,
          37.9673577
        ]
      }
    },
    {
      "type": "Feature",
      "properties": {
        "type": "stop",
        "stop_code": "370098",
        "stop_id": "370098",
        "name": "ΣΤ. ΝΙΚΑΙΑ",
        "order": "9"
      },
      "geometry": {
        "type": "Point",
        "coordinates": [
          23.6463457,
          37.966102
        ]
      }
    },
    {
      "type": "Feature",
      "properties": {
        "type": "stop",
        "stop_code": "11438",
        "stop_id": "370900",
        "name": "ΕΦΕΣΟΥ",
        "order": "10"
      },
      "geometry": {
        "type": "Point",
        "coordinates": [
          23.6469576,
          37.9649446
        ]
      }
    },
    {
      "type": "Feature",
      "properties": {
        "type": "stop",
        "stop_code": "370080",
        "stop_id": "370080",
        "name": "ΓΕΦΥΡΑ",
        "order": "11"
      },
      "geometry": {
        "type": "Point",
        "coordinates": [
          23.649124,
          37.9640789
        ]
      }
    },
    {
      "type": "Feature",
      "properties": {
        "type": "stop",
        "stop_code": "370081",
        "stop_id": "370081",
        "name": "ΑΓ. ΝΙΚΟΛΑΟΣ - ΣΤ. ΝΙΚΑΙΑ",
        "order": "12"
      },
      "geometry": {
        "type": "Point",
        "coordinates": [
          23.6478143,
          37.9665715
        ]
      }
    },
    {
      "type": "Feature",
      "properties": {
        "type": "stop",
        "stop_code": "370052",
        "stop_id": "370052",
        "name": "Π. ΡΑΛΛΗ",
        "order": "13"
      },
      "geometry": {
        "type": "Point",
        "coordinates": [
          23.6469292,
          37.9683444
        ]
      }
    },
    {
      "type": "Feature",
      "properties": {
        "type": "stop",
        "stop_code": "370008",
        "stop_id": "370008",
        "name": "ΕΜΠΟΡΙΚΟ ΚΕΝΤΡΟ ΝΙΚΑΙΑΣ",
        "order": "14"
      },
      "geometry": {
        "type": "Point",
        "coordinates": [
          23.645236,
          37.9689577
        ]
      }
    },
    {
      "type": "Feature",
      "properties": {
        "type": "stop",
        "stop_code": "370009",
        "stop_id": "370009",
        "name": "ΣΤΕΡΛΙΝΑ",
        "order": "15"
      },
      "geometry": {
        "type": "Point",
        "coordinates": [
          23.6430013,
          37.9683596
        ]
      }
    },
    {
      "type": "Feature",
      "properties": {
        "type": "stop",
        "stop_code": "370010",
        "stop_id": "370010",
        "name": "ΜΕΡΣΙΝΗΣ",
        "order": "16"
      },
      "geometry": {
        "type": "Point",
        "coordinates": [
          23.6411031,
          37.967741
        ]
      }
    },
    {
      "type": "Feature",
      "properties": {
        "type": "stop",
        "stop_code": "370011",
        "stop_id": "370011",
        "name": "ΦΡΥΓΙΑΣ",
        "order": "17"
      },
      "geometry": {
        "type": "Point",
        "coordinates": [
          23.6382619,
          37.9667228
        ]
      }
    },
    {
      "type": "Feature",
      "properties": {
        "type": "stop",
        "stop_code": "370012",
        "stop_id": "370012",
        "name": "25ης ΜΑΡΤΙΟΥ",
        "order": "18"
      },
      "geometry": {
        "type": "Point",
        "coordinates": [
          23.6363829,
          37.9654111
        ]
      }
    },
    {
      "type": "Feature",
      "properties": {
        "type": "stop",
        "stop_code": "370013",
        "stop_id": "370013",
        "name": "ΤΖΑΝΗ",
        "order": "19"
      },
      "geometry": {
        "type": "Point",
        "coordinates": [
          23.6329758,
          37.9643581
        ]
      }
    },
    {
      "type": "Feature",
      "properties": {
        "type": "stop",
        "stop_code": "260024",
        "stop_id": "260024",
        "name": "ΡΟΜΑΝΤΖΟ",
        "order": "20"
      },
      "geometry": {
        "type": "Point",
        "coordinates": [
          23.6288261,
          37.9640436
        ]
      }
    },
    {
      "type": "Feature",
      "properties": {
        "type": "stop",
        "stop_code": "260026",
        "stop_id": "260026",
        "name": "ΝΕΡΟ",
        "order": "21"
      },
      "geometry": {
        "type": "Point",
        "coordinates": [
          23.6252945,
          37.9645372
        ]
      }
    },
    {
      "type": "Feature",
      "properties": {
        "type": "stop",
        "stop_code": "260027",
        "stop_id": "260027",
        "name": "ΣΤΡΟΦΗ ΑΜΦΙΑΛΗΣ",
        "order": "22"
      },
      "geometry": {
        "type": "Point",
        "coordinates": [
          23.6227555,
          37.9646102
        ]
      }
    },
    {
      "type": "Feature",
      "properties": {
        "type": "stop",
        "stop_code": "260028",
        "stop_id": "260028",
        "name": "ΑΣΤΡΟΝ",
        "order": "23"
      },
      "geometry": {
        "type": "Point",
        "coordinates": [
          23.6192282,
          37.9642383
        ]
      }
    },
    {
      "type": "Feature",
      "properties": {
        "type": "stop",
        "stop_code": "260141",
        "stop_id": "260141",
        "name": "ΔΑΓΚΛΗ",
        "order": "24"
      },
      "geometry": {
        "type": "Point",
        "coordinates": [
          23.6164864,
          37.9639049
        ]
      }
    },
    {
      "type": "Feature",
      "properties": {
        "type": "stop",
        "stop_code": "260130",
        "stop_id": "260130",
        "name": "ΠΥΡΟΣΒΕΣΤΙΚΗ",
        "order": "25"
      },
      "geometry": {
        "type": "Point",
        "coordinates": [
          23.6105293,
          37.9623532
        ]
      }
    },
    {
      "type": "Feature",
      "properties": {
        "type": "stop",
        "stop_code": "410001",
        "stop_id": "410001",
        "name": "ΙΚΟΝΙΟΥ",
        "order": "26"
      },
      "geometry": {
        "type": "Point",
        "coordinates": [
          23.6060205,
          37.9624914
        ]
      }
    },
    {
      "type": "Feature",
      "properties": {
        "type": "stop",
        "stop_code": "410077",
        "stop_id": "410077",
        "name": "ΑΓ. ΣΩΤΗΡΑΣ",
        "order": "27"
      },
      "geometry": {
        "type": "Point",
        "coordinates": [
          23.6039894,
          37.9625802
        ]
      }
    },
    {
      "type": "Feature",
      "properties": {
        "type": "stop",
        "stop_code": "410002",
        "stop_id": "410002",
        "name": "ΑΣΤΥΝΟΜΙΑ",
        "order": "28"
      },
      "geometry": {
        "type": "Point",
        "coordinates": [
          23.6006186,
          37.9622854
        ]
      }
    },
    {
      "type": "Feature",
      "properties": {
        "type": "stop",
        "stop_code": "410038",
        "stop_id": "410038",
        "name": "ΗΡΩΩΝ ΠΟΛΥΤΕΧΝΕΙΟΥ",
        "order": "29"
      },
      "geometry": {
        "type": "Point",
        "coordinates": [
          23.5977739,
          37.9621861
        ]
      }
    },
    {
      "type": "Feature",
      "properties": {
        "type": "stop",
        "stop_code": "410028",
        "stop_id": "410028",
        "name": "ΠΛΑΚΟΥΔΑ",
        "order": "30"
      },
      "geometry": {
        "type": "Point",
        "coordinates": [
          23.5955598,
          37.9622756
        ]
      }
    },
    {
      "type": "Feature",
      "properties": {
        "type": "stop",
        "stop_code": "410004",
        "stop_id": "410004",
        "name": "ΔΙΥΛΙΣΤΗΡΙΑ SHELL",
        "order": "31"
      },
      "geometry": {
        "type": "Point",
        "coordinates": [
          23.5863013,
          37.9628833
        ]
      }
    },
    {
      "type": "Feature",
      "properties": {
        "type": "stop",
        "stop_code": "410005",
        "stop_id": "410005",
        "name": "ΣΙΔΕΡΑ",
        "order": "32"
      },
      "geometry": {
        "type": "Point",
        "coordinates": [
          23.5825456,
          37.9627078
        ]
      }
    },
    {
      "type": "Feature",
      "properties": {
        "type": "stop",
        "stop_code": "410006",
        "stop_id": "410006",
        "name": "ΠΛΑΖΑΚΗ",
        "order": "33"
      },
      "geometry": {
        "type": "Point",
        "coordinates": [
          23.5801436,
          37.9626993
        ]
      }
    },
    {
      "type": "Feature",
      "properties": {
        "type": "stop",
        "stop_code": "410007",
        "stop_id": "410007",
        "name": "ΣΧΟΛΕΙΟ",
        "order": "34"
      },
      "geometry": {
        "type": "Point",
        "coordinates": [
          23.5774889,
          37.9630864
        ]
      }
    },
    {
      "type": "Feature",
      "properties": {
        "type": "stop",
        "stop_code": "410008",
        "stop_id": "410008",
        "name": "ΑΓ. ΝΙΚΟΛΑΟΣ",
        "order": "35"
      },
      "geometry": {
        "type": "Point",
        "coordinates": [
          23.57447,
          37.963463
        ]
      }
    },
    {
      "type": "Feature",
      "properties": {
        "type": "stop",
        "stop_code": "410009",
        "stop_id": "410009",
        "name": "ΟΤΕ",
        "order": "36"
      },
      "geometry": {
        "type": "Point",
        "coordinates": [
          23.5713478,
          37.9639744
        ]
      }
    },
    {
      "type": "Feature",
      "properties": {
        "type": "stop",
        "stop_code": "410010",
        "stop_id": "410010",
        "name": "ΤΡΑΠΕΖΑ",
        "order": "37"
      },
      "geometry": {
        "type": "Point",
        "coordinates": [
          23.5680442,
          37.9643409
        ]
      }
    },
    {
      "type": "Feature",
      "properties": {
        "type": "stop",
        "stop_code": "410011",
        "stop_id": "410011",
        "name": "25ης ΜΑΡΤΙΟΥ",
        "order": "38"
      },
      "geometry": {
        "type": "Point",
        "coordinates": [
          23.5646632,
          37.9643284
        ]
      }
    },
    {
      "type": "Feature",
      "properties": {
        "type": "stop",
        "stop_code": "410012",
        "stop_id": "410012",
        "name": "ΠΛΑΤΕΙΑ",
        "order": "39"
      },
      "geometry": {
        "type": "Point",
        "coordinates": [
          23.5624994,
          37.964899
        ]
      }
    },
    {
      "type": "Feature",
      "properties": {
        "type": "stop",
        "stop_code": "410040",
        "stop_id": "410040",
        "name": "ΑΓ. ΓΕΩΡΓΙΟΣ",
        "order": "40"
      },
      "geometry": {
        "type": "Point",
        "coordinates": [
          23.561101,
          37.9640674
        ]
      }
    },
    {
      "type": "Feature",
      "properties": {
        "type": "stop",
        "stop_code": "410013",
        "stop_id": "410013",
        "name": "ΑΝΑΠΑΥΣΕΩΣ",
        "order": "41"
      },
      "geometry": {
        "type": "Point",
        "coordinates": [
          23.5588073,
          37.9643681
        ]
      }
    },
    {
      "type": "Feature",
      "properties": {
        "type": "stop",
        "stop_code": "10278",
        "stop_id": "77",
        "name": "ΠΕΡΑΜΑ",
        "order": "42"
      },
      "geometry": {
        "type": "Point",
        "coordinates": [
          23.5587085,
          37.9639465
        ]
      }
    }
  ]
}