{
  "type": "FeatureCollection",
  "features": [
    {
      "type": "Feature",
      "properties": {
        "type": "route_path",
        "route_code": "4287",
        "descr": "ΟΜΟΝΟΙΑ - ΛΑΧΑΝΑΓΟΡΑ - ΠΑΛ. ΚΟΚΚΙΝΙΑ"
      },
      "geometry": {
        "type": "LineString",
        "coordinates": [
          [
            23.72736,
            37.9815
          ],
          [
            23.72733,
            37.98132
          ],
          [
            23.72727,
            37.98105
          ],
          [
            23.72415,
            37.98156
          ],
          [
            23.72322,
            37.9817
          ],
          [
            23.72292,
            37.98186
          ],
          [
            23.72183,
            37.98139
          ],
          [
            23.72022,
            37.98067
          ],
          [
            23.7171,
            37.97927
          ],
          [
            23.71631,
            37.97884
          ],
          [
            23.71563,
            37.97834
          ],
          [
            23.71491,
            37.97789
          ],
          [
            23.71213,
            37.9766
          ],
          [
            23.7112,
            37.97604
          ],
          [
            23.7106,
            37.97563
          ],
          [
            23.70778,
            37.97366
          ],
          [
            23.70508,
            37.97186
          ],
          [
            23.70253,
            37.97015
          ],
          [
            23.70192,
            37.96982
          ],
          [
            23.70002,
            37.96925
          ],
          [
            23.69926,
            37.9688
          ],
          [
            23.69699,
            37.96759
          ],
          [
            23.69563,
            37.96683
          ],
          [
            23.69479,
            37.96613
          ],
          [
            23.69307,
            37.96437
          ],
          [
            23.69231,
            37.96378
          ],
          [
            23.69158,
            37.96312
          ],
          [
            23.69073,
            37.96218
          ],
          [
            23.68884,
            37.95987
          ],
          [
            23.68584,
            37.95882
          ],
          [
            23.68493,
            37.96029
          ],
          [
            23.68414,
            37.96107
          ],
          [
            23.6827,
            37.96155
          ],
          [
            23.68221,
            37.9603
          ],
          [
            23.68138,
            37.95953
          ],
          [
            23.68125,
            37.95936
          ],
          [
            23.68077,
            37.95865
          ],
          [
            23.68018,
            37.95737
          ],
          [
            23.68031,
            37.95694
          ],
          [
            23.67721,
            37.95595
          ],
          [
            23.67413,
            37.95493
          ],
          [
            23.672,
            37.95427
          ],
          [
            23.67029,
            37.95369
          ],
          [
            23.67034,
            37.95583
          ],
          [
            23.67058,
            37.95713
          ],
          [
            23.67096,
            37.95724
          ],
          [
            23.67106,
            37.95747
          ],
          [
            23.67091,
            37.95768
          ],
          [
            23.67195,
            37.95912
          ],
          [
            23.67386,
            37.96136
          ],
          [
            23.67453,
            37.96107
          ],
          [
            23.67477,
            37.96135
          ],
          [
            23.67504,
            37.96128
          ],
          [
            23.67526,
            37.96161
          ],
          [
            23.674,
            37.96217
          ],
          [
            23.67381,
            37.96189
          ],
          [
            23.67354,
            37.96202
          ],
          [
            23.67293,
            37.96229
          ],
          [
            23.67197,
            37.96272
          ],
          [
            23.67188,
            37.96283
          ],
          [
            23.67201,
            37.96298
          ],
          [
            23.67201,
            37.96326
          ],
          [
            23.6719,
            37.96331
          ],
          [
            23.67108,
            37.96311
          ],
          [
            23.67038,
            37.96337
          ],
          [
            23.67036,
            37.96347
          ],
          [
            23.67071,
            37.9642
          ],
          [
            23.67103,
            37.96486
          ],
          [
            23.67138,
            37.96557
          ],
          [
            23.67166,
            37.96633
          ],
          [
            23.6718,
            37.96665
          ],
          [
            23.67203,
            37.96694
          ],
          [
            23.6723,
            37.96718
          ],
          [
            23.6727,
            37.9675
          ],
          [
            23.67286,
            37.96764
          ],
          [
            23.67269,
            37.96773
          ],
          [
            23.67091,
            37.96719
          ],
          [
            23.67009,
            37.96699
          ],
          [
            23.66912,
            37.96663
          ],
          [
            23.66542,
            37.96561
          ],
          [
            23.66458,
            37.96533
          ],
          [
            23.66281,
            37.9648
          ],
          [
            23.66103,
            37.96428
          ],
          [
            23.65918,
            37.96375
          ],
          [
            23.65831,
            37.96353
          ],
          [
            23.65802,
            37.96331
          ],
          [
            23.65668,
            37.96142
          ],
          [
            23.65616,
            37.96105
          ],
          [
            23.65561,
            37.96059
          ],
          [
            23.65372,
            37.95892
          ],
          [
            23.65194,
            37.96014
          ],
          [
            23.65368,
            37.96183
          ],
          [
            23.65422,
            37.96231
          ],
          [
            23.65775,
            37.96333
          ],
          [
            23.65903,
            37.96368
          ],
          [
            23.66085,
            37.9642
          ],
          [
            23.6628,
            37.96476
          ],
          [
            23.6645,
            37.96525
          ],
          [
            23.6648,
            37.96532
          ],
          [
            23.66546,
            37.96534
          ],
          [
            23.66617,
            37.96535
          ],
          [
            23.66714,
            37.96521
          ],
          [
            23.66806,
            37.96514
          ],
          [
            23.66989,
            37.96553
          ],
          [
            23.6708,
            37.9659
          ],
          [
            23.67104,
            37.96603
          ],
          [
            23.67152,
            37.9664
          ],
          [
            23.67162,
            37.96635
          ],
          [
            23.67133,
            37.96556
          ],
          [
            23.67097,
            37.96485
          ],
          [
            23.67061,
            37.96413
          ],
          [
            23.67032,
            37.96345
          ],
          [
            23.67029,
            37.96333
          ],
          [
            23.67052,
            37.96324
          ],
          [
            23.67108,
            37.96302
          ],
          [
            23.67187,
            37.96321
          ],
          [
            23.67195,
            37.96302
          ],
          [
            23.67181,
            37.96289
          ],
          [
            23.67182,
            37.96281
          ],
          [
            23.67194,
            37.9627
          ],
          [
            23.67294,
            37.96227
          ],
          [
            23.67352,
            37.96199
          ],
          [
            23.67379,
            37.96186
          ],
          [
            23.67355,
            37.96151
          ],
          [
            23.67379,
            37.96142
          ],
          [
            23.67242,
            37.95973
          ],
          [
            23.67078,
            37.95773
          ],
          [
            23.67047,
            37.95771
          ],
          [
            23.67031,
            37.95757
          ],
          [
            23.67033,
            37.95733
          ],
          [
            23.67049,
            37.95715
          ],
          [
            23.67028,
            37.95576
          ],
          [
            23.67024,
            37.95354
          ],
          [
            23.67199,
            37.95415
          ],
          [
            23.67414,
            37.95482
          ],
          [
            23.67732,
            37.95586
          ],
          [
            23.68048,
            37.95691
          ],
          [
            23.68034,
            37.95712
          ],
          [
            23.68028,
            37.9574
          ],
          [
            23.68097,
            37.95885
          ],
          [
            23.68134,
            37.95936
          ],
          [
            23.68235,
            37.96031
          ],
          [
            23.68279,
            37.96141
          ],
          [
            23.68411,
            37.96102
          ],
          [
            23.68485,
            37.96019
          ],
          [
            23.68578,
            37.95861
          ],
          [
            23.689,
            37.95975
          ],
          [
            23.69086,
            37.96207
          ],
          [
            23.69171,
            37.96292
          ],
          [
            23.69246,
            37.96362
          ],
          [
            23.69517,
            37.96628
          ],
          [
            23.69616,
            37.96701
          ],
          [
            23.6974,
            37.96766
          ],
          [
            23.69926,
            37.96866
          ],
          [
            23.6999,
            37.96901
          ],
          [
            23.70056,
            37.96927
          ],
          [
            23.702,
            37.96973
          ],
          [
            23.707,
            37.97301
          ],
          [
            23.71089,
            37.97571
          ],
          [
            23.71162,
            37.97617
          ],
          [
            23.71242,
            37.97663
          ],
          [
            23.71461,
            37.97765
          ],
          [
            23.71547,
            37.9781
          ],
          [
            23.716,
            37.97847
          ],
          [
            23.71668,
            37.97896
          ],
          [
            23.71746,
            37.97937
          ],
          [
            23.72024,
            37.98062
          ],
          [
            23.7224,
            37.98156
          ],
          [
            23.72364,
            37.98215
          ],
          [
            23.72624,
            37.98327
          ],
          [
            23.72747,
            37.98379
          ],
          [
            23.72793,
            37.98379
          ],
          [
            23.72779,
            37.98319
          ]
        ]
      }
    },
    {
      "type": "Feature",
      "properties": {
        "type": "stop",
        "stop_code": "10409",
        "stop_id": "000190",
        "name": "ΟΜΟΝΟΙΑ",
        "order": "1"
      },
      "geometry": {
        "type": "Point",
        "coordinates": [
          23.727546,
          37.982386
        ]
      }
    },
    {
      "type": "Feature",
      "properties": {
        "type": "stop",
        "stop_code": "60279",
        "stop_id": "060279",
        "name": "ΜΕΝΑΝΔΡΟΥ",
        "order": "2"
      },
      "geometry": {
        "type": "Point",
        "coordinates": [
          23.7250601,
          37.9815045
        ]
      }
    },
    {
      "type": "Feature",
      "properties": {
        "type": "stop",
        "stop_code": "60281",
        "stop_id": "060281",
        "name": "ΙΚΑ",
        "order": "3"
      },
      "geometry": {
        "type": "Point",
        "coordinates": [
          23.7225425,
          37.981787
        ]
      }
    },
    {
      "type": "Feature",
      "properties": {
        "type": "stop",
        "stop_code": "60282",
        "stop_id": "060282",
        "name": "ΘΕΡΜΟΠΥΛΩΝ",
        "order": "4"
      },
      "geometry": {
        "type": "Point",
        "coordinates": [
          23.7198824,
          37.9806
        ]
      }
    },
    {
      "type": "Feature",
      "properties": {
        "type": "stop",
        "stop_code": "60283",
        "stop_id": "060283",
        "name": "ΠΑΛΑΙΑ ΑΓΟΡΑ",
        "order": "5"
      },
      "geometry": {
        "type": "Point",
        "coordinates": [
          23.7153596,
          37.9782368
        ]
      }
    },
    {
      "type": "Feature",
      "properties": {
        "type": "stop",
        "stop_code": "60284",
        "stop_id": "060284",
        "name": "ΦΩΤΑΕΡΙΟ",
        "order": "6"
      },
      "geometry": {
        "type": "Point",
        "coordinates": [
          23.7129391,
          37.9770141
        ]
      }
    },
    {
      "type": "Feature",
      "properties": {
        "type": "stop",
        "stop_code": "60285",
        "stop_id": "060285",
        "name": "ΚΑΜΠΑ",
        "order": "7"
      },
      "geometry": {
        "type": "Point",
        "coordinates": [
          23.7098717,
          37.9752581
        ]
      }
    },
    {
      "type": "Feature",
      "properties": {
        "type": "stop",
        "stop_code": "61108",
        "stop_id": "061108",
        "name": "ΠΕΤΡΟΥ ΡΑΛΛΗ",
        "order": "8"
      },
      "geometry": {
        "type": "Point",
        "coordinates": [
          23.7084634,
          37.9743533
        ]
      }
    },
    {
      "type": "Feature",
      "properties": {
        "type": "stop",
        "stop_code": "60286",
        "stop_id": "060286",
        "name": "ΚΟΛΥΜΒΗΤΗΡΙΟ",
        "order": "9"
      },
      "geometry": {
        "type": "Point",
        "coordinates": [
          23.7073284,
          37.9734673
        ]
      }
    },
    {
      "type": "Feature",
      "properties": {
        "type": "stop",
        "stop_code": "60287",
        "stop_id": "060287",
        "name": "ΥΠΟΥΡΓΕΙΟ",
        "order": "10"
      },
      "geometry": {
        "type": "Point",
        "coordinates": [
          23.7047621,
          37.9717484
        ]
      }
    },
    {
      "type": "Feature",
      "properties": {
        "type": "stop",
        "stop_code": "60288",
        "stop_id": "060288",
        "name": "ΕΛΟΥΛΟΥ",
        "order": "11"
      },
      "geometry": {
        "type": "Point",
        "coordinates": [
          23.7024566,
          37.9703366
        ]
      }
    },
    {
      "type": "Feature",
      "properties": {
        "type": "stop",
        "stop_code": "60289",
        "stop_id": "060289",
        "name": "ΕΡΓΩΝ",
        "order": "12"
      },
      "geometry": {
        "type": "Point",
        "coordinates": [
          23.7002062,
          37.9693665
        ]
      }
    },
    {
      "type": "Feature",
      "properties": {
        "type": "stop",
        "stop_code": "450015",
        "stop_id": "450015",
        "name": "ΤΑΥΡΟΣ",
        "order": "13"
      },
      "geometry": {
        "type": "Point",
        "coordinates": [
          23.6964572,
          37.9674281
        ]
      }
    },
    {
      "type": "Feature",
      "properties": {
        "type": "stop",
        "stop_code": "450039",
        "stop_id": "450039",
        "name": "ΣΦΑΓΕΙΑ",
        "order": "14"
      },
      "geometry": {
        "type": "Point",
        "coordinates": [
          23.6945618,
          37.9660082
        ]
      }
    },
    {
      "type": "Feature",
      "properties": {
        "type": "stop",
        "stop_code": "450017",
        "stop_id": "450017",
        "name": "ΒΙΟΧΑΛΚΟ",
        "order": "15"
      },
      "geometry": {
        "type": "Point",
        "coordinates": [
          23.6922712,
          37.9638211
        ]
      }
    },
    {
      "type": "Feature",
      "properties": {
        "type": "stop",
        "stop_code": "450040",
        "stop_id": "450040",
        "name": "ΣΧΟΛΗ ΚΑΛΩΝ ΤΕΧΝΩΝ",
        "order": "16"
      },
      "geometry": {
        "type": "Point",
        "coordinates": [
          23.690786,
          37.9623752
        ]
      }
    },
    {
      "type": "Feature",
      "properties": {
        "type": "stop",
        "stop_code": "450018",
        "stop_id": "450018",
        "name": "ΥΦΑΝΤΗΡΙΑ",
        "order": "17"
      },
      "geometry": {
        "type": "Point",
        "coordinates": [
          23.6896534,
          37.9609932
        ]
      }
    },
    {
      "type": "Feature",
      "properties": {
        "type": "stop",
        "stop_code": "320035",
        "stop_id": "320035",
        "name": "ΖΗΛΑΚΟΥ",
        "order": "18"
      },
      "geometry": {
        "type": "Point",
        "coordinates": [
          23.6864883,
          37.9590682
        ]
      }
    },
    {
      "type": "Feature",
      "properties": {
        "type": "stop",
        "stop_code": "320041",
        "stop_id": "320041",
        "name": "ΠΥΡΓΟΥ",
        "order": "19"
      },
      "geometry": {
        "type": "Point",
        "coordinates": [
          23.6840168,
          37.9611753
        ]
      }
    },
    {
      "type": "Feature",
      "properties": {
        "type": "stop",
        "stop_code": "20062",
        "stop_id": "020062",
        "name": "2η ΛΑΧΑΝΑΓΟΡΑ",
        "order": "20"
      },
      "geometry": {
        "type": "Point",
        "coordinates": [
          23.6824545,
          37.961075
        ]
      }
    },
    {
      "type": "Feature",
      "properties": {
        "type": "stop",
        "stop_code": "20011",
        "stop_id": "020011",
        "name": "1η ΛΑΧΑΝΑΓΟΡΑ",
        "order": "21"
      },
      "geometry": {
        "type": "Point",
        "coordinates": [
          23.6805678,
          37.9586886
        ]
      }
    },
    {
      "type": "Feature",
      "properties": {
        "type": "stop",
        "stop_code": "320039",
        "stop_id": "320039",
        "name": "ΜΟΣΧΑΤΟ",
        "order": "22"
      },
      "geometry": {
        "type": "Point",
        "coordinates": [
          23.6780643,
          37.956277
        ]
      }
    },
    {
      "type": "Feature",
      "properties": {
        "type": "stop",
        "stop_code": "320040",
        "stop_id": "320040",
        "name": "ΨΥΓΕΙΑ",
        "order": "23"
      },
      "geometry": {
        "type": "Point",
        "coordinates": [
          23.6755341,
          37.9554597
        ]
      }
    },
    {
      "type": "Feature",
      "properties": {
        "type": "stop",
        "stop_code": "20045",
        "stop_id": "020045",
        "name": "ΓΕΦΥΡΑ",
        "order": "24"
      },
      "geometry": {
        "type": "Point",
        "coordinates": [
          23.6731179,
          37.9547115
        ]
      }
    },
    {
      "type": "Feature",
      "properties": {
        "type": "stop",
        "stop_code": "20005",
        "stop_id": "020005",
        "name": "ΚΑΠΗ",
        "order": "25"
      },
      "geometry": {
        "type": "Point",
        "coordinates": [
          23.670443,
          37.954695
        ]
      }
    },
    {
      "type": "Feature",
      "properties": {
        "type": "stop",
        "stop_code": "20079",
        "stop_id": "020079",
        "name": "ΠΛ. ΕΛ. ΒΕΝΙΖΕΛΟΥ",
        "order": "26"
      },
      "geometry": {
        "type": "Point",
        "coordinates": [
          23.6709541,
          37.9571497
        ]
      }
    },
    {
      "type": "Feature",
      "properties": {
        "type": "stop",
        "stop_code": "20080",
        "stop_id": "020080",
        "name": "ΠΟΛΥΚΑΤΟΙΚΙΕΣ",
        "order": "27"
      },
      "geometry": {
        "type": "Point",
        "coordinates": [
          23.6726062,
          37.9597213
        ]
      }
    },
    {
      "type": "Feature",
      "properties": {
        "type": "stop",
        "stop_code": "20087",
        "stop_id": "020087",
        "name": "ΠΛ.ΑΓ. ΙΩΑΝΝΗ ΡΕΝΤΗ",
        "order": "28"
      },
      "geometry": {
        "type": "Point",
        "coordinates": [
          23.6742293,
          37.9621059
        ]
      }
    },
    {
      "type": "Feature",
      "properties": {
        "type": "stop",
        "stop_code": "20028",
        "stop_id": "020028",
        "name": "ΣΙΔΕΡΑ",
        "order": "29"
      },
      "geometry": {
        "type": "Point",
        "coordinates": [
          23.6716681,
          37.9633328
        ]
      }
    },
    {
      "type": "Feature",
      "properties": {
        "type": "stop",
        "stop_code": "20029",
        "stop_id": "020029",
        "name": "ΦΡΑΓΚΟΥ",
        "order": "30"
      },
      "geometry": {
        "type": "Point",
        "coordinates": [
          23.6709012,
          37.96425
        ]
      }
    },
    {
      "type": "Feature",
      "properties": {
        "type": "stop",
        "stop_code": "20063",
        "stop_id": "020063",
        "name": "ΑΡΑΠΗ",
        "order": "31"
      },
      "geometry": {
        "type": "Point",
        "coordinates": [
          23.671713,
          37.9660188
        ]
      }
    },
    {
      "type": "Feature",
      "properties": {
        "type": "stop",
        "stop_code": "20078",
        "stop_id": "020078",
        "name": "ΜΑΚΡΥΓΙΑΝΝΗ",
        "order": "32"
      },
      "geometry": {
        "type": "Point",
        "coordinates": [
          23.6674248,
          37.9662999
        ]
      }
    },
    {
      "type": "Feature",
      "properties": {
        "type": "stop",
        "stop_code": "20065",
        "stop_id": "020065",
        "name": "ΠΥΡΟΣΒΕΣΤΙΚΗ",
        "order": "33"
      },
      "geometry": {
        "type": "Point",
        "coordinates": [
          23.665055,
          37.9655854
        ]
      }
    },
    {
      "type": "Feature",
      "properties": {
        "type": "stop",
        "stop_code": "20082",
        "stop_id": "020082",
        "name": "2η ΜΑΚΡΥΓΙΑΝΝΗ",
        "order": "34"
      },
      "geometry": {
        "type": "Point",
        "coordinates": [
          23.6614053,
          37.9645745
        ]
      }
    },
    {
      "type": "Feature",
      "properties": {
        "type": "stop",
        "stop_code": "20061",
        "stop_id": "020061",
        "name": "1η ΜΑΚΡΥΓΙΑΝΝΗ",
        "order": "35"
      },
      "geometry": {
        "type": "Point",
        "coordinates": [
          23.6591771,
          37.9639011
        ]
      }
    },
    {
      "type": "Feature",
      "properties": {
        "type": "stop",
        "stop_code": "400231",
        "stop_id": "400231",
        "name": "ΣΤΡΟΦΗ ΚΟΚΚΙΝΙΑΣ",
        "order": "36"
      },
      "geometry": {
        "type": "Point",
        "coordinates": [
          23.6569543,
          37.9620651
        ]
      }
    },
    {
      "type": "Feature",
      "properties": {
        "type": "stop",
        "stop_code": "400232",
        "stop_id": "400232",
        "name": "ΕΛΛΗΝΙΣ",
        "order": "37"
      },
      "geometry": {
        "type": "Point",
        "coordinates": [
          23.6555379,
          37.9606549
        ]
      }
    },
    {
      "type": "Feature",
      "properties": {
        "type": "stop",
        "stop_code": "400471",
        "stop_id": "400471",
        "name": "ΜΕΤΑΜΟΡΦΩΣΕΩΣ",
        "order": "38"
      },
      "geometry": {
        "type": "Point",
        "coordinates": [
          23.6533699,
          37.9593147
        ]
      }
    },
    {
      "type": "Feature",
      "properties": {
        "type": "stop",
        "stop_code": "400435",
        "stop_id": "400435",
        "name": "ΚΟΡΥΤΣΑΣ",
        "order": "39"
      },
      "geometry": {
        "type": "Point",
        "coordinates": [
          23.6522838,
          37.9603119
        ]
      }
    },
    {
      "type": "Feature",
      "properties": {
        "type": "stop",
        "stop_code": "400436",
        "stop_id": "400436",
        "name": "ΛΕΒΑΔΕΙΑΣ",
        "order": "40"
      },
      "geometry": {
        "type": "Point",
        "coordinates": [
          23.6537799,
          37.9617043
        ]
      }
    },
    {
      "type": "Feature",
      "properties": {
        "type": "stop",
        "stop_code": "400230",
        "stop_id": "400230",
        "name": "ΑΓ. ΠΑΥΛΟΣ",
        "order": "41"
      },
      "geometry": {
        "type": "Point",
        "coordinates": [
          23.656734,
          37.9629207
        ]
      }
    },
    {
      "type": "Feature",
      "properties": {
        "type": "stop",
        "stop_code": "20067",
        "stop_id": "020067",
        "name": "1η ΜΑΚΡΥΓΙΑΝΝΗ",
        "order": "42"
      },
      "geometry": {
        "type": "Point",
        "coordinates": [
          23.6590421,
          37.9635493
        ]
      }
    },
    {
      "type": "Feature",
      "properties": {
        "type": "stop",
        "stop_code": "20068",
        "stop_id": "020068",
        "name": "2η ΜΑΚΡΥΓΙΑΝΝΗ",
        "order": "43"
      },
      "geometry": {
        "type": "Point",
        "coordinates": [
          23.6624756,
          37.9645325
        ]
      }
    },
    {
      "type": "Feature",
      "properties": {
        "type": "stop",
        "stop_code": "20069",
        "stop_id": "020069",
        "name": "ΠΥΡΟΣΒΕΣΤΙΚΗ",
        "order": "44"
      },
      "geometry": {
        "type": "Point",
        "coordinates": [
          23.6654664,
          37.9652531
        ]
      }
    },
    {
      "type": "Feature",
      "properties": {
        "type": "stop",
        "stop_code": "20070",
        "stop_id": "020070",
        "name": "1η ΘΕΣΣΑΛΟΝΙΚΗΣ",
        "order": "45"
      },
      "geometry": {
        "type": "Point",
        "coordinates": [
          23.6672771,
          37.965114
        ]
      }
    },
    {
      "type": "Feature",
      "properties": {
        "type": "stop",
        "stop_code": "20071",
        "stop_id": "020071",
        "name": "ΑΡΑΠΗ",
        "order": "46"
      },
      "geometry": {
        "type": "Point",
        "coordinates": [
          23.6714964,
          37.9660903
        ]
      }
    },
    {
      "type": "Feature",
      "properties": {
        "type": "stop",
        "stop_code": "20024",
        "stop_id": "020024",
        "name": "ΦΡΑΓΚΟΥ",
        "order": "47"
      },
      "geometry": {
        "type": "Point",
        "coordinates": [
          23.670672,
          37.9646008
        ]
      }
    },
    {
      "type": "Feature",
      "properties": {
        "type": "stop",
        "stop_code": "20025",
        "stop_id": "020025",
        "name": "ΣΙΔΕΡΑ",
        "order": "48"
      },
      "geometry": {
        "type": "Point",
        "coordinates": [
          23.67223,
          37.962406
        ]
      }
    },
    {
      "type": "Feature",
      "properties": {
        "type": "stop",
        "stop_code": "20041",
        "stop_id": "020041",
        "name": "ΠΛ. ΡΕΝΤΗ",
        "order": "49"
      },
      "geometry": {
        "type": "Point",
        "coordinates": [
          23.6735533,
          37.9617878
        ]
      }
    },
    {
      "type": "Feature",
      "properties": {
        "type": "stop",
        "stop_code": "20026",
        "stop_id": "020026",
        "name": "ΠΕΡΙΚΛΕΟΥΣ",
        "order": "50"
      },
      "geometry": {
        "type": "Point",
        "coordinates": [
          23.6724346,
          37.9599101
        ]
      }
    },
    {
      "type": "Feature",
      "properties": {
        "type": "stop",
        "stop_code": "20042",
        "stop_id": "020042",
        "name": "ΣΧΟΛΕΙΟ",
        "order": "51"
      },
      "geometry": {
        "type": "Point",
        "coordinates": [
          23.6707137,
          37.9578143
        ]
      }
    },
    {
      "type": "Feature",
      "properties": {
        "type": "stop",
        "stop_code": "20043",
        "stop_id": "020043",
        "name": "ΚΑΠΗ",
        "order": "52"
      },
      "geometry": {
        "type": "Point",
        "coordinates": [
          23.6701565,
          37.9551269
        ]
      }
    },
    {
      "type": "Feature",
      "properties": {
        "type": "stop",
        "stop_code": "400106",
        "stop_id": "400106",
        "name": "ΓΕΦΥΡΑ",
        "order": "53"
      },
      "geometry": {
        "type": "Point",
        "coordinates": [
          23.6727212,
          37.9543229
        ]
      }
    },
    {
      "type": "Feature",
      "properties": {
        "type": "stop",
        "stop_code": "320027",
        "stop_id": "320027",
        "name": "ΨΥΓΕΙΑ",
        "order": "54"
      },
      "geometry": {
        "type": "Point",
        "coordinates": [
          23.6751992,
          37.9550958
        ]
      }
    },
    {
      "type": "Feature",
      "properties": {
        "type": "stop",
        "stop_code": "320028",
        "stop_id": "320028",
        "name": "ΜΑΝΟΥ",
        "order": "55"
      },
      "geometry": {
        "type": "Point",
        "coordinates": [
          23.6778579,
          37.9559999
        ]
      }
    },
    {
      "type": "Feature",
      "properties": {
        "type": "stop",
        "stop_code": "320044",
        "stop_id": "320044",
        "name": "2η ΛΑΧΑΝΑΓΟΡΑ",
        "order": "56"
      },
      "geometry": {
        "type": "Point",
        "coordinates": [
          23.6810285,
          37.9588414
        ]
      }
    },
    {
      "type": "Feature",
      "properties": {
        "type": "stop",
        "stop_code": "320045",
        "stop_id": "320045",
        "name": "3η ΛΑΧΑΝΑΓΟΡΑ",
        "order": "57"
      },
      "geometry": {
        "type": "Point",
        "coordinates": [
          23.6835303,
          37.9611456
        ]
      }
    },
    {
      "type": "Feature",
      "properties": {
        "type": "stop",
        "stop_code": "320032",
        "stop_id": "320032",
        "name": "ΖΗΛΑΚΟΥ",
        "order": "58"
      },
      "geometry": {
        "type": "Point",
        "coordinates": [
          23.686931,
          37.9590359
        ]
      }
    },
    {
      "type": "Feature",
      "properties": {
        "type": "stop",
        "stop_code": "320033",
        "stop_id": "320033",
        "name": "ΥΦΑΝΤΗΡΙΑ",
        "order": "59"
      },
      "geometry": {
        "type": "Point",
        "coordinates": [
          23.6901196,
          37.9611206
        ]
      }
    },
    {
      "type": "Feature",
      "properties": {
        "type": "stop",
        "stop_code": "320034",
        "stop_id": "320034",
        "name": "ΒΙΟΧΑΛΚΟ",
        "order": "60"
      },
      "geometry": {
        "type": "Point",
        "coordinates": [
          23.6921311,
          37.9633762
        ]
      }
    },
    {
      "type": "Feature",
      "properties": {
        "type": "stop",
        "stop_code": "450013",
        "stop_id": "450013",
        "name": "ΣΦΑΓΕΙΑ",
        "order": "61"
      },
      "geometry": {
        "type": "Point",
        "coordinates": [
          23.6949608,
          37.9658831
        ]
      }
    },
    {
      "type": "Feature",
      "properties": {
        "type": "stop",
        "stop_code": "450014",
        "stop_id": "450014",
        "name": "ΤΑΥΡΟΣ",
        "order": "62"
      },
      "geometry": {
        "type": "Point",
        "coordinates": [
          23.6979014,
          37.9678194
        ]
      }
    },
    {
      "type": "Feature",
      "properties": {
        "type": "stop",
        "stop_code": "60290",
        "stop_id": "060290",
        "name": "ΕΡΓΩΝ",
        "order": "63"
      },
      "geometry": {
        "type": "Point",
        "coordinates": [
          23.7013332,
          37.9694054
        ]
      }
    },
    {
      "type": "Feature",
      "properties": {
        "type": "stop",
        "stop_code": "60291",
        "stop_id": "060291",
        "name": "ΕΛΟΥΛΟΥ",
        "order": "64"
      },
      "geometry": {
        "type": "Point",
        "coordinates": [
          23.7027879,
          37.970058
        ]
      }
    },
    {
      "type": "Feature",
      "properties": {
        "type": "stop",
        "stop_code": "60292",
        "stop_id": "060292",
        "name": "ΥΠΟΥΡΓΕΙΟ",
        "order": "65"
      },
      "geometry": {
        "type": "Point",
        "coordinates": [
          23.7048681,
          37.9715061
        ]
      }
    },
    {
      "type": "Feature",
      "properties": {
        "type": "stop",
        "stop_code": "60293",
        "stop_id": "060293",
        "name": "ΚΟΛΥΜΒΗΤΗΡΙΟ",
        "order": "66"
      },
      "geometry": {
        "type": "Point",
        "coordinates": [
          23.7085862,
          37.9740462
        ]
      }
    },
    {
      "type": "Feature",
      "properties": {
        "type": "stop",
        "stop_code": "60294",
        "stop_id": "060294",
        "name": "ΚΑΜΠΑ",
        "order": "67"
      },
      "geometry": {
        "type": "Point",
        "coordinates": [
          23.7102138,
          37.9751238
        ]
      }
    },
    {
      "type": "Feature",
      "properties": {
        "type": "stop",
        "stop_code": "60295",
        "stop_id": "060295",
        "name": "ΦΩΤΑΕΡΙΟ",
        "order": "68"
      },
      "geometry": {
        "type": "Point",
        "coordinates": [
          23.7127808,
          37.9767253
        ]
      }
    },
    {
      "type": "Feature",
      "properties": {
        "type": "stop",
        "stop_code": "60296",
        "stop_id": "060296",
        "name": "ΠΑΛ. ΑΓΟΡΑ",
        "order": "69"
      },
      "geometry": {
        "type": "Point",
        "coordinates": [
          23.7160909,
          37.9784672
        ]
      }
    },
    {
      "type": "Feature",
      "properties": {
        "type": "stop",
        "stop_code": "60297",
        "stop_id": "060297",
        "name": "ΑΣΩΜΑΤΩΝ",
        "order": "70"
      },
      "geometry": {
        "type": "Point",
        "coordinates": [
          23.7187806,
          37.9798943
        ]
      }
    },
    {
      "type": "Feature",
      "properties": {
        "type": "stop",
        "stop_code": "60298",
        "stop_id": "060298",
        "name": "ΙΚΑ",
        "order": "71"
      },
      "geometry": {
        "type": "Point",
        "coordinates": [
          23.7213953,
          37.9810182
        ]
      }
    },
    {
      "type": "Feature",
      "properties": {
        "type": "stop",
        "stop_code": "60299",
        "stop_id": "060299",
        "name": "ΩΔΕΙΟ",
        "order": "72"
      },
      "geometry": {
        "type": "Point",
        "coordinates": [
          23.7238491,
          37.9821511
        ]
      }
    },
    {
      "type": "Feature",
      "properties": {
        "type": "stop",
        "stop_code": "10409",
        "stop_id": "000190",
        "name": "ΟΜΟΝΟΙΑ",
        "order": "73"
      },
      "geometry": {
        "type": "Point",
        "coordinates": [
          23.727546,
          37.982386
        ]
      }
    }
  ]
}