{
  "type": "FeatureCollection",
  "features": [
    {
      "type": "Feature",
      "properties": {
        "type": "route_path",
        "route_code": "4678",
        "descr": "ΑΧΑΡΝΑΙ - ΣΤΑΘΜΟΣ ΛΑΡΙΣΗΣ"
      },
      "geometry": {
        "type": "LineString",
        "coordinates": [
          [
            23.73704,
            38.10297
          ],
          [
            23.73721,
            38.10229
          ],
          [
            23.73673,
            38.10223
          ],
          [
            23.73634,
            38.10336
          ],
          [
            23.73739,
            38.10418
          ],
          [
            23.73798,
            38.10471
          ],
          [
            23.73828,
            38.10446
          ],
          [
            23.74113,
            38.10236
          ],
          [
            23.74146,
            38.10216
          ],
          [
            23.74162,
            38.10201
          ],
          [
            23.74034,
            38.10013
          ],
          [
            23.73999,
            38.09938
          ],
          [
            23.7387,
            38.09562
          ],
          [
            23.73752,
            38.08989
          ],
          [
            23.73742,
            38.08976
          ],
          [
            23.73483,
            38.08967
          ],
          [
            23.73293,
            38.08924
          ],
          [
            23.73185,
            38.0887
          ],
          [
            23.7314,
            38.08831
          ],
          [
            23.73059,
            38.08731
          ],
          [
            23.73023,
            38.08587
          ],
          [
            23.73025,
            38.08339
          ],
          [
            23.73039,
            38.08313
          ],
          [
            23.7327,
            38.08259
          ],
          [
            23.73342,
            38.07875
          ],
          [
            23.73351,
            38.07845
          ],
          [
            23.7344,
            38.0785
          ],
          [
            23.7345,
            38.07843
          ],
          [
            23.73443,
            38.07825
          ],
          [
            23.73433,
            38.078
          ],
          [
            23.7345,
            38.07225
          ],
          [
            23.73284,
            38.06652
          ],
          [
            23.73154,
            38.06096
          ],
          [
            23.73083,
            38.05698
          ],
          [
            23.7288,
            38.04619
          ],
          [
            23.72854,
            38.0455
          ],
          [
            23.72422,
            38.03777
          ],
          [
            23.7238,
            38.03629
          ],
          [
            23.7206,
            38.0306
          ],
          [
            23.71868,
            38.02782
          ],
          [
            23.71831,
            38.02763
          ],
          [
            23.71778,
            38.02767
          ],
          [
            23.71762,
            38.02754
          ],
          [
            23.71774,
            38.02634
          ],
          [
            23.71783,
            38.02045
          ],
          [
            23.71801,
            38.01723
          ],
          [
            23.71864,
            38.01595
          ],
          [
            23.71884,
            38.01517
          ],
          [
            23.71913,
            38.01454
          ],
          [
            23.71968,
            38.01389
          ],
          [
            23.71981,
            38.01348
          ],
          [
            23.71981,
            38.01274
          ],
          [
            23.72142,
            38.00949
          ],
          [
            23.72214,
            38.00774
          ],
          [
            23.72239,
            38.00717
          ],
          [
            23.72237,
            38.00696
          ],
          [
            23.72236,
            38.00636
          ],
          [
            23.72184,
            38.00346
          ],
          [
            23.72203,
            38.00272
          ],
          [
            23.72225,
            38.00186
          ],
          [
            23.72237,
            37.99869
          ],
          [
            23.72208,
            37.9959
          ],
          [
            23.72162,
            37.99523
          ],
          [
            23.72147,
            37.99483
          ],
          [
            23.72122,
            37.99356
          ],
          [
            23.72117,
            37.99325
          ],
          [
            23.72111,
            37.99295
          ]
        ]
      }
    },
    {
      "type": "Feature",
      "properties": {
        "type": "stop",
        "stop_code": "12028",
        "stop_id": "420",
        "name": "A10-Β10 ΜΕΣΟΝΥΧΙ",
        "order": "1"
      },
      "geometry": {
        "type": "Point",
        "coordinates": [
          23.737999,
          38.104107
        ]
      }
    },
    {
      "type": "Feature",
      "properties": {
        "type": "stop",
        "stop_code": "130093",
        "stop_id": "130093",
        "name": "3η ΘΡΑΚΟΜΑΚΕΔΟΝΩΝ",
        "order": "2"
      },
      "geometry": {
        "type": "Point",
        "coordinates": [
          23.7413187,
          38.1018978
        ]
      }
    },
    {
      "type": "Feature",
      "properties": {
        "type": "stop",
        "stop_code": "130094",
        "stop_id": "130094",
        "name": "2η ΘΡΑΚΟΜΑΚΕΔΟΝΩΝ",
        "order": "3"
      },
      "geometry": {
        "type": "Point",
        "coordinates": [
          23.73972,
          38.0992446
        ]
      }
    },
    {
      "type": "Feature",
      "properties": {
        "type": "stop",
        "stop_code": "130095",
        "stop_id": "130095",
        "name": "1η ΘΡΑΚ/ΔΟΝΩΝ",
        "order": "4"
      },
      "geometry": {
        "type": "Point",
        "coordinates": [
          23.7389978,
          38.0970529
        ]
      }
    },
    {
      "type": "Feature",
      "properties": {
        "type": "stop",
        "stop_code": "130056",
        "stop_id": "130056",
        "name": "7η ΠΑΡΝΗΘΟΣ",
        "order": "5"
      },
      "geometry": {
        "type": "Point",
        "coordinates": [
          23.7385492,
          38.0953368
        ]
      }
    },
    {
      "type": "Feature",
      "properties": {
        "type": "stop",
        "stop_code": "130057",
        "stop_id": "130057",
        "name": "6η ΠΑΡΝΗΘΟΣ",
        "order": "6"
      },
      "geometry": {
        "type": "Point",
        "coordinates": [
          23.7377872,
          38.0916049
        ]
      }
    },
    {
      "type": "Feature",
      "properties": {
        "type": "stop",
        "stop_code": "130043",
        "stop_id": "130043",
        "name": "ΗΡΩΩΝ ΠΟΛΥΤΕΧΝΕΙΟΥ",
        "order": "7"
      },
      "geometry": {
        "type": "Point",
        "coordinates": [
          23.7372785,
          38.089893
        ]
      }
    },
    {
      "type": "Feature",
      "properties": {
        "type": "stop",
        "stop_code": "130059",
        "stop_id": "130059",
        "name": "Π. ΜΕΛΑ",
        "order": "8"
      },
      "geometry": {
        "type": "Point",
        "coordinates": [
          23.7348611,
          38.0898335
        ]
      }
    },
    {
      "type": "Feature",
      "properties": {
        "type": "stop",
        "stop_code": "130060",
        "stop_id": "130060",
        "name": "ΑΓ. ΓΕΩΡΓΙΟΥ",
        "order": "9"
      },
      "geometry": {
        "type": "Point",
        "coordinates": [
          23.7313538,
          38.0884556
        ]
      }
    },
    {
      "type": "Feature",
      "properties": {
        "type": "stop",
        "stop_code": "130061",
        "stop_id": "130061",
        "name": "Δ. ΔΕΔΕ",
        "order": "10"
      },
      "geometry": {
        "type": "Point",
        "coordinates": [
          23.7300183,
          38.0857127
        ]
      }
    },
    {
      "type": "Feature",
      "properties": {
        "type": "stop",
        "stop_code": "130115",
        "stop_id": "130115",
        "name": "ΠΑΛΑΙΟ ΚΟΙΜΗΤΗΡΙΟ",
        "order": "11"
      },
      "geometry": {
        "type": "Point",
        "coordinates": [
          23.7308531,
          38.0829586
        ]
      }
    },
    {
      "type": "Feature",
      "properties": {
        "type": "stop",
        "stop_code": "130013",
        "stop_id": "130013",
        "name": "ΚΑΡΑΒΟΣ",
        "order": "12"
      },
      "geometry": {
        "type": "Point",
        "coordinates": [
          23.7326549,
          38.0819063
        ]
      }
    },
    {
      "type": "Feature",
      "properties": {
        "type": "stop",
        "stop_code": "130014",
        "stop_id": "130014",
        "name": "ΛΙΟΣΙΩΝ",
        "order": "13"
      },
      "geometry": {
        "type": "Point",
        "coordinates": [
          23.7329799,
          38.0803118
        ]
      }
    },
    {
      "type": "Feature",
      "properties": {
        "type": "stop",
        "stop_code": "130015",
        "stop_id": "130015",
        "name": "ΗΡΩΟΝ",
        "order": "14"
      },
      "geometry": {
        "type": "Point",
        "coordinates": [
          23.7344122,
          38.0783954
        ]
      }
    },
    {
      "type": "Feature",
      "properties": {
        "type": "stop",
        "stop_code": "130016",
        "stop_id": "130016",
        "name": "17η ΜΕΝΙΔΙΟΥ",
        "order": "15"
      },
      "geometry": {
        "type": "Point",
        "coordinates": [
          23.7344015,
          38.0750246
        ]
      }
    },
    {
      "type": "Feature",
      "properties": {
        "type": "stop",
        "stop_code": "130017",
        "stop_id": "130017",
        "name": "16η ΜΕΝΙΔΙΟΥ",
        "order": "16"
      },
      "geometry": {
        "type": "Point",
        "coordinates": [
          23.7343282,
          38.0732399
        ]
      }
    },
    {
      "type": "Feature",
      "properties": {
        "type": "stop",
        "stop_code": "130018",
        "stop_id": "130018",
        "name": "ΤΕΛΩΝΕΙΟ",
        "order": "17"
      },
      "geometry": {
        "type": "Point",
        "coordinates": [
          23.7340617,
          38.0712745
        ]
      }
    },
    {
      "type": "Feature",
      "properties": {
        "type": "stop",
        "stop_code": "130166",
        "stop_id": "130166",
        "name": "ΑΤΤΙΚΗ ΟΔΟΣ",
        "order": "18"
      },
      "geometry": {
        "type": "Point",
        "coordinates": [
          23.7332743,
          38.0683436
        ]
      }
    },
    {
      "type": "Feature",
      "properties": {
        "type": "stop",
        "stop_code": "130149",
        "stop_id": "130149",
        "name": "ΚΥΚΛΑΔΩΝ",
        "order": "19"
      },
      "geometry": {
        "type": "Point",
        "coordinates": [
          23.7323639,
          38.0647635
        ]
      }
    },
    {
      "type": "Feature",
      "properties": {
        "type": "stop",
        "stop_code": "130022",
        "stop_id": "130022",
        "name": "11η ΜΕΝΙΔΙΟΥ",
        "order": "20"
      },
      "geometry": {
        "type": "Point",
        "coordinates": [
          23.7315517,
          38.0612988
        ]
      }
    },
    {
      "type": "Feature",
      "properties": {
        "type": "stop",
        "stop_code": "130023",
        "stop_id": "130023",
        "name": "10η ΜΕΝΙΔΙΟΥ",
        "order": "21"
      },
      "geometry": {
        "type": "Point",
        "coordinates": [
          23.7311186,
          38.0592809
        ]
      }
    },
    {
      "type": "Feature",
      "properties": {
        "type": "stop",
        "stop_code": "130190",
        "stop_id": "130190",
        "name": "ΑΓ. ΑΠΟΣΤΟΛΟΙ",
        "order": "22"
      },
      "geometry": {
        "type": "Point",
        "coordinates": [
          23.7307281,
          38.0569457
        ]
      }
    },
    {
      "type": "Feature",
      "properties": {
        "type": "stop",
        "stop_code": "130024",
        "stop_id": "130024",
        "name": "9η ΜΕΝΙΔΙΟΥ",
        "order": "23"
      },
      "geometry": {
        "type": "Point",
        "coordinates": [
          23.7303129,
          38.0551783
        ]
      }
    },
    {
      "type": "Feature",
      "properties": {
        "type": "stop",
        "stop_code": "250064",
        "stop_id": "250064",
        "name": "8η ΜΕΝΙΔΙΟΥ",
        "order": "24"
      },
      "geometry": {
        "type": "Point",
        "coordinates": [
          23.7297773,
          38.0520496
        ]
      }
    },
    {
      "type": "Feature",
      "properties": {
        "type": "stop",
        "stop_code": "250065",
        "stop_id": "250065",
        "name": "7η ΜΕΝΙΔΙΟΥ",
        "order": "25"
      },
      "geometry": {
        "type": "Point",
        "coordinates": [
          23.7291617,
          38.0489658
        ]
      }
    },
    {
      "type": "Feature",
      "properties": {
        "type": "stop",
        "stop_code": "360042",
        "stop_id": "360042",
        "name": "ΜΟΥΣΙΚΟ ΣΧΟΛΕΙΟ ΙΛΙΟΥ",
        "order": "26"
      },
      "geometry": {
        "type": "Point",
        "coordinates": [
          23.7284905,
          38.0455484
        ]
      }
    },
    {
      "type": "Feature",
      "properties": {
        "type": "stop",
        "stop_code": "360075",
        "stop_id": "360075",
        "name": "ΕΡΓΑΤΙΚΕΣ ΚΑΤΟΙΚΙΕΣ",
        "order": "27"
      },
      "geometry": {
        "type": "Point",
        "coordinates": [
          23.7271745,
          38.0432315
        ]
      }
    },
    {
      "type": "Feature",
      "properties": {
        "type": "stop",
        "stop_code": "360076",
        "stop_id": "360076",
        "name": "ΣΤ. ΠΡΟΑΣΤΙΑΚΟΥ ΠΥΡΓΟΣ ΒΑΣΙΛΙΣΣΗΣ",
        "order": "28"
      },
      "geometry": {
        "type": "Point",
        "coordinates": [
          23.7257615,
          38.0408284
        ]
      }
    },
    {
      "type": "Feature",
      "properties": {
        "type": "stop",
        "stop_code": "360101",
        "stop_id": "360101",
        "name": "ΝΕΚΡΟΤΑΦΕΙΟ",
        "order": "29"
      },
      "geometry": {
        "type": "Point",
        "coordinates": [
          23.7243496,
          38.0379538
        ]
      }
    },
    {
      "type": "Feature",
      "properties": {
        "type": "stop",
        "stop_code": "360102",
        "stop_id": "360102",
        "name": "MΗΤΕΡΑ",
        "order": "30"
      },
      "geometry": {
        "type": "Point",
        "coordinates": [
          23.7232741,
          38.0355772
        ]
      }
    },
    {
      "type": "Feature",
      "properties": {
        "type": "stop",
        "stop_code": "50054",
        "stop_id": "050054",
        "name": "ΓΕΦΥΡΑΚΙ",
        "order": "31"
      },
      "geometry": {
        "type": "Point",
        "coordinates": [
          23.7206482,
          38.0309023
        ]
      }
    },
    {
      "type": "Feature",
      "properties": {
        "type": "stop",
        "stop_code": "50039",
        "stop_id": "050039",
        "name": "ΕΜΠΟΡΙΚΟ ΚΕΝΤΡΟ",
        "order": "32"
      },
      "geometry": {
        "type": "Point",
        "coordinates": [
          23.7192091,
          38.0287989
        ]
      }
    },
    {
      "type": "Feature",
      "properties": {
        "type": "stop",
        "stop_code": "50006",
        "stop_id": "050006",
        "name": "ΑΓ.  ΑΝΑΡΓΥΡΩΝ",
        "order": "33"
      },
      "geometry": {
        "type": "Point",
        "coordinates": [
          23.7176915,
          38.0263889
        ]
      }
    },
    {
      "type": "Feature",
      "properties": {
        "type": "stop",
        "stop_code": "50007",
        "stop_id": "050007",
        "name": "301 ΕΡΓ.ΒΑΣΕΩΣ",
        "order": "34"
      },
      "geometry": {
        "type": "Point",
        "coordinates": [
          23.7177111,
          38.0242439
        ]
      }
    },
    {
      "type": "Feature",
      "properties": {
        "type": "stop",
        "stop_code": "50009",
        "stop_id": "050009",
        "name": "ΜΥΚΟΝΙΑΤΙΚΑ",
        "order": "35"
      },
      "geometry": {
        "type": "Point",
        "coordinates": [
          23.7177142,
          38.0204675
        ]
      }
    },
    {
      "type": "Feature",
      "properties": {
        "type": "stop",
        "stop_code": "61094",
        "stop_id": "061094",
        "name": "ΤΡΕΙΣ ΓΕΦΥΡΕΣ",
        "order": "36"
      },
      "geometry": {
        "type": "Point",
        "coordinates": [
          23.7191166,
          38.0145053
        ]
      }
    },
    {
      "type": "Feature",
      "properties": {
        "type": "stop",
        "stop_code": "61351",
        "stop_id": "061351",
        "name": "ΒΡΕΤΤΟΥ",
        "order": "37"
      },
      "geometry": {
        "type": "Point",
        "coordinates": [
          23.7199791,
          38.012082
        ]
      }
    },
    {
      "type": "Feature",
      "properties": {
        "type": "stop",
        "stop_code": "61352",
        "stop_id": "061352",
        "name": "ΠΡΑΚΤΟΡΕΙΑ",
        "order": "38"
      },
      "geometry": {
        "type": "Point",
        "coordinates": [
          23.7212072,
          38.0096695
        ]
      }
    },
    {
      "type": "Feature",
      "properties": {
        "type": "stop",
        "stop_code": "60144",
        "stop_id": "060144",
        "name": "ΙΚΑ",
        "order": "39"
      },
      "geometry": {
        "type": "Point",
        "coordinates": [
          23.7223086,
          38.0063969
        ]
      }
    },
    {
      "type": "Feature",
      "properties": {
        "type": "stop",
        "stop_code": "60145",
        "stop_id": "060145",
        "name": "ΘΥΜΑΡΑΚΙΑ",
        "order": "40"
      },
      "geometry": {
        "type": "Point",
        "coordinates": [
          23.7218034,
          38.0035384
        ]
      }
    },
    {
      "type": "Feature",
      "properties": {
        "type": "stop",
        "stop_code": "60146",
        "stop_id": "060146",
        "name": "ΣΤ. ΑΤΤΙΚΗ",
        "order": "41"
      },
      "geometry": {
        "type": "Point",
        "coordinates": [
          23.7223126,
          37.9993793
        ]
      }
    },
    {
      "type": "Feature",
      "properties": {
        "type": "stop",
        "stop_code": "60147",
        "stop_id": "060147",
        "name": "ΠΛ. ΑΤΤΙΚΗΣ",
        "order": "42"
      },
      "geometry": {
        "type": "Point",
        "coordinates": [
          23.7221651,
          37.9973242
        ]
      }
    },
    {
      "type": "Feature",
      "properties": {
        "type": "stop",
        "stop_code": "60006",
        "stop_id": "060006",
        "name": "ΔΟΜΟΚΟΥ",
        "order": "43"
      },
      "geometry": {
        "type": "Point",
        "coordinates": [
          23.7213665,
          37.9947918
        ]
      }
    },
    {
      "type": "Feature",
      "properties": {
        "type": "stop",
        "stop_code": "10213",
        "stop_id": "47",
        "name": "ΣΤ.  ΛΑΡΙΣΗΣ",
        "order": "44"
      },
      "geometry": {
        "type": "Point",
        "coordinates": [
          23.7212765,
          37.992455
        ]
      }
    }
  ]
}