{
  "type": "FeatureCollection",
  "features": [
    {
      "type": "Feature",
      "properties": {
        "type": "route_path",
        "route_code": "3758",
        "descr": "ΣΤΑΘΜΟΣ ΛΑΡΙΣΗΣ - ΑΧΑΡΝΑΙ [ΜΕΣΩ ΑΡΙΣΤΟΤΕΛΟΥΣ]"
      },
      "geometry": {
        "type": "LineString",
        "coordinates": [
          [
            23.7212,
            37.99328
          ],
          [
            23.72112,
            37.99277
          ],
          [
            23.72116,
            37.99261
          ],
          [
            23.72123,
            37.99239
          ],
          [
            23.7212,
            37.99208
          ],
          [
            23.72098,
            37.9917
          ],
          [
            23.72075,
            37.99133
          ],
          [
            23.72049,
            37.99096
          ],
          [
            23.72093,
            37.99089
          ],
          [
            23.72394,
            37.99075
          ],
          [
            23.72384,
            37.99097
          ],
          [
            23.72318,
            37.99272
          ],
          [
            23.72229,
            37.99595
          ],
          [
            23.72223,
            37.99683
          ],
          [
            23.72238,
            37.99873
          ],
          [
            23.72231,
            38.00159
          ],
          [
            23.72224,
            38.00203
          ],
          [
            23.7219,
            38.00341
          ],
          [
            23.72215,
            38.00462
          ],
          [
            23.72241,
            38.00625
          ],
          [
            23.72242,
            38.00695
          ],
          [
            23.7224,
            38.00716
          ],
          [
            23.72024,
            38.01196
          ],
          [
            23.72001,
            38.01237
          ],
          [
            23.71973,
            38.01303
          ],
          [
            23.71992,
            38.01379
          ],
          [
            23.71987,
            38.0139
          ],
          [
            23.71946,
            38.0143
          ],
          [
            23.71903,
            38.01497
          ],
          [
            23.71805,
            38.01748
          ],
          [
            23.71806,
            38.01832
          ],
          [
            23.7179,
            38.01981
          ],
          [
            23.71789,
            38.0201
          ],
          [
            23.71793,
            38.0206
          ],
          [
            23.71783,
            38.02639
          ],
          [
            23.71787,
            38.02653
          ],
          [
            23.71857,
            38.02761
          ],
          [
            23.71941,
            38.02896
          ],
          [
            23.7207,
            38.03072
          ],
          [
            23.72366,
            38.03593
          ],
          [
            23.72419,
            38.0373
          ],
          [
            23.72482,
            38.03863
          ],
          [
            23.72857,
            38.04544
          ],
          [
            23.72877,
            38.046
          ],
          [
            23.73196,
            38.06255
          ],
          [
            23.73355,
            38.06835
          ],
          [
            23.73451,
            38.07216
          ],
          [
            23.73452,
            38.07551
          ],
          [
            23.73432,
            38.07795
          ],
          [
            23.73458,
            38.07834
          ],
          [
            23.73451,
            38.0785
          ],
          [
            23.73406,
            38.07846
          ],
          [
            23.73348,
            38.07843
          ],
          [
            23.73269,
            38.08263
          ],
          [
            23.73028,
            38.08318
          ],
          [
            23.73024,
            38.086
          ],
          [
            23.73057,
            38.08735
          ],
          [
            23.73168,
            38.08857
          ],
          [
            23.73312,
            38.0893
          ],
          [
            23.73452,
            38.08963
          ],
          [
            23.73751,
            38.08976
          ],
          [
            23.73824,
            38.09289
          ],
          [
            23.73872,
            38.0957
          ],
          [
            23.73893,
            38.09625
          ],
          [
            23.73842,
            38.09693
          ],
          [
            23.7381,
            38.09755
          ],
          [
            23.73676,
            38.10207
          ],
          [
            23.7363,
            38.10329
          ],
          [
            23.73684,
            38.1036
          ],
          [
            23.73706,
            38.10291
          ],
          [
            23.73708,
            38.1028
          ]
        ]
      }
    },
    {
      "type": "Feature",
      "properties": {
        "type": "stop",
        "stop_code": "10398",
        "stop_id": "000183",
        "name": "ΣΤ. ΛΑΡΙΣΗΣ",
        "order": "1"
      },
      "geometry": {
        "type": "Point",
        "coordinates": [
          23.7212095,
          37.992707
        ]
      }
    },
    {
      "type": "Feature",
      "properties": {
        "type": "stop",
        "stop_code": "60061",
        "stop_id": "060061",
        "name": "ΛΙΟΣΙΩΝ",
        "order": "2"
      },
      "geometry": {
        "type": "Point",
        "coordinates": [
          23.7218141,
          37.990744
        ]
      }
    },
    {
      "type": "Feature",
      "properties": {
        "type": "stop",
        "stop_code": "60124",
        "stop_id": "060124",
        "name": "ΗΠΕΙΡΟΥ",
        "order": "3"
      },
      "geometry": {
        "type": "Point",
        "coordinates": [
          23.723756,
          37.9913537
        ]
      }
    },
    {
      "type": "Feature",
      "properties": {
        "type": "stop",
        "stop_code": "60125",
        "stop_id": "060125",
        "name": "ΠΑΙΩΝΙΟΥ",
        "order": "4"
      },
      "geometry": {
        "type": "Point",
        "coordinates": [
          23.7229066,
          37.9939642
        ]
      }
    },
    {
      "type": "Feature",
      "properties": {
        "type": "stop",
        "stop_code": "60126",
        "stop_id": "060126",
        "name": "ΠΛ. ΑΤΤΙΚΗΣ",
        "order": "5"
      },
      "geometry": {
        "type": "Point",
        "coordinates": [
          23.7222988,
          37.9971936
        ]
      }
    },
    {
      "type": "Feature",
      "properties": {
        "type": "stop",
        "stop_code": "60127",
        "stop_id": "060127",
        "name": "ΣΤ. ΑΤΤΙΚΗ",
        "order": "6"
      },
      "geometry": {
        "type": "Point",
        "coordinates": [
          23.7225795,
          37.9991638
        ]
      }
    },
    {
      "type": "Feature",
      "properties": {
        "type": "stop",
        "stop_code": "60128",
        "stop_id": "060128",
        "name": "ΑΓ. ΜΕΛΕΤΙΟΥ",
        "order": "7"
      },
      "geometry": {
        "type": "Point",
        "coordinates": [
          23.7222836,
          38.0021373
        ]
      }
    },
    {
      "type": "Feature",
      "properties": {
        "type": "stop",
        "stop_code": "60129",
        "stop_id": "060129",
        "name": "ΘΥΜΑΡΑΚΙΑ",
        "order": "8"
      },
      "geometry": {
        "type": "Point",
        "coordinates": [
          23.7221498,
          38.0043902
        ]
      }
    },
    {
      "type": "Feature",
      "properties": {
        "type": "stop",
        "stop_code": "60130",
        "stop_id": "060130",
        "name": "ΙΚΑ",
        "order": "9"
      },
      "geometry": {
        "type": "Point",
        "coordinates": [
          23.7224701,
          38.0070498
        ]
      }
    },
    {
      "type": "Feature",
      "properties": {
        "type": "stop",
        "stop_code": "60131",
        "stop_id": "060131",
        "name": "ΣΤ. ΥΠΕΡ/ΚΩΝ ΛΙΟΣΙΩΝ",
        "order": "10"
      },
      "geometry": {
        "type": "Point",
        "coordinates": [
          23.7211138,
          38.0102641
        ]
      }
    },
    {
      "type": "Feature",
      "properties": {
        "type": "stop",
        "stop_code": "60132",
        "stop_id": "060132",
        "name": "ΒΡΕΤΤΟΥ",
        "order": "11"
      },
      "geometry": {
        "type": "Point",
        "coordinates": [
          23.7202639,
          38.0120827
        ]
      }
    },
    {
      "type": "Feature",
      "properties": {
        "type": "stop",
        "stop_code": "60133",
        "stop_id": "060133",
        "name": "ΤΡΕΙΣ ΓΕΦΥΡΕΣ",
        "order": "12"
      },
      "geometry": {
        "type": "Point",
        "coordinates": [
          23.7194344,
          38.0145232
        ]
      }
    },
    {
      "type": "Feature",
      "properties": {
        "type": "stop",
        "stop_code": "50001",
        "stop_id": "050001",
        "name": "ΜΥΚΟΝΙΑΤΙΚΑ",
        "order": "13"
      },
      "geometry": {
        "type": "Point",
        "coordinates": [
          23.7179991,
          38.0204502
        ]
      }
    },
    {
      "type": "Feature",
      "properties": {
        "type": "stop",
        "stop_code": "50002",
        "stop_id": "050002",
        "name": "301 ΕΡΓ. ΒΑΣΕΩΣ",
        "order": "14"
      },
      "geometry": {
        "type": "Point",
        "coordinates": [
          23.7179842,
          38.0243347
        ]
      }
    },
    {
      "type": "Feature",
      "properties": {
        "type": "stop",
        "stop_code": "50089",
        "stop_id": "050089",
        "name": "ΕΜΠ.ΚΕΝΤΡΟ",
        "order": "15"
      },
      "geometry": {
        "type": "Point",
        "coordinates": [
          23.7194712,
          38.0287815
        ]
      }
    },
    {
      "type": "Feature",
      "properties": {
        "type": "stop",
        "stop_code": "50041",
        "stop_id": "050041",
        "name": "ΓΕΦΥΡΑΚΙ",
        "order": "16"
      },
      "geometry": {
        "type": "Point",
        "coordinates": [
          23.7213177,
          38.031625
        ]
      }
    },
    {
      "type": "Feature",
      "properties": {
        "type": "stop",
        "stop_code": "50087",
        "stop_id": "050087",
        "name": "ΔΙΑΚΟΥ",
        "order": "17"
      },
      "geometry": {
        "type": "Point",
        "coordinates": [
          23.7222573,
          38.0332495
        ]
      }
    },
    {
      "type": "Feature",
      "properties": {
        "type": "stop",
        "stop_code": "50042",
        "stop_id": "050042",
        "name": "ΜΗΤΕΡΑ",
        "order": "18"
      },
      "geometry": {
        "type": "Point",
        "coordinates": [
          23.7232987,
          38.0350905
        ]
      }
    },
    {
      "type": "Feature",
      "properties": {
        "type": "stop",
        "stop_code": "50043",
        "stop_id": "050043",
        "name": "ΝΕΚΡΟΤΑΦΕΙΟ",
        "order": "19"
      },
      "geometry": {
        "type": "Point",
        "coordinates": [
          23.7241914,
          38.0370878
        ]
      }
    },
    {
      "type": "Feature",
      "properties": {
        "type": "stop",
        "stop_code": "50044",
        "stop_id": "050044",
        "name": "ΣΤ. ΠΡΟΑΣΤΙΑΚΟΥ ΠΥΡΓΟΣ ΒΑΣΙΛΙΣΣΗΣ",
        "order": "20"
      },
      "geometry": {
        "type": "Point",
        "coordinates": [
          23.7259676,
          38.0405585
        ]
      }
    },
    {
      "type": "Feature",
      "properties": {
        "type": "stop",
        "stop_code": "50088",
        "stop_id": "050088",
        "name": "1η ΠΟΛΥΚΑΤΟΙΚΙΩΝ",
        "order": "21"
      },
      "geometry": {
        "type": "Point",
        "coordinates": [
          23.7275066,
          38.0434913
        ]
      }
    },
    {
      "type": "Feature",
      "properties": {
        "type": "stop",
        "stop_code": "50045",
        "stop_id": "050045",
        "name": "ΜΟΥΣΙΚΟ ΣΧΟΛΕΙΟ ΙΛΙΟΥ",
        "order": "22"
      },
      "geometry": {
        "type": "Point",
        "coordinates": [
          23.7286616,
          38.0455038
        ]
      }
    },
    {
      "type": "Feature",
      "properties": {
        "type": "stop",
        "stop_code": "50046",
        "stop_id": "050046",
        "name": "7η ΜΕΝΙΔΙΟΥ",
        "order": "23"
      },
      "geometry": {
        "type": "Point",
        "coordinates": [
          23.7294244,
          38.0488222
        ]
      }
    },
    {
      "type": "Feature",
      "properties": {
        "type": "stop",
        "stop_code": "50047",
        "stop_id": "050047",
        "name": "8η ΜΕΝΙΔΙΟΥ",
        "order": "24"
      },
      "geometry": {
        "type": "Point",
        "coordinates": [
          23.7300397,
          38.0519601
        ]
      }
    },
    {
      "type": "Feature",
      "properties": {
        "type": "stop",
        "stop_code": "130001",
        "stop_id": "130001",
        "name": "9η ΜΕΝΙΔΙΟΥ",
        "order": "25"
      },
      "geometry": {
        "type": "Point",
        "coordinates": [
          23.7307554,
          38.0557381
        ]
      }
    },
    {
      "type": "Feature",
      "properties": {
        "type": "stop",
        "stop_code": "130002",
        "stop_id": "130002",
        "name": "10η ΜΕΝΙΔΙΟΥ",
        "order": "26"
      },
      "geometry": {
        "type": "Point",
        "coordinates": [
          23.7311622,
          38.0578553
        ]
      }
    },
    {
      "type": "Feature",
      "properties": {
        "type": "stop",
        "stop_code": "130003",
        "stop_id": "130003",
        "name": "11η ΜΕΝΙΔΙΟΥ",
        "order": "27"
      },
      "geometry": {
        "type": "Point",
        "coordinates": [
          23.7318964,
          38.061653
        ]
      }
    },
    {
      "type": "Feature",
      "properties": {
        "type": "stop",
        "stop_code": "130004",
        "stop_id": "130004",
        "name": "ΚΥΚΛΑΔΩΝ",
        "order": "28"
      },
      "geometry": {
        "type": "Point",
        "coordinates": [
          23.73248,
          38.0641779
        ]
      }
    },
    {
      "type": "Feature",
      "properties": {
        "type": "stop",
        "stop_code": "130150",
        "stop_id": "130150",
        "name": "ΑΤΤΙΚΗ ΟΔΟΣ",
        "order": "29"
      },
      "geometry": {
        "type": "Point",
        "coordinates": [
          23.7336278,
          38.0682993
        ]
      }
    },
    {
      "type": "Feature",
      "properties": {
        "type": "stop",
        "stop_code": "130007",
        "stop_id": "130007",
        "name": "ΤΕΛΩΝΕΙΟ",
        "order": "30"
      },
      "geometry": {
        "type": "Point",
        "coordinates": [
          23.7346837,
          38.0726639
        ]
      }
    },
    {
      "type": "Feature",
      "properties": {
        "type": "stop",
        "stop_code": "130008",
        "stop_id": "130008",
        "name": "16η ΜΕΝΙΔΙΟΥ",
        "order": "31"
      },
      "geometry": {
        "type": "Point",
        "coordinates": [
          23.734646,
          38.0736372
        ]
      }
    },
    {
      "type": "Feature",
      "properties": {
        "type": "stop",
        "stop_code": "130009",
        "stop_id": "130009",
        "name": "17η ΜΕΝΙΔΙΟΥ",
        "order": "32"
      },
      "geometry": {
        "type": "Point",
        "coordinates": [
          23.7347429,
          38.0752146
        ]
      }
    },
    {
      "type": "Feature",
      "properties": {
        "type": "stop",
        "stop_code": "130010",
        "stop_id": "130010",
        "name": "ΗΡΩΟΝ",
        "order": "33"
      },
      "geometry": {
        "type": "Point",
        "coordinates": [
          23.7343886,
          38.0785936
        ]
      }
    },
    {
      "type": "Feature",
      "properties": {
        "type": "stop",
        "stop_code": "130011",
        "stop_id": "130011",
        "name": "ΛΙΟΣΙΩΝ",
        "order": "34"
      },
      "geometry": {
        "type": "Point",
        "coordinates": [
          23.7335094,
          38.0789492
        ]
      }
    },
    {
      "type": "Feature",
      "properties": {
        "type": "stop",
        "stop_code": "130012",
        "stop_id": "130012",
        "name": "ΚΑΡΑΒΟΣ",
        "order": "35"
      },
      "geometry": {
        "type": "Point",
        "coordinates": [
          23.7329055,
          38.081979
        ]
      }
    },
    {
      "type": "Feature",
      "properties": {
        "type": "stop",
        "stop_code": "130068",
        "stop_id": "130068",
        "name": "ΠΑΛΑΙΟ ΚΟΙΜΗΤΗΡΙΟ",
        "order": "36"
      },
      "geometry": {
        "type": "Point",
        "coordinates": [
          23.7310997,
          38.0831285
        ]
      }
    },
    {
      "type": "Feature",
      "properties": {
        "type": "stop",
        "stop_code": "130069",
        "stop_id": "130069",
        "name": "Δ. ΔΕΔΕ",
        "order": "37"
      },
      "geometry": {
        "type": "Point",
        "coordinates": [
          23.7304404,
          38.0856596
        ]
      }
    },
    {
      "type": "Feature",
      "properties": {
        "type": "stop",
        "stop_code": "130070",
        "stop_id": "130070",
        "name": "ΑΓ. ΓΕΩΡΓΙΟΥ",
        "order": "38"
      },
      "geometry": {
        "type": "Point",
        "coordinates": [
          23.7315486,
          38.0882037
        ]
      }
    },
    {
      "type": "Feature",
      "properties": {
        "type": "stop",
        "stop_code": "130071",
        "stop_id": "130071",
        "name": "Π. ΜΕΛΑ",
        "order": "39"
      },
      "geometry": {
        "type": "Point",
        "coordinates": [
          23.734486,
          38.0895172
        ]
      }
    },
    {
      "type": "Feature",
      "properties": {
        "type": "stop",
        "stop_code": "130297",
        "stop_id": "130297",
        "name": "ΗΡΩΩΝ ΠΟΛΥΤΕΧΝΕΙΟΥ",
        "order": "40"
      },
      "geometry": {
        "type": "Point",
        "coordinates": [
          23.7368575,
          38.0896217
        ]
      }
    },
    {
      "type": "Feature",
      "properties": {
        "type": "stop",
        "stop_code": "130029",
        "stop_id": "130029",
        "name": "5η ΠΑΡΝΗΘΟΣ",
        "order": "41"
      },
      "geometry": {
        "type": "Point",
        "coordinates": [
          23.7378861,
          38.0908662
        ]
      }
    },
    {
      "type": "Feature",
      "properties": {
        "type": "stop",
        "stop_code": "130030",
        "stop_id": "130030",
        "name": "6η ΠΑΡΝΗΘΟΣ",
        "order": "42"
      },
      "geometry": {
        "type": "Point",
        "coordinates": [
          23.7382584,
          38.0928262
        ]
      }
    },
    {
      "type": "Feature",
      "properties": {
        "type": "stop",
        "stop_code": "130031",
        "stop_id": "130031",
        "name": "7η ΠΑΡΝΗΘΟΣ",
        "order": "43"
      },
      "geometry": {
        "type": "Point",
        "coordinates": [
          23.7387884,
          38.0952807
        ]
      }
    },
    {
      "type": "Feature",
      "properties": {
        "type": "stop",
        "stop_code": "130032",
        "stop_id": "130032",
        "name": "8η ΠΑΡΝΗΘΟΣ",
        "order": "44"
      },
      "geometry": {
        "type": "Point",
        "coordinates": [
          23.7381627,
          38.0976883
        ]
      }
    },
    {
      "type": "Feature",
      "properties": {
        "type": "stop",
        "stop_code": "130266",
        "stop_id": "130266",
        "name": "ΔΕΗ",
        "order": "45"
      },
      "geometry": {
        "type": "Point",
        "coordinates": [
          23.7373155,
          38.1005858
        ]
      }
    },
    {
      "type": "Feature",
      "properties": {
        "type": "stop",
        "stop_code": "12028",
        "stop_id": "420",
        "name": "A10-Β10 ΜΕΣΟΝΥΧΙ",
        "order": "46"
      },
      "geometry": {
        "type": "Point",
        "coordinates": [
          23.737999,
          38.104107
        ]
      }
    }
  ]
}