{
  "type": "FeatureCollection",
  "features": [
    {
      "type": "Feature",
      "properties": {
        "type": "route_path",
        "route_code": "5517",
        "descr": "ΠΕΙΡΑΙΑΣ - ΒΟΥΛΑ [Προσωρινή λόγω έργων]"
      },
      "geometry": {
        "type": "LineString",
        "coordinates": [
          [
            23.63272,
            37.93851
          ],
          [
            23.6326,
            37.93851
          ],
          [
            23.63233,
            37.93833
          ],
          [
            23.63293,
            37.93608
          ],
          [
            23.63307,
            37.93538
          ],
          [
            23.63315,
            37.93525
          ],
          [
            23.63345,
            37.93525
          ],
          [
            23.64092,
            37.93647
          ],
          [
            23.64162,
            37.93666
          ],
          [
            23.64236,
            37.93751
          ],
          [
            23.64252,
            37.93764
          ],
          [
            23.64289,
            37.93816
          ],
          [
            23.64384,
            37.93934
          ],
          [
            23.64581,
            37.94159
          ],
          [
            23.64747,
            37.94344
          ],
          [
            23.64784,
            37.94389
          ],
          [
            23.64919,
            37.94307
          ],
          [
            23.6506,
            37.94235
          ],
          [
            23.65098,
            37.94225
          ],
          [
            23.65344,
            37.94498
          ],
          [
            23.65358,
            37.94517
          ],
          [
            23.65378,
            37.94537
          ],
          [
            23.65486,
            37.9448
          ],
          [
            23.65493,
            37.94473
          ],
          [
            23.65501,
            37.94431
          ],
          [
            23.65527,
            37.94399
          ],
          [
            23.65554,
            37.94378
          ],
          [
            23.65594,
            37.94362
          ],
          [
            23.65684,
            37.9435
          ],
          [
            23.6572,
            37.94341
          ],
          [
            23.65964,
            37.94378
          ],
          [
            23.66231,
            37.94425
          ],
          [
            23.66428,
            37.94408
          ],
          [
            23.66522,
            37.9441
          ],
          [
            23.66788,
            37.94408
          ],
          [
            23.67232,
            37.944
          ],
          [
            23.67465,
            37.94391
          ],
          [
            23.67625,
            37.94333
          ],
          [
            23.67949,
            37.94275
          ],
          [
            23.68223,
            37.94197
          ],
          [
            23.68576,
            37.94073
          ],
          [
            23.6887,
            37.93966
          ],
          [
            23.68959,
            37.93919
          ],
          [
            23.69075,
            37.93847
          ],
          [
            23.69132,
            37.93811
          ],
          [
            23.69207,
            37.93781
          ],
          [
            23.69311,
            37.93759
          ],
          [
            23.69407,
            37.93719
          ],
          [
            23.69467,
            37.93667
          ],
          [
            23.69491,
            37.93594
          ],
          [
            23.69497,
            37.93519
          ],
          [
            23.69489,
            37.93438
          ],
          [
            23.69401,
            37.93344
          ],
          [
            23.693,
            37.93292
          ],
          [
            23.69226,
            37.93272
          ],
          [
            23.69154,
            37.93267
          ],
          [
            23.69074,
            37.93256
          ],
          [
            23.68998,
            37.93244
          ],
          [
            23.68911,
            37.93235
          ],
          [
            23.68801,
            37.93194
          ],
          [
            23.68756,
            37.93153
          ],
          [
            23.68712,
            37.93084
          ],
          [
            23.68686,
            37.93028
          ],
          [
            23.6869,
            37.92949
          ],
          [
            23.68732,
            37.92878
          ],
          [
            23.68805,
            37.92825
          ],
          [
            23.68879,
            37.92794
          ],
          [
            23.68957,
            37.9275
          ],
          [
            23.69047,
            37.9265
          ],
          [
            23.692,
            37.92442
          ],
          [
            23.69331,
            37.92317
          ],
          [
            23.69411,
            37.92267
          ],
          [
            23.69873,
            37.9206
          ],
          [
            23.70016,
            37.91963
          ],
          [
            23.70067,
            37.91902
          ],
          [
            23.70106,
            37.91831
          ],
          [
            23.70165,
            37.91761
          ],
          [
            23.70246,
            37.91726
          ],
          [
            23.70343,
            37.91709
          ],
          [
            23.70436,
            37.91682
          ],
          [
            23.70511,
            37.91638
          ],
          [
            23.7086,
            37.91359
          ],
          [
            23.70927,
            37.91249
          ],
          [
            23.70989,
            37.91185
          ],
          [
            23.71135,
            37.91066
          ],
          [
            23.71217,
            37.91018
          ],
          [
            23.71346,
            37.90959
          ],
          [
            23.715,
            37.90865
          ],
          [
            23.71679,
            37.90693
          ],
          [
            23.7191,
            37.90412
          ],
          [
            23.71955,
            37.90334
          ],
          [
            23.71971,
            37.90186
          ],
          [
            23.71969,
            37.90028
          ],
          [
            23.71982,
            37.8995
          ],
          [
            23.72161,
            37.89353
          ],
          [
            23.72989,
            37.88073
          ],
          [
            23.73128,
            37.87729
          ],
          [
            23.73216,
            37.87586
          ],
          [
            23.74839,
            37.86173
          ],
          [
            23.75063,
            37.86022
          ],
          [
            23.75158,
            37.85904
          ],
          [
            23.75176,
            37.85756
          ],
          [
            23.75163,
            37.85406
          ],
          [
            23.75167,
            37.85355
          ],
          [
            23.75326,
            37.84825
          ],
          [
            23.75352,
            37.84763
          ],
          [
            23.75364,
            37.84761
          ],
          [
            23.76194,
            37.84838
          ],
          [
            23.7639,
            37.8482
          ],
          [
            23.76457,
            37.84794
          ],
          [
            23.76466,
            37.84786
          ],
          [
            23.76476,
            37.84772
          ],
          [
            23.76505,
            37.84756
          ],
          [
            23.76544,
            37.84689
          ],
          [
            23.76545,
            37.84617
          ],
          [
            23.76509,
            37.84542
          ],
          [
            23.76457,
            37.84479
          ],
          [
            23.76316,
            37.84374
          ],
          [
            23.76282,
            37.84336
          ],
          [
            23.76481,
            37.84168
          ],
          [
            23.76496,
            37.84146
          ],
          [
            23.76497,
            37.84122
          ],
          [
            23.76223,
            37.83914
          ],
          [
            23.76228,
            37.839
          ],
          [
            23.7637,
            37.83783
          ],
          [
            23.76452,
            37.83738
          ],
          [
            23.76931,
            37.83578
          ]
        ]
      }
    },
    {
      "type": "Feature",
      "properties": {
        "type": "stop",
        "stop_code": "10183",
        "stop_id": "25",
        "name": "ΠΕΙΡΑΙΑΣ",
        "order": "1"
      },
      "geometry": {
        "type": "Point",
        "coordinates": [
          23.6318845,
          37.9384348
        ]
      }
    },
    {
      "type": "Feature",
      "properties": {
        "type": "stop",
        "stop_code": "400191",
        "stop_id": "400191",
        "name": "ΚΛΕΙΣΟΒΗΣ",
        "order": "2"
      },
      "geometry": {
        "type": "Point",
        "coordinates": [
          23.6339296,
          37.9353172
        ]
      }
    },
    {
      "type": "Feature",
      "properties": {
        "type": "stop",
        "stop_code": "400050",
        "stop_id": "400050",
        "name": "ΣΚΑΛΑΚΙΑ",
        "order": "3"
      },
      "geometry": {
        "type": "Point",
        "coordinates": [
          23.6356152,
          37.9355661
        ]
      }
    },
    {
      "type": "Feature",
      "properties": {
        "type": "stop",
        "stop_code": "400051",
        "stop_id": "400051",
        "name": "ΓΟΥΒΑ",
        "order": "4"
      },
      "geometry": {
        "type": "Point",
        "coordinates": [
          23.6387536,
          37.9360625
        ]
      }
    },
    {
      "type": "Feature",
      "properties": {
        "type": "stop",
        "stop_code": "400201",
        "stop_id": "400201",
        "name": "ΣΧΟΛΕΙΑ",
        "order": "5"
      },
      "geometry": {
        "type": "Point",
        "coordinates": [
          23.6410961,
          37.9364121
        ]
      }
    },
    {
      "type": "Feature",
      "properties": {
        "type": "stop",
        "stop_code": "400052",
        "stop_id": "400052",
        "name": "ΒΡΥΩΝΗ",
        "order": "6"
      },
      "geometry": {
        "type": "Point",
        "coordinates": [
          23.6422636,
          37.9373711
        ]
      }
    },
    {
      "type": "Feature",
      "properties": {
        "type": "stop",
        "stop_code": "400023",
        "stop_id": "400023",
        "name": "ΦΙΛΕΛΛΗΝΩΝ",
        "order": "7"
      },
      "geometry": {
        "type": "Point",
        "coordinates": [
          23.6433046,
          37.9386
        ]
      }
    },
    {
      "type": "Feature",
      "properties": {
        "type": "stop",
        "stop_code": "400054",
        "stop_id": "400054",
        "name": "ΣΚΟΥΖΕ",
        "order": "8"
      },
      "geometry": {
        "type": "Point",
        "coordinates": [
          23.6442446,
          37.9395582
        ]
      }
    },
    {
      "type": "Feature",
      "properties": {
        "type": "stop",
        "stop_code": "400053",
        "stop_id": "400053",
        "name": "ΤΕΡΨΙΘΕΑ",
        "order": "9"
      },
      "geometry": {
        "type": "Point",
        "coordinates": [
          23.645139,
          37.9405163
        ]
      }
    },
    {
      "type": "Feature",
      "properties": {
        "type": "stop",
        "stop_code": "400080",
        "stop_id": "400080",
        "name": "ΠΛ. ΚΟΡΑΗ",
        "order": "10"
      },
      "geometry": {
        "type": "Point",
        "coordinates": [
          23.6459535,
          37.9415552
        ]
      }
    },
    {
      "type": "Feature",
      "properties": {
        "type": "stop",
        "stop_code": "400506",
        "stop_id": "400506",
        "name": "ΔΗΜΟΤΙΚΟ ΘΕΑΤΡΟ",
        "order": "11"
      },
      "geometry": {
        "type": "Point",
        "coordinates": [
          23.648175,
          37.9434546
        ]
      }
    },
    {
      "type": "Feature",
      "properties": {
        "type": "stop",
        "stop_code": "400507",
        "stop_id": "400507",
        "name": "ΚΟΥΝΤΟΥΡΙΩΤΟΥ",
        "order": "12"
      },
      "geometry": {
        "type": "Point",
        "coordinates": [
          23.6495784,
          37.9427197
        ]
      }
    },
    {
      "type": "Feature",
      "properties": {
        "type": "stop",
        "stop_code": "400058",
        "stop_id": "400058",
        "name": "ΒΕΝΙΖΕΛΟΥ",
        "order": "13"
      },
      "geometry": {
        "type": "Point",
        "coordinates": [
          23.6514936,
          37.9426629
        ]
      }
    },
    {
      "type": "Feature",
      "properties": {
        "type": "stop",
        "stop_code": "400059",
        "stop_id": "400059",
        "name": "ΕΥΑΓΓΕΛΙΣΤΡΙΑ",
        "order": "14"
      },
      "geometry": {
        "type": "Point",
        "coordinates": [
          23.6536753,
          37.9451833
        ]
      }
    },
    {
      "type": "Feature",
      "properties": {
        "type": "stop",
        "stop_code": "400073",
        "stop_id": "400073",
        "name": "ΤΖΑΒΕΛΛΑ",
        "order": "15"
      },
      "geometry": {
        "type": "Point",
        "coordinates": [
          23.6569387,
          37.9433903
        ]
      }
    },
    {
      "type": "Feature",
      "properties": {
        "type": "stop",
        "stop_code": "400323",
        "stop_id": "400323",
        "name": "17η ΣΤΑΣΗ",
        "order": "16"
      },
      "geometry": {
        "type": "Point",
        "coordinates": [
          23.6606693,
          37.9439059
        ]
      }
    },
    {
      "type": "Feature",
      "properties": {
        "type": "stop",
        "stop_code": "380091",
        "stop_id": "380091",
        "name": "ΦΟΡΟΣ",
        "order": "17"
      },
      "geometry": {
        "type": "Point",
        "coordinates": [
          23.6906035,
          37.9325961
        ]
      }
    },
    {
      "type": "Feature",
      "properties": {
        "type": "stop",
        "stop_code": "380048",
        "stop_id": "380048",
        "name": "ΟΥΛΕΝ",
        "order": "18"
      },
      "geometry": {
        "type": "Point",
        "coordinates": [
          23.6868116,
          37.9305221
        ]
      }
    },
    {
      "type": "Feature",
      "properties": {
        "type": "stop",
        "stop_code": "380049",
        "stop_id": "380049",
        "name": "ΤΡΟΚΑΝΤΕΡΟ",
        "order": "19"
      },
      "geometry": {
        "type": "Point",
        "coordinates": [
          23.6883493,
          37.9280643
        ]
      }
    },
    {
      "type": "Feature",
      "properties": {
        "type": "stop",
        "stop_code": "380050",
        "stop_id": "380050",
        "name": "ΦΛΟΙΣΒΟΣ",
        "order": "20"
      },
      "geometry": {
        "type": "Point",
        "coordinates": [
          23.6921982,
          37.9240199
        ]
      }
    },
    {
      "type": "Feature",
      "properties": {
        "type": "stop",
        "stop_code": "380051",
        "stop_id": "380051",
        "name": "ΠΑΛΜΥΡΑ",
        "order": "21"
      },
      "geometry": {
        "type": "Point",
        "coordinates": [
          23.6934774,
          37.9228606
        ]
      }
    },
    {
      "type": "Feature",
      "properties": {
        "type": "stop",
        "stop_code": "380052",
        "stop_id": "380052",
        "name": "ΜΠΑΤΗΣ",
        "order": "22"
      },
      "geometry": {
        "type": "Point",
        "coordinates": [
          23.6967263,
          37.9213368
        ]
      }
    },
    {
      "type": "Feature",
      "properties": {
        "type": "stop",
        "stop_code": "380054",
        "stop_id": "380054",
        "name": "ΕΔΕΜ",
        "order": "23"
      },
      "geometry": {
        "type": "Point",
        "coordinates": [
          23.7007997,
          37.9184901
        ]
      }
    },
    {
      "type": "Feature",
      "properties": {
        "type": "stop",
        "stop_code": "80002",
        "stop_id": "080002",
        "name": "1η ΚΑΛΑΜΑΚΙΟΥ",
        "order": "24"
      },
      "geometry": {
        "type": "Point",
        "coordinates": [
          23.7069119,
          37.9149634
        ]
      }
    },
    {
      "type": "Feature",
      "properties": {
        "type": "stop",
        "stop_code": "80003",
        "stop_id": "080003",
        "name": "2η ΚΑΛΑΜΑΚΙΟΥ",
        "order": "25"
      },
      "geometry": {
        "type": "Point",
        "coordinates": [
          23.7090481,
          37.9127335
        ]
      }
    },
    {
      "type": "Feature",
      "properties": {
        "type": "stop",
        "stop_code": "80004",
        "stop_id": "080004",
        "name": "3η ΚΑΛΑΜΑΚΙΟΥ",
        "order": "26"
      },
      "geometry": {
        "type": "Point",
        "coordinates": [
          23.7127454,
          37.9097863
        ]
      }
    },
    {
      "type": "Feature",
      "properties": {
        "type": "stop",
        "stop_code": "80005",
        "stop_id": "080005",
        "name": "4η ΚΑΛΑΜΑΚΙΟΥ",
        "order": "27"
      },
      "geometry": {
        "type": "Point",
        "coordinates": [
          23.7157223,
          37.9077837
        ]
      }
    },
    {
      "type": "Feature",
      "properties": {
        "type": "stop",
        "stop_code": "80006",
        "stop_id": "080006",
        "name": "5η ΚΑΛΑΜΑΚΙΟΥ",
        "order": "28"
      },
      "geometry": {
        "type": "Point",
        "coordinates": [
          23.7179383,
          37.9053825
        ]
      }
    },
    {
      "type": "Feature",
      "properties": {
        "type": "stop",
        "stop_code": "10781",
        "stop_id": "080043",
        "name": "ΑΛΙΜΟΥ",
        "order": "29"
      },
      "geometry": {
        "type": "Point",
        "coordinates": [
          23.7196429,
          37.901978
        ]
      }
    },
    {
      "type": "Feature",
      "properties": {
        "type": "stop",
        "stop_code": "590002",
        "stop_id": "590002",
        "name": "1η ΑΓ. ΚΟΣΜΑ",
        "order": "30"
      },
      "geometry": {
        "type": "Point",
        "coordinates": [
          23.720865,
          37.8954752
        ]
      }
    },
    {
      "type": "Feature",
      "properties": {
        "type": "stop",
        "stop_code": "590007",
        "stop_id": "590007",
        "name": "2η ΑΓ. ΚΟΣΜΑΣ",
        "order": "31"
      },
      "geometry": {
        "type": "Point",
        "coordinates": [
          23.7227226,
          37.8914598
        ]
      }
    },
    {
      "type": "Feature",
      "properties": {
        "type": "stop",
        "stop_code": "590008",
        "stop_id": "590008",
        "name": "1η ΕΛΛΗΝΙΚΟΥ",
        "order": "32"
      },
      "geometry": {
        "type": "Point",
        "coordinates": [
          23.7251705,
          37.8876711
        ]
      }
    },
    {
      "type": "Feature",
      "properties": {
        "type": "stop",
        "stop_code": "590009",
        "stop_id": "590009",
        "name": "2η ΕΛΛΗΝΙΚΟΥ",
        "order": "33"
      },
      "geometry": {
        "type": "Point",
        "coordinates": [
          23.7270801,
          37.8848454
        ]
      }
    },
    {
      "type": "Feature",
      "properties": {
        "type": "stop",
        "stop_code": "590011",
        "stop_id": "590011",
        "name": "4η ΕΛΛΗΝΙΚΟΥ",
        "order": "34"
      },
      "geometry": {
        "type": "Point",
        "coordinates": [
          23.7297563,
          37.8806966
        ]
      }
    },
    {
      "type": "Feature",
      "properties": {
        "type": "stop",
        "stop_code": "590057",
        "stop_id": "590057",
        "name": "ΚΟΛΛΕΓΙΟ",
        "order": "35"
      },
      "geometry": {
        "type": "Point",
        "coordinates": [
          23.7310588,
          37.8775846
        ]
      }
    },
    {
      "type": "Feature",
      "properties": {
        "type": "stop",
        "stop_code": "160159",
        "stop_id": "160159",
        "name": "ΔΙΚΗΓΟΡΙΚΑ",
        "order": "36"
      },
      "geometry": {
        "type": "Point",
        "coordinates": [
          23.7334163,
          37.8748285
        ]
      }
    },
    {
      "type": "Feature",
      "properties": {
        "type": "stop",
        "stop_code": "160160",
        "stop_id": "160160",
        "name": "2η ΓΛΥΦΑΔΑΣ",
        "order": "37"
      },
      "geometry": {
        "type": "Point",
        "coordinates": [
          23.7359031,
          37.8725898
        ]
      }
    },
    {
      "type": "Feature",
      "properties": {
        "type": "stop",
        "stop_code": "160161",
        "stop_id": "160161",
        "name": "3η ΓΛΥΦΑΔΑΣ",
        "order": "38"
      },
      "geometry": {
        "type": "Point",
        "coordinates": [
          23.7378761,
          37.8708908
        ]
      }
    },
    {
      "type": "Feature",
      "properties": {
        "type": "stop",
        "stop_code": "160163",
        "stop_id": "160163",
        "name": "5η ΓΛΥΦΑΔΑΣ",
        "order": "39"
      },
      "geometry": {
        "type": "Point",
        "coordinates": [
          23.7422674,
          37.8669077
        ]
      }
    },
    {
      "type": "Feature",
      "properties": {
        "type": "stop",
        "stop_code": "160165",
        "stop_id": "160165",
        "name": "ΠΛ.ΓΛΥΦΑΔΑΣ",
        "order": "40"
      },
      "geometry": {
        "type": "Point",
        "coordinates": [
          23.7462867,
          37.8632927
        ]
      }
    },
    {
      "type": "Feature",
      "properties": {
        "type": "stop",
        "stop_code": "160166",
        "stop_id": "160166",
        "name": "ΑΝΤΩΝΟΠΟΥΛΟΥ",
        "order": "41"
      },
      "geometry": {
        "type": "Point",
        "coordinates": [
          23.750738,
          37.8600129
        ]
      }
    },
    {
      "type": "Feature",
      "properties": {
        "type": "stop",
        "stop_code": "160168",
        "stop_id": "160168",
        "name": "ΑΣΤΕΡΙΑ",
        "order": "42"
      },
      "geometry": {
        "type": "Point",
        "coordinates": [
          23.7516703,
          37.856608
        ]
      }
    },
    {
      "type": "Feature",
      "properties": {
        "type": "stop",
        "stop_code": "530001",
        "stop_id": "530001",
        "name": "ΠΙΚΠΑ",
        "order": "43"
      },
      "geometry": {
        "type": "Point",
        "coordinates": [
          23.7516129,
          37.8533722
        ]
      }
    },
    {
      "type": "Feature",
      "properties": {
        "type": "stop",
        "stop_code": "530002",
        "stop_id": "530002",
        "name": "Α ΠΛΑΖ ΒΟΥΛΑΣ",
        "order": "44"
      },
      "geometry": {
        "type": "Point",
        "coordinates": [
          23.7524648,
          37.8501653
        ]
      }
    },
    {
      "type": "Feature",
      "properties": {
        "type": "stop",
        "stop_code": "530020",
        "stop_id": "530020",
        "name": "ΝΟΣΟΚΟΜΕΙΟ",
        "order": "45"
      },
      "geometry": {
        "type": "Point",
        "coordinates": [
          23.7546555,
          37.8476552
        ]
      }
    },
    {
      "type": "Feature",
      "properties": {
        "type": "stop",
        "stop_code": "530021",
        "stop_id": "530021",
        "name": "ΒΕΝΙΖΕΛΟΥ",
        "order": "46"
      },
      "geometry": {
        "type": "Point",
        "coordinates": [
          23.7586781,
          37.847988
        ]
      }
    },
    {
      "type": "Feature",
      "properties": {
        "type": "stop",
        "stop_code": "530022",
        "stop_id": "530022",
        "name": "ΓΑΛΗΝΟΥ",
        "order": "47"
      },
      "geometry": {
        "type": "Point",
        "coordinates": [
          23.761962,
          37.8483102
        ]
      }
    },
    {
      "type": "Feature",
      "properties": {
        "type": "stop",
        "stop_code": "530023",
        "stop_id": "530023",
        "name": "ΣΩΚΡΑΤΟΥΣ",
        "order": "48"
      },
      "geometry": {
        "type": "Point",
        "coordinates": [
          23.7641566,
          37.8480081
        ]
      }
    },
    {
      "type": "Feature",
      "properties": {
        "type": "stop",
        "stop_code": "530024",
        "stop_id": "530024",
        "name": "ΞΕΝΟΦΩΝΤΟΣ",
        "order": "49"
      },
      "geometry": {
        "type": "Point",
        "coordinates": [
          23.7648922,
          37.8454409
        ]
      }
    },
    {
      "type": "Feature",
      "properties": {
        "type": "stop",
        "stop_code": "530025",
        "stop_id": "530025",
        "name": "ΑΦΡΟΔΙΤΗΣ",
        "order": "50"
      },
      "geometry": {
        "type": "Point",
        "coordinates": [
          23.7630319,
          37.8430915
        ]
      }
    },
    {
      "type": "Feature",
      "properties": {
        "type": "stop",
        "stop_code": "530026",
        "stop_id": "530026",
        "name": "ΠΑΛ. ΤΕΡΜΑ",
        "order": "51"
      },
      "geometry": {
        "type": "Point",
        "coordinates": [
          23.7647124,
          37.8412314
        ]
      }
    },
    {
      "type": "Feature",
      "properties": {
        "type": "stop",
        "stop_code": "530109",
        "stop_id": "530109",
        "name": "ΝΗΡΕΩΣ",
        "order": "52"
      },
      "geometry": {
        "type": "Point",
        "coordinates": [
          23.7627962,
          37.8397945
        ]
      }
    },
    {
      "type": "Feature",
      "properties": {
        "type": "stop",
        "stop_code": "530006",
        "stop_id": "530006",
        "name": "ΓΑΛΗΝΗ",
        "order": "53"
      },
      "geometry": {
        "type": "Point",
        "coordinates": [
          23.7640765,
          37.8374807
        ]
      }
    },
    {
      "type": "Feature",
      "properties": {
        "type": "stop",
        "stop_code": "530108",
        "stop_id": "530108",
        "name": "ΤΕΡΜΑ - ΑΠΟΒΙΒΑΣΗ",
        "order": "54"
      },
      "geometry": {
        "type": "Point",
        "coordinates": [
          23.7683401,
          37.8360241
        ]
      }
    },
    {
      "type": "Feature",
      "properties": {
        "type": "stop",
        "stop_code": "10360",
        "stop_id": "000155",
        "name": "ΒΟΥΛΑ",
        "order": "55"
      },
      "geometry": {
        "type": "Point",
        "coordinates": [
          23.7693035,
          37.835243
        ]
      }
    }
  ]
}