{
  "type": "FeatureCollection",
  "features": [
    {
      "type": "Feature",
      "properties": {
        "type": "route_path",
        "route_code": "4897",
        "descr": "ΜΕΣΟΝΥΧΙ -ΑΓ.ΚΩΝΣΤΑΝΤΙΝΟΣ  - ΑΓ.ΠΑΡΑΣΚΕΥΗ [ΕΩΣ 6ο ΓΕΝ. Λ. ΑΧΑΡΝΩΝ - ΜΕΣΗΜΕΡΙ] [ΠΡΟΣΩΡΙΝΗ]"
      },
      "geometry": {
        "type": "LineString",
        "coordinates": [
          [
            23.73689,
            38.1025
          ],
          [
            23.73716,
            38.1024
          ],
          [
            23.73726,
            38.10213
          ],
          [
            23.74072,
            38.10227
          ],
          [
            23.74118,
            38.10225
          ],
          [
            23.7427,
            38.10123
          ],
          [
            23.74861,
            38.09693
          ],
          [
            23.75104,
            38.09528
          ],
          [
            23.75205,
            38.09451
          ],
          [
            23.75287,
            38.09571
          ],
          [
            23.7545,
            38.09795
          ],
          [
            23.7551,
            38.09877
          ],
          [
            23.75613,
            38.1
          ],
          [
            23.75976,
            38.10565
          ],
          [
            23.76064,
            38.10713
          ],
          [
            23.76114,
            38.11493
          ],
          [
            23.75997,
            38.11517
          ],
          [
            23.75659,
            38.11501
          ],
          [
            23.75589,
            38.12009
          ],
          [
            23.75985,
            38.12001
          ],
          [
            23.76042,
            38.11914
          ],
          [
            23.76205,
            38.11921
          ],
          [
            23.76198,
            38.11841
          ],
          [
            23.76217,
            38.11658
          ],
          [
            23.76237,
            38.1138
          ],
          [
            23.7624,
            38.11353
          ],
          [
            23.76232,
            38.11142
          ],
          [
            23.76388,
            38.11131
          ],
          [
            23.76611,
            38.11116
          ],
          [
            23.7663,
            38.11121
          ],
          [
            23.76636,
            38.11124
          ],
          [
            23.76645,
            38.11126
          ],
          [
            23.7665,
            38.11124
          ],
          [
            23.76656,
            38.1112
          ],
          [
            23.76657,
            38.11115
          ],
          [
            23.76659,
            38.1111
          ],
          [
            23.76656,
            38.11105
          ],
          [
            23.76648,
            38.11102
          ],
          [
            23.76642,
            38.111
          ],
          [
            23.76607,
            38.10804
          ],
          [
            23.7662,
            38.10798
          ],
          [
            23.76622,
            38.10788
          ],
          [
            23.76614,
            38.10778
          ],
          [
            23.76604,
            38.10775
          ],
          [
            23.7657,
            38.10504
          ],
          [
            23.76568,
            38.10479
          ],
          [
            23.76577,
            38.10475
          ],
          [
            23.7658,
            38.10466
          ],
          [
            23.76576,
            38.10457
          ],
          [
            23.76562,
            38.10454
          ],
          [
            23.76549,
            38.10467
          ],
          [
            23.76508,
            38.10472
          ],
          [
            23.76431,
            38.10476
          ],
          [
            23.76421,
            38.10502
          ],
          [
            23.7636,
            38.10738
          ],
          [
            23.76321,
            38.10855
          ],
          [
            23.76311,
            38.10922
          ],
          [
            23.76294,
            38.11006
          ],
          [
            23.76278,
            38.11032
          ],
          [
            23.76271,
            38.11067
          ],
          [
            23.76248,
            38.11144
          ],
          [
            23.76262,
            38.11388
          ],
          [
            23.76209,
            38.1194
          ],
          [
            23.76057,
            38.11944
          ],
          [
            23.75989,
            38.12032
          ],
          [
            23.75419,
            38.12019
          ],
          [
            23.75355,
            38.11933
          ],
          [
            23.75305,
            38.11919
          ],
          [
            23.75281,
            38.11662
          ],
          [
            23.75054,
            38.11371
          ],
          [
            23.7499,
            38.11221
          ],
          [
            23.7492,
            38.111
          ],
          [
            23.7495,
            38.10813
          ],
          [
            23.75021,
            38.10465
          ],
          [
            23.75014,
            38.10291
          ],
          [
            23.74988,
            38.1008
          ],
          [
            23.74912,
            38.09893
          ],
          [
            23.74843,
            38.09748
          ],
          [
            23.74541,
            38.0994
          ],
          [
            23.74229,
            38.10166
          ],
          [
            23.74118,
            38.10242
          ],
          [
            23.74066,
            38.10246
          ],
          [
            23.73964,
            38.10243
          ],
          [
            23.73824,
            38.10235
          ],
          [
            23.73673,
            38.10217
          ],
          [
            23.73636,
            38.10328
          ],
          [
            23.73525,
            38.10524
          ],
          [
            23.73319,
            38.10865
          ],
          [
            23.73137,
            38.11192
          ],
          [
            23.7313,
            38.1127
          ],
          [
            23.7312,
            38.11349
          ],
          [
            23.73088,
            38.11407
          ],
          [
            23.7305,
            38.11449
          ],
          [
            23.73038,
            38.11556
          ],
          [
            23.72986,
            38.11697
          ],
          [
            23.73004,
            38.11775
          ],
          [
            23.73024,
            38.11834
          ],
          [
            23.73042,
            38.11918
          ],
          [
            23.73079,
            38.12003
          ],
          [
            23.73103,
            38.12117
          ],
          [
            23.73092,
            38.12192
          ],
          [
            23.73064,
            38.12301
          ],
          [
            23.73064,
            38.12395
          ],
          [
            23.73366,
            38.12419
          ],
          [
            23.73404,
            38.12186
          ],
          [
            23.73441,
            38.1203
          ],
          [
            23.73524,
            38.11691
          ],
          [
            23.73564,
            38.11526
          ],
          [
            23.73575,
            38.11453
          ],
          [
            23.73575,
            38.11302
          ],
          [
            23.73577,
            38.11153
          ],
          [
            23.73575,
            38.11077
          ],
          [
            23.73571,
            38.10772
          ],
          [
            23.73525,
            38.1054
          ],
          [
            23.7364,
            38.10343
          ],
          [
            23.73673,
            38.10366
          ],
          [
            23.73691,
            38.10316
          ]
        ]
      }
    },
    {
      "type": "Feature",
      "properties": {
        "type": "stop",
        "stop_code": "10223",
        "stop_id": "57",
        "name": "ΑΧΑΡΝΑΙ",
        "order": "1"
      },
      "geometry": {
        "type": "Point",
        "coordinates": [
          23.736935,
          38.1031635
        ]
      }
    },
    {
      "type": "Feature",
      "properties": {
        "type": "stop",
        "stop_code": "130246",
        "stop_id": "130246",
        "name": "ΔΙΑΣΤΑΥΡΩΣΗ",
        "order": "2"
      },
      "geometry": {
        "type": "Point",
        "coordinates": [
          23.7422979,
          38.1015371
        ]
      }
    },
    {
      "type": "Feature",
      "properties": {
        "type": "stop",
        "stop_code": "130247",
        "stop_id": "130247",
        "name": "ΕΡΙΒΑΣ",
        "order": "3"
      },
      "geometry": {
        "type": "Point",
        "coordinates": [
          23.7450527,
          38.0994508
        ]
      }
    },
    {
      "type": "Feature",
      "properties": {
        "type": "stop",
        "stop_code": "130331",
        "stop_id": "130331",
        "name": "ΚΑΡΑΜΑΝΛΗ",
        "order": "4"
      },
      "geometry": {
        "type": "Point",
        "coordinates": [
          23.7479475,
          38.0973728
        ]
      }
    },
    {
      "type": "Feature",
      "properties": {
        "type": "stop",
        "stop_code": "130248",
        "stop_id": "130248",
        "name": "ΑΓ. ΤΡΙΑΔΑ",
        "order": "5"
      },
      "geometry": {
        "type": "Point",
        "coordinates": [
          23.7497934,
          38.0960679
        ]
      }
    },
    {
      "type": "Feature",
      "properties": {
        "type": "stop",
        "stop_code": "130239",
        "stop_id": "130239",
        "name": "Ν. ΚΑΡΒΑΛΗΣ",
        "order": "6"
      },
      "geometry": {
        "type": "Point",
        "coordinates": [
          23.753373,
          38.0962737
        ]
      }
    },
    {
      "type": "Feature",
      "properties": {
        "type": "stop",
        "stop_code": "130249",
        "stop_id": "130249",
        "name": "ΜΗΛΙΑΣ",
        "order": "7"
      },
      "geometry": {
        "type": "Point",
        "coordinates": [
          23.7552568,
          38.0989575
        ]
      }
    },
    {
      "type": "Feature",
      "properties": {
        "type": "stop",
        "stop_code": "130198",
        "stop_id": "130198",
        "name": "ΚΑΤΕΒΑΣΙΑΣ",
        "order": "8"
      },
      "geometry": {
        "type": "Point",
        "coordinates": [
          23.7564803,
          38.100708
        ]
      }
    },
    {
      "type": "Feature",
      "properties": {
        "type": "stop",
        "stop_code": "130108",
        "stop_id": "130108",
        "name": "ΑΜΑΞΟΣΤΑΣΙΟ",
        "order": "9"
      },
      "geometry": {
        "type": "Point",
        "coordinates": [
          23.7583503,
          38.1034786
        ]
      }
    },
    {
      "type": "Feature",
      "properties": {
        "type": "stop",
        "stop_code": "130240",
        "stop_id": "130240",
        "name": "ΣΠΟΡΑΔΩΝ",
        "order": "10"
      },
      "geometry": {
        "type": "Point",
        "coordinates": [
          23.7596746,
          38.1053615
        ]
      }
    },
    {
      "type": "Feature",
      "properties": {
        "type": "stop",
        "stop_code": "130294",
        "stop_id": "130294",
        "name": "ΥΓΕΙΑΣ",
        "order": "11"
      },
      "geometry": {
        "type": "Point",
        "coordinates": [
          23.7607195,
          38.1075718
        ]
      }
    },
    {
      "type": "Feature",
      "properties": {
        "type": "stop",
        "stop_code": "130250",
        "stop_id": "130250",
        "name": "ΕΣΤΙΑΣ",
        "order": "12"
      },
      "geometry": {
        "type": "Point",
        "coordinates": [
          23.7608766,
          38.1099811
        ]
      }
    },
    {
      "type": "Feature",
      "properties": {
        "type": "stop",
        "stop_code": "130241",
        "stop_id": "130241",
        "name": "ΑΦΟΠΛΙΣΜΟΥ",
        "order": "13"
      },
      "geometry": {
        "type": "Point",
        "coordinates": [
          23.7610403,
          38.1120163
        ]
      }
    },
    {
      "type": "Feature",
      "properties": {
        "type": "stop",
        "stop_code": "130242",
        "stop_id": "130242",
        "name": "ΜΠΙΖΑΝΙΟΥ",
        "order": "14"
      },
      "geometry": {
        "type": "Point",
        "coordinates": [
          23.7611809,
          38.1146439
        ]
      }
    },
    {
      "type": "Feature",
      "properties": {
        "type": "stop",
        "stop_code": "130243",
        "stop_id": "130243",
        "name": "ΝΑΟΥΣΗΣ",
        "order": "15"
      },
      "geometry": {
        "type": "Point",
        "coordinates": [
          23.75714,
          38.1151442
        ]
      }
    },
    {
      "type": "Feature",
      "properties": {
        "type": "stop",
        "stop_code": "130244",
        "stop_id": "130244",
        "name": "ΑΓΩΝΙΣΤΩΝ",
        "order": "16"
      },
      "geometry": {
        "type": "Point",
        "coordinates": [
          23.756323,
          38.1173308
        ]
      }
    },
    {
      "type": "Feature",
      "properties": {
        "type": "stop",
        "stop_code": "130306",
        "stop_id": "130306",
        "name": "ΡΟΥΜΕΛΗΣ",
        "order": "17"
      },
      "geometry": {
        "type": "Point",
        "coordinates": [
          23.7560462,
          38.1193764
        ]
      }
    },
    {
      "type": "Feature",
      "properties": {
        "type": "stop",
        "stop_code": "130467",
        "stop_id": "130467",
        "name": "3η ΟΛΥΜΠΙΑΚΟΥ ΧΩΡΙΟΥ ΙΓΜΕ",
        "order": "18"
      },
      "geometry": {
        "type": "Point",
        "coordinates": [
          23.7633751,
          38.1112492
        ]
      }
    },
    {
      "type": "Feature",
      "properties": {
        "type": "stop",
        "stop_code": "130286",
        "stop_id": "130286",
        "name": "4η ΟΛΥΜΠΙΑΚΟΥ ΧΩΡΙΟΥ",
        "order": "19"
      },
      "geometry": {
        "type": "Point",
        "coordinates": [
          23.7657774,
          38.1110339
        ]
      }
    },
    {
      "type": "Feature",
      "properties": {
        "type": "stop",
        "stop_code": "11129",
        "stop_id": "130352",
        "name": "5η ΟΛΥΜΠΙΑΚΟΥ ΧΩΡΙΟΥ",
        "order": "20"
      },
      "geometry": {
        "type": "Point",
        "coordinates": [
          23.7662554,
          38.1106052
        ]
      }
    },
    {
      "type": "Feature",
      "properties": {
        "type": "stop",
        "stop_code": "11130",
        "stop_id": "130353",
        "name": "6η ΟΛΥΜΠΙΑΚΟΥ ΧΩΡΙΟΥ",
        "order": "21"
      },
      "geometry": {
        "type": "Point",
        "coordinates": [
          23.7656918,
          38.106758
        ]
      }
    },
    {
      "type": "Feature",
      "properties": {
        "type": "stop",
        "stop_code": "11131",
        "stop_id": "130354",
        "name": "7η ΟΛΥΜΠΙΑΚΟΥ ΧΩΡΙΟΥ",
        "order": "22"
      },
      "geometry": {
        "type": "Point",
        "coordinates": [
          23.7656559,
          38.1058661
        ]
      }
    },
    {
      "type": "Feature",
      "properties": {
        "type": "stop",
        "stop_code": "130245",
        "stop_id": "130245",
        "name": "ΜΟΛΑΣ",
        "order": "23"
      },
      "geometry": {
        "type": "Point",
        "coordinates": [
          23.7528931,
          38.1191243
        ]
      }
    },
    {
      "type": "Feature",
      "properties": {
        "type": "stop",
        "stop_code": "130215",
        "stop_id": "130215",
        "name": "1η ΑΓ. ΚΩΝΣΤΑΝΤΙΝΟΥ",
        "order": "24"
      },
      "geometry": {
        "type": "Point",
        "coordinates": [
          23.752707,
          38.1167584
        ]
      }
    },
    {
      "type": "Feature",
      "properties": {
        "type": "stop",
        "stop_code": "130216",
        "stop_id": "130216",
        "name": "2η ΑΓ. ΚΩΝΣΤΑΝΤΙΝΟΥ",
        "order": "25"
      },
      "geometry": {
        "type": "Point",
        "coordinates": [
          23.750414,
          38.1138413
        ]
      }
    },
    {
      "type": "Feature",
      "properties": {
        "type": "stop",
        "stop_code": "130124",
        "stop_id": "130124",
        "name": "ΣΥΝΟΙΚΙΣΜΟΣ",
        "order": "26"
      },
      "geometry": {
        "type": "Point",
        "coordinates": [
          23.7499172,
          38.1123261
        ]
      }
    },
    {
      "type": "Feature",
      "properties": {
        "type": "stop",
        "stop_code": "130217",
        "stop_id": "130217",
        "name": "3η ΑΓ. ΚΩΝΣΤΑΝΤΙΝΟΥ",
        "order": "27"
      },
      "geometry": {
        "type": "Point",
        "coordinates": [
          23.7494314,
          38.1109371
        ]
      }
    },
    {
      "type": "Feature",
      "properties": {
        "type": "stop",
        "stop_code": "130218",
        "stop_id": "130218",
        "name": "4η ΑΓ. ΚΩΝΣΤΑΝΤΙΝΟΥ",
        "order": "28"
      },
      "geometry": {
        "type": "Point",
        "coordinates": [
          23.7494035,
          38.1082631
        ]
      }
    },
    {
      "type": "Feature",
      "properties": {
        "type": "stop",
        "stop_code": "130219",
        "stop_id": "130219",
        "name": "5η ΑΓ. ΚΩΝΣΤΑΝΤΙΝΟΥ",
        "order": "29"
      },
      "geometry": {
        "type": "Point",
        "coordinates": [
          23.7499576,
          38.1048723
        ]
      }
    },
    {
      "type": "Feature",
      "properties": {
        "type": "stop",
        "stop_code": "130132",
        "stop_id": "130132",
        "name": "ΕΡΕΣΣΟΥ",
        "order": "30"
      },
      "geometry": {
        "type": "Point",
        "coordinates": [
          23.7499485,
          38.1031603
        ]
      }
    },
    {
      "type": "Feature",
      "properties": {
        "type": "stop",
        "stop_code": "130220",
        "stop_id": "130220",
        "name": "6η ΑΓ. ΚΩΝΣΤΑΝΤΙΝΟΥ",
        "order": "31"
      },
      "geometry": {
        "type": "Point",
        "coordinates": [
          23.7498419,
          38.100961
        ]
      }
    },
    {
      "type": "Feature",
      "properties": {
        "type": "stop",
        "stop_code": "130138",
        "stop_id": "130138",
        "name": "7η ΑΓ. ΚΩΝΣΤΑΝΤΙΝΟΥ",
        "order": "32"
      },
      "geometry": {
        "type": "Point",
        "coordinates": [
          23.7491644,
          38.098922
        ]
      }
    },
    {
      "type": "Feature",
      "properties": {
        "type": "stop",
        "stop_code": "130096",
        "stop_id": "130096",
        "name": "ΚΑΡΑΜΑΝΛΗ",
        "order": "33"
      },
      "geometry": {
        "type": "Point",
        "coordinates": [
          23.7470221,
          38.0984224
        ]
      }
    },
    {
      "type": "Feature",
      "properties": {
        "type": "stop",
        "stop_code": "130311",
        "stop_id": "130311",
        "name": "ΕΡΙΒΑΣ",
        "order": "34"
      },
      "geometry": {
        "type": "Point",
        "coordinates": [
          23.7455128,
          38.0995186
        ]
      }
    },
    {
      "type": "Feature",
      "properties": {
        "type": "stop",
        "stop_code": "130222",
        "stop_id": "130222",
        "name": "ΔΙΑΣΤΑΥΡΩΣΗ ΘΡΑΚΟΜΑΚΕΔΟΝΩΝ",
        "order": "35"
      },
      "geometry": {
        "type": "Point",
        "coordinates": [
          23.7424453,
          38.101694
        ]
      }
    },
    {
      "type": "Feature",
      "properties": {
        "type": "stop",
        "stop_code": "130202",
        "stop_id": "130202",
        "name": "ΜΕΣΟΝΥΧΙΟΥ",
        "order": "36"
      },
      "geometry": {
        "type": "Point",
        "coordinates": [
          23.740665,
          38.1024553
        ]
      }
    },
    {
      "type": "Feature",
      "properties": {
        "type": "stop",
        "stop_code": "130322",
        "stop_id": "130322",
        "name": "ΤΕΡΜΑ - ΑΠΟΒΙΒΑΣΗ",
        "order": "37"
      },
      "geometry": {
        "type": "Point",
        "coordinates": [
          23.7377015,
          38.1023675
        ]
      }
    },
    {
      "type": "Feature",
      "properties": {
        "type": "stop",
        "stop_code": "130223",
        "stop_id": "130223",
        "name": "1η ΜΕΣΟΝΥΧΙΟΥ",
        "order": "38"
      },
      "geometry": {
        "type": "Point",
        "coordinates": [
          23.734459,
          38.1064159
        ]
      }
    },
    {
      "type": "Feature",
      "properties": {
        "type": "stop",
        "stop_code": "130451",
        "stop_id": "130451",
        "name": "ΑΤΛΑΝΤΟΣ",
        "order": "39"
      },
      "geometry": {
        "type": "Point",
        "coordinates": [
          23.7325883,
          38.1095751
        ]
      }
    },
    {
      "type": "Feature",
      "properties": {
        "type": "stop",
        "stop_code": "130225",
        "stop_id": "130225",
        "name": "3η ΜΕΣΟΝΥΧΙΟΥ",
        "order": "40"
      },
      "geometry": {
        "type": "Point",
        "coordinates": [
          23.7317837,
          38.1110292
        ]
      }
    },
    {
      "type": "Feature",
      "properties": {
        "type": "stop",
        "stop_code": "130226",
        "stop_id": "130226",
        "name": "4η ΜΕΣΟΝΥΧΙΟΥ",
        "order": "41"
      },
      "geometry": {
        "type": "Point",
        "coordinates": [
          23.7312075,
          38.1137428
        ]
      }
    },
    {
      "type": "Feature",
      "properties": {
        "type": "stop",
        "stop_code": "130227",
        "stop_id": "130227",
        "name": "5η ΜΕΣΟΝΥΧΙΟΥ",
        "order": "42"
      },
      "geometry": {
        "type": "Point",
        "coordinates": [
          23.730343,
          38.115652
        ]
      }
    },
    {
      "type": "Feature",
      "properties": {
        "type": "stop",
        "stop_code": "130228",
        "stop_id": "130228",
        "name": "6η ΜΕΣΟΝΥΧΙΟΥ",
        "order": "43"
      },
      "geometry": {
        "type": "Point",
        "coordinates": [
          23.730265,
          38.1178795
        ]
      }
    },
    {
      "type": "Feature",
      "properties": {
        "type": "stop",
        "stop_code": "130229",
        "stop_id": "130229",
        "name": "7η ΜΕΣΟΝΥΧΙΟΥ",
        "order": "44"
      },
      "geometry": {
        "type": "Point",
        "coordinates": [
          23.7308854,
          38.1198006
        ]
      }
    },
    {
      "type": "Feature",
      "properties": {
        "type": "stop",
        "stop_code": "130230",
        "stop_id": "130230",
        "name": "8η ΜΕΣΟΝΥΧΙΟΥ",
        "order": "45"
      },
      "geometry": {
        "type": "Point",
        "coordinates": [
          23.7308537,
          38.1225528
        ]
      }
    },
    {
      "type": "Feature",
      "properties": {
        "type": "stop",
        "stop_code": "130231",
        "stop_id": "130231",
        "name": "9η ΜΕΣΟΝΥΧΙΟΥ",
        "order": "46"
      },
      "geometry": {
        "type": "Point",
        "coordinates": [
          23.7319733,
          38.1240062
        ]
      }
    },
    {
      "type": "Feature",
      "properties": {
        "type": "stop",
        "stop_code": "130050",
        "stop_id": "130050",
        "name": "15η ΠΑΡΝΗΘΟΣ",
        "order": "47"
      },
      "geometry": {
        "type": "Point",
        "coordinates": [
          23.7337031,
          38.1229885
        ]
      }
    },
    {
      "type": "Feature",
      "properties": {
        "type": "stop",
        "stop_code": "130051",
        "stop_id": "130051",
        "name": "14η ΠΑΡΝΗΘΟΣ",
        "order": "48"
      },
      "geometry": {
        "type": "Point",
        "coordinates": [
          23.7341452,
          38.1206282
        ]
      }
    },
    {
      "type": "Feature",
      "properties": {
        "type": "stop",
        "stop_code": "130052",
        "stop_id": "130052",
        "name": "13η ΠΑΡΝΗΘΟΣ",
        "order": "49"
      },
      "geometry": {
        "type": "Point",
        "coordinates": [
          23.7347126,
          38.1183132
        ]
      }
    },
    {
      "type": "Feature",
      "properties": {
        "type": "stop",
        "stop_code": "130053",
        "stop_id": "130053",
        "name": "12η ΠΑΡΝΗΘΟΣ",
        "order": "50"
      },
      "geometry": {
        "type": "Point",
        "coordinates": [
          23.7355859,
          38.1151532
        ]
      }
    },
    {
      "type": "Feature",
      "properties": {
        "type": "stop",
        "stop_code": "130109",
        "stop_id": "130109",
        "name": "ΟΤΕ",
        "order": "51"
      },
      "geometry": {
        "type": "Point",
        "coordinates": [
          23.7356446,
          38.1129438
        ]
      }
    },
    {
      "type": "Feature",
      "properties": {
        "type": "stop",
        "stop_code": "130054",
        "stop_id": "130054",
        "name": "11η ΠΑΡΝΗΘΟΣ",
        "order": "52"
      },
      "geometry": {
        "type": "Point",
        "coordinates": [
          23.7356753,
          38.1107447
        ]
      }
    },
    {
      "type": "Feature",
      "properties": {
        "type": "stop",
        "stop_code": "130055",
        "stop_id": "130055",
        "name": "10η ΠΑΡΝΗΘΟΣ",
        "order": "53"
      },
      "geometry": {
        "type": "Point",
        "coordinates": [
          23.7353478,
          38.1066703
        ]
      }
    },
    {
      "type": "Feature",
      "properties": {
        "type": "stop",
        "stop_code": "10223",
        "stop_id": "57",
        "name": "ΑΧΑΡΝΑΙ",
        "order": "54"
      },
      "geometry": {
        "type": "Point",
        "coordinates": [
          23.736935,
          38.1031635
        ]
      }
    }
  ]
}