{
  "type": "FeatureCollection",
  "features": [
    {
      "type": "Feature",
      "properties": {
        "type": "route_path",
        "route_code": "2980",
        "descr": "ΣΤ. ΛΑΡΙΣΗΣ - ΔΑΣΟΣ"
      },
      "geometry": {
        "type": "LineString",
        "coordinates": [
          [
            23.72127,
            37.99235
          ],
          [
            23.72104,
            37.99174
          ],
          [
            23.72058,
            37.99112
          ],
          [
            23.72031,
            37.9904
          ],
          [
            23.71997,
            37.98885
          ],
          [
            23.71991,
            37.98803
          ],
          [
            23.72133,
            37.98594
          ],
          [
            23.72105,
            37.98535
          ],
          [
            23.72019,
            37.98509
          ],
          [
            23.71594,
            37.98418
          ],
          [
            23.71482,
            37.98421
          ],
          [
            23.71185,
            37.98484
          ],
          [
            23.71126,
            37.9851
          ],
          [
            23.70924,
            37.98631
          ],
          [
            23.70787,
            37.98729
          ],
          [
            23.70375,
            37.99011
          ],
          [
            23.70057,
            37.99232
          ],
          [
            23.69223,
            37.99783
          ],
          [
            23.69013,
            37.99932
          ],
          [
            23.68953,
            37.99957
          ],
          [
            23.68592,
            38.00138
          ],
          [
            23.67901,
            38.00381
          ],
          [
            23.66697,
            38.01177
          ],
          [
            23.66567,
            38.01239
          ],
          [
            23.66474,
            38.01265
          ],
          [
            23.66315,
            38.01269
          ],
          [
            23.65666,
            38.01261
          ],
          [
            23.65529,
            38.01244
          ],
          [
            23.64967,
            38.01074
          ],
          [
            23.64872,
            38.01068
          ],
          [
            23.64821,
            38.01077
          ],
          [
            23.64817,
            38.01089
          ],
          [
            23.65022,
            38.01523
          ],
          [
            23.64718,
            38.01613
          ],
          [
            23.64586,
            38.01654
          ],
          [
            23.6466,
            38.01801
          ],
          [
            23.64771,
            38.02015
          ],
          [
            23.64787,
            38.02023
          ],
          [
            23.64773,
            38.02045
          ],
          [
            23.64722,
            38.02108
          ],
          [
            23.64756,
            38.02149
          ],
          [
            23.6482,
            38.02193
          ]
        ]
      }
    },
    {
      "type": "Feature",
      "properties": {
        "type": "stop",
        "stop_code": "10213",
        "stop_id": "47",
        "name": "ΣΤ.  ΛΑΡΙΣΗΣ",
        "order": "1"
      },
      "geometry": {
        "type": "Point",
        "coordinates": [
          23.7212765,
          37.992455
        ]
      }
    },
    {
      "type": "Feature",
      "properties": {
        "type": "stop",
        "stop_code": "60028",
        "stop_id": "060028",
        "name": "ΑΓ. ΠΑΥΛΟΣ",
        "order": "2"
      },
      "geometry": {
        "type": "Point",
        "coordinates": [
          23.7200303,
          37.9896402
        ]
      }
    },
    {
      "type": "Feature",
      "properties": {
        "type": "stop",
        "stop_code": "60195",
        "stop_id": "060195",
        "name": "ΠΕΡΟΚΕ",
        "order": "3"
      },
      "geometry": {
        "type": "Point",
        "coordinates": [
          23.7208622,
          37.9864787
        ]
      }
    },
    {
      "type": "Feature",
      "properties": {
        "type": "stop",
        "stop_code": "60242",
        "stop_id": "060242",
        "name": "ΜΕΤΑΞΟΥΡΓΕΙΟ",
        "order": "4"
      },
      "geometry": {
        "type": "Point",
        "coordinates": [
          23.7200813,
          37.985215
        ]
      }
    },
    {
      "type": "Feature",
      "properties": {
        "type": "stop",
        "stop_code": "60243",
        "stop_id": "060243",
        "name": "ΑΧΙΛΛΕΩΣ",
        "order": "5"
      },
      "geometry": {
        "type": "Point",
        "coordinates": [
          23.7174869,
          37.9846951
        ]
      }
    },
    {
      "type": "Feature",
      "properties": {
        "type": "stop",
        "stop_code": "60923",
        "stop_id": "060923",
        "name": "ΣΠΥΡΟΥ ΠΑΤΣΗ",
        "order": "6"
      },
      "geometry": {
        "type": "Point",
        "coordinates": [
          23.7092585,
          37.9864055
        ]
      }
    },
    {
      "type": "Feature",
      "properties": {
        "type": "stop",
        "stop_code": "60249",
        "stop_id": "060249",
        "name": "ΓΑΡΔΕΝΙΑ",
        "order": "7"
      },
      "geometry": {
        "type": "Point",
        "coordinates": [
          23.7079612,
          37.9872782
        ]
      }
    },
    {
      "type": "Feature",
      "properties": {
        "type": "stop",
        "stop_code": "60250",
        "stop_id": "060250",
        "name": "ΣΑΡΑΚΑΚΗ",
        "order": "8"
      },
      "geometry": {
        "type": "Point",
        "coordinates": [
          23.7058742,
          37.9887423
        ]
      }
    },
    {
      "type": "Feature",
      "properties": {
        "type": "stop",
        "stop_code": "60251",
        "stop_id": "060251",
        "name": "ΟΠΑΠ",
        "order": "9"
      },
      "geometry": {
        "type": "Point",
        "coordinates": [
          23.7039823,
          37.9901417
        ]
      }
    },
    {
      "type": "Feature",
      "properties": {
        "type": "stop",
        "stop_code": "60252",
        "stop_id": "060252",
        "name": "ΠΑΛΙΑΤΖΙΔΙΚΑ",
        "order": "10"
      },
      "geometry": {
        "type": "Point",
        "coordinates": [
          23.7004343,
          37.9924133
        ]
      }
    },
    {
      "type": "Feature",
      "properties": {
        "type": "stop",
        "stop_code": "420125",
        "stop_id": "420125",
        "name": "ΒΙΑΜΑΞ",
        "order": "11"
      },
      "geometry": {
        "type": "Point",
        "coordinates": [
          23.6904253,
          37.9991386
        ]
      }
    },
    {
      "type": "Feature",
      "properties": {
        "type": "stop",
        "stop_code": "420126",
        "stop_id": "420126",
        "name": "ΘΗΒΩΝ",
        "order": "12"
      },
      "geometry": {
        "type": "Point",
        "coordinates": [
          23.6846389,
          38.0019175
        ]
      }
    },
    {
      "type": "Feature",
      "properties": {
        "type": "stop",
        "stop_code": "420127",
        "stop_id": "420127",
        "name": "ΣΚΑΛΑΚΙΑ",
        "order": "13"
      },
      "geometry": {
        "type": "Point",
        "coordinates": [
          23.6810274,
          38.0031103
        ]
      }
    },
    {
      "type": "Feature",
      "properties": {
        "type": "stop",
        "stop_code": "420128",
        "stop_id": "420128",
        "name": "ΠΑΝ/ΜΙΟ ΔΥΤΙΚΗΣ ΑΤΤΙΚΗΣ - ΠΑΝ/ΠΟΛΗ ΑΛΣΟΥΣ ΑΙΓΑΛΕΩ",
        "order": "14"
      },
      "geometry": {
        "type": "Point",
        "coordinates": [
          23.6769715,
          38.0052482
        ]
      }
    },
    {
      "type": "Feature",
      "properties": {
        "type": "stop",
        "stop_code": "420129",
        "stop_id": "420129",
        "name": "ΠΗΓΑΔΑΚΙ",
        "order": "15"
      },
      "geometry": {
        "type": "Point",
        "coordinates": [
          23.6750131,
          38.0065177
        ]
      }
    },
    {
      "type": "Feature",
      "properties": {
        "type": "stop",
        "stop_code": "470001",
        "stop_id": "470001",
        "name": "ΚΑΜΠΙΝΓΚ",
        "order": "16"
      },
      "geometry": {
        "type": "Point",
        "coordinates": [
          23.6713787,
          38.0089449
        ]
      }
    },
    {
      "type": "Feature",
      "properties": {
        "type": "stop",
        "stop_code": "470002",
        "stop_id": "470002",
        "name": "ΕΛΑΙΩΝ",
        "order": "17"
      },
      "geometry": {
        "type": "Point",
        "coordinates": [
          23.6694547,
          38.0102251
        ]
      }
    },
    {
      "type": "Feature",
      "properties": {
        "type": "stop",
        "stop_code": "470004",
        "stop_id": "470004",
        "name": "ΠΑΛΑΤΑΚΙ",
        "order": "18"
      },
      "geometry": {
        "type": "Point",
        "coordinates": [
          23.6657077,
          38.012454
        ]
      }
    },
    {
      "type": "Feature",
      "properties": {
        "type": "stop",
        "stop_code": "470005",
        "stop_id": "470005",
        "name": "ΚΕΔ",
        "order": "19"
      },
      "geometry": {
        "type": "Point",
        "coordinates": [
          23.663029,
          38.0128069
        ]
      }
    },
    {
      "type": "Feature",
      "properties": {
        "type": "stop",
        "stop_code": "470127",
        "stop_id": "470127",
        "name": "ΟΤΕ - ΔΗΜΑΡΧΕΙΟ",
        "order": "20"
      },
      "geometry": {
        "type": "Point",
        "coordinates": [
          23.6600787,
          38.0127623
        ]
      }
    },
    {
      "type": "Feature",
      "properties": {
        "type": "stop",
        "stop_code": "470006",
        "stop_id": "470006",
        "name": "ΔΗΜΑΡΧΕΙΟ",
        "order": "21"
      },
      "geometry": {
        "type": "Point",
        "coordinates": [
          23.6570144,
          38.0127534
        ]
      }
    },
    {
      "type": "Feature",
      "properties": {
        "type": "stop",
        "stop_code": "470007",
        "stop_id": "470007",
        "name": "ΜΥΛΩΝΑ",
        "order": "22"
      },
      "geometry": {
        "type": "Point",
        "coordinates": [
          23.6532249,
          38.0119222
        ]
      }
    },
    {
      "type": "Feature",
      "properties": {
        "type": "stop",
        "stop_code": "470008",
        "stop_id": "470008",
        "name": "ΦΟΥΡΝΟΣ",
        "order": "23"
      },
      "geometry": {
        "type": "Point",
        "coordinates": [
          23.6502672,
          38.0109828
        ]
      }
    },
    {
      "type": "Feature",
      "properties": {
        "type": "stop",
        "stop_code": "470009",
        "stop_id": "470009",
        "name": "ΣΤΡΟΦΗ",
        "order": "24"
      },
      "geometry": {
        "type": "Point",
        "coordinates": [
          23.6484273,
          38.0112382
        ]
      }
    },
    {
      "type": "Feature",
      "properties": {
        "type": "stop",
        "stop_code": "470010",
        "stop_id": "470010",
        "name": "ΚΟΝΤΟΛΕΟΝΤΟΣ",
        "order": "25"
      },
      "geometry": {
        "type": "Point",
        "coordinates": [
          23.6492111,
          38.0127484
        ]
      }
    },
    {
      "type": "Feature",
      "properties": {
        "type": "stop",
        "stop_code": "470011",
        "stop_id": "470011",
        "name": "ΠΑΛ. ΤΕΡΜΑ",
        "order": "26"
      },
      "geometry": {
        "type": "Point",
        "coordinates": [
          23.649665,
          38.0155077
        ]
      }
    },
    {
      "type": "Feature",
      "properties": {
        "type": "stop",
        "stop_code": "470012",
        "stop_id": "470012",
        "name": "ΚΥΠΡΙΩΝ ΑΓΩΝΙΣΤΩΝ",
        "order": "27"
      },
      "geometry": {
        "type": "Point",
        "coordinates": [
          23.6478739,
          38.0160341
        ]
      }
    },
    {
      "type": "Feature",
      "properties": {
        "type": "stop",
        "stop_code": "470015",
        "stop_id": "470015",
        "name": "ΚΑΛΑΒΡΥΤΩΝ",
        "order": "28"
      },
      "geometry": {
        "type": "Point",
        "coordinates": [
          23.6461722,
          38.0169303
        ]
      }
    },
    {
      "type": "Feature",
      "properties": {
        "type": "stop",
        "stop_code": "470132",
        "stop_id": "470132",
        "name": "Γ. ΠΑΠΑΝΔΡΕΟΥ",
        "order": "29"
      },
      "geometry": {
        "type": "Point",
        "coordinates": [
          23.6477864,
          38.0200355
        ]
      }
    },
    {
      "type": "Feature",
      "properties": {
        "type": "stop",
        "stop_code": "10214",
        "stop_id": "48",
        "name": "ΔΑΣΟΣ",
        "order": "30"
      },
      "geometry": {
        "type": "Point",
        "coordinates": [
          23.6480645,
          38.0215975
        ]
      }
    }
  ]
}