{
  "type": "FeatureCollection",
  "features": [
    {
      "type": "Feature",
      "properties": {
        "type": "route_path",
        "route_code": "5536",
        "descr": "ΠΕΙΡΑΙΑΣ - ΑΓ. ΔΗΜΗΤΡΙΟΣ -ΣΤ. ΔΑΦΝΗ [Προσωρινή λόγω έργων]"
      },
      "geometry": {
        "type": "LineString",
        "coordinates": [
          [
            23.63318,
            37.9383
          ],
          [
            23.63403,
            37.93784
          ],
          [
            23.63443,
            37.93752
          ],
          [
            23.63604,
            37.9367
          ],
          [
            23.63651,
            37.9366
          ],
          [
            23.6394,
            37.93703
          ],
          [
            23.63959,
            37.93716
          ],
          [
            23.63939,
            37.93792
          ],
          [
            23.63935,
            37.93838
          ],
          [
            23.63952,
            37.93874
          ],
          [
            23.64017,
            37.93925
          ],
          [
            23.64197,
            37.9413
          ],
          [
            23.64241,
            37.94154
          ],
          [
            23.64473,
            37.94031
          ],
          [
            23.64496,
            37.94049
          ],
          [
            23.64776,
            37.94383
          ],
          [
            23.64813,
            37.94363
          ],
          [
            23.64825,
            37.94356
          ],
          [
            23.65068,
            37.94224
          ],
          [
            23.65094,
            37.94215
          ],
          [
            23.65338,
            37.94494
          ],
          [
            23.65385,
            37.94535
          ],
          [
            23.65461,
            37.9449
          ],
          [
            23.65495,
            37.94462
          ],
          [
            23.65532,
            37.94391
          ],
          [
            23.65603,
            37.94358
          ],
          [
            23.65694,
            37.94344
          ],
          [
            23.65729,
            37.94342
          ],
          [
            23.66206,
            37.94423
          ],
          [
            23.66302,
            37.94419
          ],
          [
            23.66453,
            37.94411
          ],
          [
            23.66569,
            37.94411
          ],
          [
            23.66807,
            37.94408
          ],
          [
            23.66933,
            37.94397
          ],
          [
            23.6722,
            37.94402
          ],
          [
            23.6743,
            37.94397
          ],
          [
            23.67648,
            37.94336
          ],
          [
            23.67762,
            37.94312
          ],
          [
            23.67904,
            37.94289
          ],
          [
            23.68302,
            37.94218
          ],
          [
            23.68708,
            37.94035
          ],
          [
            23.69013,
            37.93901
          ],
          [
            23.69117,
            37.93831
          ],
          [
            23.69203,
            37.93792
          ],
          [
            23.69321,
            37.93788
          ],
          [
            23.69417,
            37.93831
          ],
          [
            23.69489,
            37.93917
          ],
          [
            23.69558,
            37.94026
          ],
          [
            23.69723,
            37.94149
          ],
          [
            23.69946,
            37.94312
          ],
          [
            23.69967,
            37.94324
          ],
          [
            23.69998,
            37.94301
          ],
          [
            23.70049,
            37.94263
          ],
          [
            23.70076,
            37.94238
          ],
          [
            23.70077,
            37.93998
          ],
          [
            23.7008,
            37.9398
          ],
          [
            23.7009,
            37.93763
          ],
          [
            23.70168,
            37.9327
          ],
          [
            23.7021,
            37.93121
          ],
          [
            23.70336,
            37.92828
          ],
          [
            23.70347,
            37.92793
          ],
          [
            23.70596,
            37.92216
          ],
          [
            23.71153,
            37.92216
          ],
          [
            23.71242,
            37.92199
          ],
          [
            23.7127,
            37.92151
          ],
          [
            23.71288,
            37.92142
          ],
          [
            23.71315,
            37.92144
          ],
          [
            23.71339,
            37.92162
          ],
          [
            23.71366,
            37.92177
          ],
          [
            23.71542,
            37.9221
          ],
          [
            23.71713,
            37.92243
          ],
          [
            23.71978,
            37.92345
          ],
          [
            23.72578,
            37.92702
          ],
          [
            23.72598,
            37.92752
          ],
          [
            23.7265,
            37.9295
          ],
          [
            23.72667,
            37.92994
          ],
          [
            23.72676,
            37.93017
          ],
          [
            23.72831,
            37.9333
          ],
          [
            23.72962,
            37.93592
          ],
          [
            23.72967,
            37.93612
          ],
          [
            23.73054,
            37.93768
          ],
          [
            23.7312,
            37.93911
          ],
          [
            23.73128,
            37.9394
          ],
          [
            23.73157,
            37.94015
          ],
          [
            23.7313,
            37.94081
          ],
          [
            23.73128,
            37.941
          ],
          [
            23.73293,
            37.94281
          ],
          [
            23.73326,
            37.94349
          ],
          [
            23.7369,
            37.94807
          ],
          [
            23.7373,
            37.94872
          ],
          [
            23.73663,
            37.94919
          ],
          [
            23.73646,
            37.94896
          ]
        ]
      }
    },
    {
      "type": "Feature",
      "properties": {
        "type": "stop",
        "stop_code": "10183",
        "stop_id": "25",
        "name": "ΠΕΙΡΑΙΑΣ",
        "order": "1"
      },
      "geometry": {
        "type": "Point",
        "coordinates": [
          23.6318845,
          37.9384348
        ]
      }
    },
    {
      "type": "Feature",
      "properties": {
        "type": "stop",
        "stop_code": "400276",
        "stop_id": "400276",
        "name": "ΤΕΛΩΝΕΙΟ",
        "order": "2"
      },
      "geometry": {
        "type": "Point",
        "coordinates": [
          23.6388979,
          37.936802
        ]
      }
    },
    {
      "type": "Feature",
      "properties": {
        "type": "stop",
        "stop_code": "400277",
        "stop_id": "400277",
        "name": "ΑΓ. ΝΙΚΟΛΑΟΣ",
        "order": "3"
      },
      "geometry": {
        "type": "Point",
        "coordinates": [
          23.6405796,
          37.9396552
        ]
      }
    },
    {
      "type": "Feature",
      "properties": {
        "type": "stop",
        "stop_code": "400196",
        "stop_id": "400196",
        "name": "2ας ΜΕΡΑΡΧΙΑΣ (ΟΛΥΜΠΙΑΚΗ)",
        "order": "4"
      },
      "geometry": {
        "type": "Point",
        "coordinates": [
          23.6419154,
          37.9411194
        ]
      }
    },
    {
      "type": "Feature",
      "properties": {
        "type": "stop",
        "stop_code": "400503",
        "stop_id": "400503",
        "name": "2ας ΜΕΡΑΡΧΙΑΣ",
        "order": "5"
      },
      "geometry": {
        "type": "Point",
        "coordinates": [
          23.6431448,
          37.941051
        ]
      }
    },
    {
      "type": "Feature",
      "properties": {
        "type": "stop",
        "stop_code": "400053",
        "stop_id": "400053",
        "name": "ΤΕΡΨΙΘΕΑ",
        "order": "6"
      },
      "geometry": {
        "type": "Point",
        "coordinates": [
          23.645139,
          37.9405163
        ]
      }
    },
    {
      "type": "Feature",
      "properties": {
        "type": "stop",
        "stop_code": "400080",
        "stop_id": "400080",
        "name": "ΠΛ. ΚΟΡΑΗ",
        "order": "7"
      },
      "geometry": {
        "type": "Point",
        "coordinates": [
          23.6459535,
          37.9415552
        ]
      }
    },
    {
      "type": "Feature",
      "properties": {
        "type": "stop",
        "stop_code": "400506",
        "stop_id": "400506",
        "name": "ΔΗΜΟΤΙΚΟ ΘΕΑΤΡΟ",
        "order": "8"
      },
      "geometry": {
        "type": "Point",
        "coordinates": [
          23.648175,
          37.9434546
        ]
      }
    },
    {
      "type": "Feature",
      "properties": {
        "type": "stop",
        "stop_code": "400507",
        "stop_id": "400507",
        "name": "ΚΟΥΝΤΟΥΡΙΩΤΟΥ",
        "order": "9"
      },
      "geometry": {
        "type": "Point",
        "coordinates": [
          23.6495784,
          37.9427197
        ]
      }
    },
    {
      "type": "Feature",
      "properties": {
        "type": "stop",
        "stop_code": "400058",
        "stop_id": "400058",
        "name": "ΒΕΝΙΖΕΛΟΥ",
        "order": "10"
      },
      "geometry": {
        "type": "Point",
        "coordinates": [
          23.6514936,
          37.9426629
        ]
      }
    },
    {
      "type": "Feature",
      "properties": {
        "type": "stop",
        "stop_code": "400059",
        "stop_id": "400059",
        "name": "ΕΥΑΓΓΕΛΙΣΤΡΙΑ",
        "order": "11"
      },
      "geometry": {
        "type": "Point",
        "coordinates": [
          23.6536753,
          37.9451833
        ]
      }
    },
    {
      "type": "Feature",
      "properties": {
        "type": "stop",
        "stop_code": "400073",
        "stop_id": "400073",
        "name": "ΤΖΑΒΕΛΛΑ",
        "order": "12"
      },
      "geometry": {
        "type": "Point",
        "coordinates": [
          23.6569387,
          37.9433903
        ]
      }
    },
    {
      "type": "Feature",
      "properties": {
        "type": "stop",
        "stop_code": "400323",
        "stop_id": "400323",
        "name": "17η ΣΤΑΣΗ",
        "order": "13"
      },
      "geometry": {
        "type": "Point",
        "coordinates": [
          23.6606693,
          37.9439059
        ]
      }
    },
    {
      "type": "Feature",
      "properties": {
        "type": "stop",
        "stop_code": "380066",
        "stop_id": "380066",
        "name": "ΩΝΑΣΕΙΟ",
        "order": "14"
      },
      "geometry": {
        "type": "Point",
        "coordinates": [
          23.6991631,
          37.9428447
        ]
      }
    },
    {
      "type": "Feature",
      "properties": {
        "type": "stop",
        "stop_code": "380001",
        "stop_id": "380001",
        "name": "ΠΕΝΤΕΛΗΣ",
        "order": "15"
      },
      "geometry": {
        "type": "Point",
        "coordinates": [
          23.7006925,
          37.9421185
        ]
      }
    },
    {
      "type": "Feature",
      "properties": {
        "type": "stop",
        "stop_code": "380002",
        "stop_id": "380002",
        "name": "ΙΑΣΟΝΟΣ",
        "order": "16"
      },
      "geometry": {
        "type": "Point",
        "coordinates": [
          23.700599,
          37.9399224
        ]
      }
    },
    {
      "type": "Feature",
      "properties": {
        "type": "stop",
        "stop_code": "380003",
        "stop_id": "380003",
        "name": "ΗΧΟΥΣ",
        "order": "17"
      },
      "geometry": {
        "type": "Point",
        "coordinates": [
          23.7008125,
          37.9372926
        ]
      }
    },
    {
      "type": "Feature",
      "properties": {
        "type": "stop",
        "stop_code": "380004",
        "stop_id": "380004",
        "name": "ΠΑΛΑΙΟΛΟΓΟΥ",
        "order": "18"
      },
      "geometry": {
        "type": "Point",
        "coordinates": [
          23.7013285,
          37.9340208
        ]
      }
    },
    {
      "type": "Feature",
      "properties": {
        "type": "stop",
        "stop_code": "380005",
        "stop_id": "380005",
        "name": "ΚΑΛΥΨΟΥΣ",
        "order": "19"
      },
      "geometry": {
        "type": "Point",
        "coordinates": [
          23.7019776,
          37.9310932
        ]
      }
    },
    {
      "type": "Feature",
      "properties": {
        "type": "stop",
        "stop_code": "380006",
        "stop_id": "380006",
        "name": "ΑΜΦΙΘΕΑΣ",
        "order": "20"
      },
      "geometry": {
        "type": "Point",
        "coordinates": [
          23.7027355,
          37.9293737
        ]
      }
    },
    {
      "type": "Feature",
      "properties": {
        "type": "stop",
        "stop_code": "380007",
        "stop_id": "380007",
        "name": "ΑΧΙΛΛΕΩΣ",
        "order": "21"
      },
      "geometry": {
        "type": "Point",
        "coordinates": [
          23.7038041,
          37.9267986
        ]
      }
    },
    {
      "type": "Feature",
      "properties": {
        "type": "stop",
        "stop_code": "380008",
        "stop_id": "380008",
        "name": "ΝΑΙΑΔΩΝ",
        "order": "22"
      },
      "geometry": {
        "type": "Point",
        "coordinates": [
          23.7046543,
          37.9247368
        ]
      }
    },
    {
      "type": "Feature",
      "properties": {
        "type": "stop",
        "stop_code": "380093",
        "stop_id": "380093",
        "name": "1η ΑΓ. ΒΑΡΒΑΡΑΣ",
        "order": "23"
      },
      "geometry": {
        "type": "Point",
        "coordinates": [
          23.7079417,
          37.9220862
        ]
      }
    },
    {
      "type": "Feature",
      "properties": {
        "type": "stop",
        "stop_code": "380094",
        "stop_id": "380094",
        "name": "2η ΑΓ. ΒΑΡΒΑΡΑΣ",
        "order": "24"
      },
      "geometry": {
        "type": "Point",
        "coordinates": [
          23.7102969,
          37.922083
        ]
      }
    },
    {
      "type": "Feature",
      "properties": {
        "type": "stop",
        "stop_code": "380095",
        "stop_id": "380095",
        "name": "ΠΛ. ΦΙΛΙΚΗΣ ΕΤΑΙΡΕΙΑΣ",
        "order": "25"
      },
      "geometry": {
        "type": "Point",
        "coordinates": [
          23.7135303,
          37.9215411
        ]
      }
    },
    {
      "type": "Feature",
      "properties": {
        "type": "stop",
        "stop_code": "380096",
        "stop_id": "380096",
        "name": "3η ΑΓ. ΒΑΡΒΑΡΑΣ",
        "order": "26"
      },
      "geometry": {
        "type": "Point",
        "coordinates": [
          23.7153152,
          37.921897
        ]
      }
    },
    {
      "type": "Feature",
      "properties": {
        "type": "stop",
        "stop_code": "380097",
        "stop_id": "380097",
        "name": "4η ΑΓ. ΒΑΡΒΑΡΑΣ",
        "order": "27"
      },
      "geometry": {
        "type": "Point",
        "coordinates": [
          23.7175659,
          37.9224522
        ]
      }
    },
    {
      "type": "Feature",
      "properties": {
        "type": "stop",
        "stop_code": "40081",
        "stop_id": "040081",
        "name": "5η ΑΓ. ΒΑΡΒΑΡΑΣ",
        "order": "28"
      },
      "geometry": {
        "type": "Point",
        "coordinates": [
          23.7194177,
          37.9231867
        ]
      }
    },
    {
      "type": "Feature",
      "properties": {
        "type": "stop",
        "stop_code": "40082",
        "stop_id": "040082",
        "name": "6η ΑΓ. ΒΑΡΒΑΡΑΣ",
        "order": "29"
      },
      "geometry": {
        "type": "Point",
        "coordinates": [
          23.7217569,
          37.924409
        ]
      }
    },
    {
      "type": "Feature",
      "properties": {
        "type": "stop",
        "stop_code": "40083",
        "stop_id": "040083",
        "name": "7η ΑΓ. ΒΑΡΒΑΡΑΣ",
        "order": "30"
      },
      "geometry": {
        "type": "Point",
        "coordinates": [
          23.7235052,
          37.9254766
        ]
      }
    },
    {
      "type": "Feature",
      "properties": {
        "type": "stop",
        "stop_code": "40028",
        "stop_id": "040028",
        "name": "ΣΤΡΟΦΗ ΑΓ. ΒΑΡΒΑΡΑΣ",
        "order": "31"
      },
      "geometry": {
        "type": "Point",
        "coordinates": [
          23.7261483,
          37.9276279
        ]
      }
    },
    {
      "type": "Feature",
      "properties": {
        "type": "stop",
        "stop_code": "40029",
        "stop_id": "040029",
        "name": "ΓΕΦΥΡΑ",
        "order": "32"
      },
      "geometry": {
        "type": "Point",
        "coordinates": [
          23.7266988,
          37.9295309
        ]
      }
    },
    {
      "type": "Feature",
      "properties": {
        "type": "stop",
        "stop_code": "40030",
        "stop_id": "040030",
        "name": "ΣΑΡΩΝΙΚΟΣ",
        "order": "33"
      },
      "geometry": {
        "type": "Point",
        "coordinates": [
          23.7274435,
          37.9312541
        ]
      }
    },
    {
      "type": "Feature",
      "properties": {
        "type": "stop",
        "stop_code": "40031",
        "stop_id": "040031",
        "name": "ΓΕΦΥΡΑΚΙ",
        "order": "34"
      },
      "geometry": {
        "type": "Point",
        "coordinates": [
          23.7285621,
          37.9334198
        ]
      }
    },
    {
      "type": "Feature",
      "properties": {
        "type": "stop",
        "stop_code": "40032",
        "stop_id": "040032",
        "name": "ΠΛ. ΕΛ. ΒΕΝΙΖΕΛΟΥ",
        "order": "35"
      },
      "geometry": {
        "type": "Point",
        "coordinates": [
          23.7297924,
          37.9361445
        ]
      }
    },
    {
      "type": "Feature",
      "properties": {
        "type": "stop",
        "stop_code": "40035",
        "stop_id": "040035",
        "name": "ΑΠ.ΠΑΥΛΟΥ",
        "order": "36"
      },
      "geometry": {
        "type": "Point",
        "coordinates": [
          23.7304703,
          37.937489
        ]
      }
    },
    {
      "type": "Feature",
      "properties": {
        "type": "stop",
        "stop_code": "40036",
        "stop_id": "040036",
        "name": "ΑΓ.  ΔΗΜΗΤΡΙΟΣ",
        "order": "37"
      },
      "geometry": {
        "type": "Point",
        "coordinates": [
          23.7313849,
          37.9394829
        ]
      }
    },
    {
      "type": "Feature",
      "properties": {
        "type": "stop",
        "stop_code": "40037",
        "stop_id": "040037",
        "name": "ΠΛ. ΑΣΤΥΝΟΜΙΑΣ",
        "order": "38"
      },
      "geometry": {
        "type": "Point",
        "coordinates": [
          23.7314828,
          37.9407179
        ]
      }
    },
    {
      "type": "Feature",
      "properties": {
        "type": "stop",
        "stop_code": "40038",
        "stop_id": "040038",
        "name": "ΣΧΟΛΕΙΟ",
        "order": "39"
      },
      "geometry": {
        "type": "Point",
        "coordinates": [
          23.7327287,
          37.9423611
        ]
      }
    },
    {
      "type": "Feature",
      "properties": {
        "type": "stop",
        "stop_code": "41106",
        "stop_id": "041106",
        "name": "ΛΥΣΑΝΔΡΟΥ",
        "order": "40"
      },
      "geometry": {
        "type": "Point",
        "coordinates": [
          23.7338948,
          37.9440672
        ]
      }
    },
    {
      "type": "Feature",
      "properties": {
        "type": "stop",
        "stop_code": "40039",
        "stop_id": "040039",
        "name": "ΑΣΤΕΡΑΣ",
        "order": "41"
      },
      "geometry": {
        "type": "Point",
        "coordinates": [
          23.7349482,
          37.9454576
        ]
      }
    },
    {
      "type": "Feature",
      "properties": {
        "type": "stop",
        "stop_code": "40040",
        "stop_id": "040040",
        "name": "ΑΝΤΙΟΠΗΣ",
        "order": "42"
      },
      "geometry": {
        "type": "Point",
        "coordinates": [
          23.7359679,
          37.9467667
        ]
      }
    },
    {
      "type": "Feature",
      "properties": {
        "type": "stop",
        "stop_code": "10324",
        "stop_id": "000120",
        "name": "ΑΓ. ΔΗΜΗΤΡΙΟΣ (ΣΤ.  ΔΑΦΝΗ)",
        "order": "43"
      },
      "geometry": {
        "type": "Point",
        "coordinates": [
          23.7368385,
          37.9489735
        ]
      }
    }
  ]
}