{
  "type": "FeatureCollection",
  "features": [
    {
      "type": "Feature",
      "properties": {
        "type": "route_path",
        "route_code": "5502",
        "descr": "ΑΓ. ΑΝΑΡΓΥΡΟΙ - ΠΕΙΡΑΙΑΣ [ΜΕΣΩ ΚΗΦΙΣΟΥ] "
      },
      "geometry": {
        "type": "LineString",
        "coordinates": [
          [
            23.71778,
            38.03735
          ],
          [
            23.71784,
            38.03617
          ],
          [
            23.71778,
            38.03535
          ],
          [
            23.71788,
            38.03285
          ],
          [
            23.71803,
            38.03276
          ],
          [
            23.71995,
            38.03252
          ],
          [
            23.72084,
            38.0323
          ],
          [
            23.72119,
            38.03217
          ],
          [
            23.72136,
            38.03193
          ],
          [
            23.72059,
            38.03057
          ],
          [
            23.71917,
            38.02862
          ],
          [
            23.71885,
            38.02809
          ],
          [
            23.7184,
            38.02762
          ],
          [
            23.71761,
            38.02755
          ],
          [
            23.71775,
            38.0263
          ],
          [
            23.71799,
            38.01666
          ],
          [
            23.71808,
            38.0159
          ],
          [
            23.71829,
            38.01521
          ],
          [
            23.71823,
            38.01448
          ],
          [
            23.7173,
            38.01022
          ],
          [
            23.71659,
            38.00965
          ],
          [
            23.71509,
            38.0088
          ],
          [
            23.71433,
            38.00827
          ],
          [
            23.71205,
            38.00616
          ],
          [
            23.71062,
            38.00536
          ],
          [
            23.70888,
            38.00465
          ],
          [
            23.70525,
            38.00187
          ],
          [
            23.70441,
            38.00145
          ],
          [
            23.70268,
            38.00088
          ],
          [
            23.69879,
            37.99923
          ],
          [
            23.69571,
            37.99773
          ],
          [
            23.69436,
            37.99665
          ],
          [
            23.68583,
            37.98895
          ],
          [
            23.68416,
            37.98684
          ],
          [
            23.67978,
            37.98064
          ],
          [
            23.67537,
            37.97463
          ],
          [
            23.67472,
            37.97329
          ],
          [
            23.67456,
            37.97253
          ],
          [
            23.67461,
            37.97174
          ],
          [
            23.67477,
            37.971
          ],
          [
            23.67517,
            37.97028
          ],
          [
            23.67575,
            37.96944
          ],
          [
            23.67568,
            37.9693
          ],
          [
            23.67491,
            37.96885
          ],
          [
            23.67422,
            37.9683
          ],
          [
            23.67396,
            37.96814
          ],
          [
            23.67406,
            37.96805
          ],
          [
            23.67478,
            37.96827
          ],
          [
            23.67495,
            37.96839
          ],
          [
            23.67496,
            37.96849
          ],
          [
            23.67493,
            37.96872
          ],
          [
            23.67506,
            37.96889
          ],
          [
            23.67558,
            37.96914
          ],
          [
            23.67598,
            37.96911
          ],
          [
            23.67621,
            37.96895
          ],
          [
            23.6777,
            37.96692
          ],
          [
            23.67795,
            37.96611
          ],
          [
            23.67771,
            37.96519
          ],
          [
            23.67328,
            37.9547
          ],
          [
            23.65488,
            37.94863
          ],
          [
            23.65407,
            37.94862
          ],
          [
            23.65229,
            37.94891
          ],
          [
            23.65056,
            37.94954
          ],
          [
            23.64929,
            37.94987
          ],
          [
            23.64859,
            37.94949
          ],
          [
            23.64827,
            37.94946
          ],
          [
            23.64796,
            37.94945
          ],
          [
            23.64718,
            37.94932
          ],
          [
            23.64715,
            37.94886
          ],
          [
            23.64706,
            37.94878
          ],
          [
            23.64692,
            37.94861
          ],
          [
            23.64694,
            37.9485
          ],
          [
            23.64712,
            37.94797
          ],
          [
            23.6469,
            37.94769
          ],
          [
            23.6426,
            37.94558
          ],
          [
            23.64237,
            37.9456
          ],
          [
            23.64234,
            37.94576
          ],
          [
            23.64235,
            37.94663
          ],
          [
            23.64233,
            37.94714
          ],
          [
            23.64234,
            37.9478
          ],
          [
            23.64236,
            37.94884
          ],
          [
            23.64216,
            37.94915
          ],
          [
            23.64173,
            37.94938
          ],
          [
            23.63897,
            37.94944
          ],
          [
            23.63649,
            37.94938
          ],
          [
            23.63603,
            37.94909
          ],
          [
            23.63586,
            37.94868
          ],
          [
            23.63588,
            37.94822
          ],
          [
            23.63594,
            37.9476
          ],
          [
            23.63599,
            37.94729
          ],
          [
            23.63603,
            37.94677
          ],
          [
            23.63582,
            37.94619
          ],
          [
            23.63535,
            37.94571
          ],
          [
            23.63472,
            37.94534
          ],
          [
            23.63362,
            37.94484
          ],
          [
            23.63372,
            37.94452
          ],
          [
            23.63351,
            37.94436
          ],
          [
            23.63307,
            37.94472
          ],
          [
            23.6328,
            37.94482
          ],
          [
            23.63208,
            37.94484
          ],
          [
            23.63071,
            37.94467
          ],
          [
            23.62933,
            37.94448
          ],
          [
            23.62813,
            37.94402
          ],
          [
            23.62656,
            37.94326
          ],
          [
            23.62574,
            37.94292
          ],
          [
            23.62521,
            37.94338
          ],
          [
            23.62457,
            37.94345
          ]
        ]
      }
    },
    {
      "type": "Feature",
      "properties": {
        "type": "stop",
        "stop_code": "10575",
        "stop_id": "000224",
        "name": "ΑΓ. ΑΝΑΡΓΥΡΟΙ",
        "order": "1"
      },
      "geometry": {
        "type": "Point",
        "coordinates": [
          23.7183855,
          38.0358105
        ]
      }
    },
    {
      "type": "Feature",
      "properties": {
        "type": "stop",
        "stop_code": "360133",
        "stop_id": "360133",
        "name": "ΣΙΔΕΡΑ",
        "order": "2"
      },
      "geometry": {
        "type": "Point",
        "coordinates": [
          23.717822,
          38.0329432
        ]
      }
    },
    {
      "type": "Feature",
      "properties": {
        "type": "stop",
        "stop_code": "50054",
        "stop_id": "050054",
        "name": "ΓΕΦΥΡΑΚΙ",
        "order": "3"
      },
      "geometry": {
        "type": "Point",
        "coordinates": [
          23.7206482,
          38.0309023
        ]
      }
    },
    {
      "type": "Feature",
      "properties": {
        "type": "stop",
        "stop_code": "50039",
        "stop_id": "050039",
        "name": "ΕΜΠΟΡΙΚΟ ΚΕΝΤΡΟ",
        "order": "4"
      },
      "geometry": {
        "type": "Point",
        "coordinates": [
          23.7192091,
          38.0287989
        ]
      }
    },
    {
      "type": "Feature",
      "properties": {
        "type": "stop",
        "stop_code": "50006",
        "stop_id": "050006",
        "name": "ΑΓ.  ΑΝΑΡΓΥΡΩΝ",
        "order": "5"
      },
      "geometry": {
        "type": "Point",
        "coordinates": [
          23.7176915,
          38.0263889
        ]
      }
    },
    {
      "type": "Feature",
      "properties": {
        "type": "stop",
        "stop_code": "50007",
        "stop_id": "050007",
        "name": "301 ΕΡΓ.ΒΑΣΕΩΣ",
        "order": "6"
      },
      "geometry": {
        "type": "Point",
        "coordinates": [
          23.7177111,
          38.0242439
        ]
      }
    },
    {
      "type": "Feature",
      "properties": {
        "type": "stop",
        "stop_code": "50009",
        "stop_id": "050009",
        "name": "ΜΥΚΟΝΙΑΤΙΚΑ",
        "order": "7"
      },
      "geometry": {
        "type": "Point",
        "coordinates": [
          23.7177142,
          38.0204675
        ]
      }
    },
    {
      "type": "Feature",
      "properties": {
        "type": "stop",
        "stop_code": "50010",
        "stop_id": "050010",
        "name": "ΤΡΕΙΣ ΓΕΦΥΡΕΣ",
        "order": "8"
      },
      "geometry": {
        "type": "Point",
        "coordinates": [
          23.7180644,
          38.015295
        ]
      }
    },
    {
      "type": "Feature",
      "properties": {
        "type": "stop",
        "stop_code": "50058",
        "stop_id": "050058",
        "name": "ΑΓ. ΠΑΝΤΕΛΕΗΜΟΝΑΣ",
        "order": "9"
      },
      "geometry": {
        "type": "Point",
        "coordinates": [
          23.7181358,
          38.0145111
        ]
      }
    },
    {
      "type": "Feature",
      "properties": {
        "type": "stop",
        "stop_code": "420130",
        "stop_id": "420130",
        "name": "ΒΙΟΦΑΡΜ",
        "order": "10"
      },
      "geometry": {
        "type": "Point",
        "coordinates": [
          23.7175785,
          38.0113012
        ]
      }
    },
    {
      "type": "Feature",
      "properties": {
        "type": "stop",
        "stop_code": "420131",
        "stop_id": "420131",
        "name": "ΡΟΣΙΝΙΟΛ",
        "order": "11"
      },
      "geometry": {
        "type": "Point",
        "coordinates": [
          23.714197,
          38.0083074
        ]
      }
    },
    {
      "type": "Feature",
      "properties": {
        "type": "stop",
        "stop_code": "420135",
        "stop_id": "420135",
        "name": "ΟΠΑΠ",
        "order": "12"
      },
      "geometry": {
        "type": "Point",
        "coordinates": [
          23.7111299,
          38.0057426
        ]
      }
    },
    {
      "type": "Feature",
      "properties": {
        "type": "stop",
        "stop_code": "420136",
        "stop_id": "420136",
        "name": "ΣΚΛΑΒΕΝΙΤΗ",
        "order": "13"
      },
      "geometry": {
        "type": "Point",
        "coordinates": [
          23.7080152,
          38.0041577
        ]
      }
    },
    {
      "type": "Feature",
      "properties": {
        "type": "stop",
        "stop_code": "420149",
        "stop_id": "420149",
        "name": "ΚΟΛΟΚΥΝΘΟΥΣ",
        "order": "14"
      },
      "geometry": {
        "type": "Point",
        "coordinates": [
          23.7061381,
          38.0025315
        ]
      }
    },
    {
      "type": "Feature",
      "properties": {
        "type": "stop",
        "stop_code": "420168",
        "stop_id": "420168",
        "name": "ΓΙΩΤΗΣ",
        "order": "15"
      },
      "geometry": {
        "type": "Point",
        "coordinates": [
          23.7026174,
          38.0010167
        ]
      }
    },
    {
      "type": "Feature",
      "properties": {
        "type": "stop",
        "stop_code": "420164",
        "stop_id": "420164",
        "name": "ΣΤ. ΥΠΕΡΑΣΤΙΚΩΝ",
        "order": "16"
      },
      "geometry": {
        "type": "Point",
        "coordinates": [
          23.6987061,
          37.9993394
        ]
      }
    },
    {
      "type": "Feature",
      "properties": {
        "type": "stop",
        "stop_code": "420165",
        "stop_id": "420165",
        "name": "ΓΕΦ. ΛΕΩΦ. ΚΑΒΑΛΑΣ",
        "order": "17"
      },
      "geometry": {
        "type": "Point",
        "coordinates": [
          23.6951943,
          37.9975098
        ]
      }
    },
    {
      "type": "Feature",
      "properties": {
        "type": "stop",
        "stop_code": "70024",
        "stop_id": "070024",
        "name": "ΠΑΛ. ΚΑΒΑΛΑΣ",
        "order": "18"
      },
      "geometry": {
        "type": "Point",
        "coordinates": [
          23.6922779,
          37.9949606
        ]
      }
    },
    {
      "type": "Feature",
      "properties": {
        "type": "stop",
        "stop_code": "70025",
        "stop_id": "070025",
        "name": "ΤΡΟΧΑΙΑ",
        "order": "19"
      },
      "geometry": {
        "type": "Point",
        "coordinates": [
          23.6911434,
          37.9939031
        ]
      }
    },
    {
      "type": "Feature",
      "properties": {
        "type": "stop",
        "stop_code": "70026",
        "stop_id": "070026",
        "name": "ΓΕΦΥΡΑ ΙΕΡΑΣ ΟΔΟΥ",
        "order": "20"
      },
      "geometry": {
        "type": "Point",
        "coordinates": [
          23.6878303,
          37.9909652
        ]
      }
    },
    {
      "type": "Feature",
      "properties": {
        "type": "stop",
        "stop_code": "70027",
        "stop_id": "070027",
        "name": "ΑΓ. ΓΕΩΡΓΙΟΣ - ΚΗΦΙΣΟΣ",
        "order": "21"
      },
      "geometry": {
        "type": "Point",
        "coordinates": [
          23.6864914,
          37.9897989
        ]
      }
    },
    {
      "type": "Feature",
      "properties": {
        "type": "stop",
        "stop_code": "70029",
        "stop_id": "070029",
        "name": "ΓΕΦΥΡΑΚΙ",
        "order": "22"
      },
      "geometry": {
        "type": "Point",
        "coordinates": [
          23.6823917,
          37.9845064
        ]
      }
    },
    {
      "type": "Feature",
      "properties": {
        "type": "stop",
        "stop_code": "70127",
        "stop_id": "070127",
        "name": "ΙΚΕΑ",
        "order": "23"
      },
      "geometry": {
        "type": "Point",
        "coordinates": [
          23.6801502,
          37.981463
        ]
      }
    },
    {
      "type": "Feature",
      "properties": {
        "type": "stop",
        "stop_code": "70030",
        "stop_id": "070030",
        "name": "ΑΜΣΤΕΛ",
        "order": "24"
      },
      "geometry": {
        "type": "Point",
        "coordinates": [
          23.6782607,
          37.9786909
        ]
      }
    },
    {
      "type": "Feature",
      "properties": {
        "type": "stop",
        "stop_code": "20008",
        "stop_id": "020008",
        "name": "ΓΕΦΥΡΑ ΠΕΤΡΟΥ ΡΑΛΛΗ",
        "order": "25"
      },
      "geometry": {
        "type": "Point",
        "coordinates": [
          23.6758716,
          37.975647
        ]
      }
    },
    {
      "type": "Feature",
      "properties": {
        "type": "stop",
        "stop_code": "20006",
        "stop_id": "020006",
        "name": "ΜΕΡΚΟΥΡΗ",
        "order": "26"
      },
      "geometry": {
        "type": "Point",
        "coordinates": [
          23.6749957,
          37.970291
        ]
      }
    },
    {
      "type": "Feature",
      "properties": {
        "type": "stop",
        "stop_code": "20073",
        "stop_id": "020073",
        "name": "ΟΣΕ",
        "order": "27"
      },
      "geometry": {
        "type": "Point",
        "coordinates": [
          23.6772426,
          37.9641684
        ]
      }
    },
    {
      "type": "Feature",
      "properties": {
        "type": "stop",
        "stop_code": "20044",
        "stop_id": "020044",
        "name": "ΛΑΧΑΝΑΓΟΡΑ",
        "order": "28"
      },
      "geometry": {
        "type": "Point",
        "coordinates": [
          23.6761726,
          37.9615607
        ]
      }
    },
    {
      "type": "Feature",
      "properties": {
        "type": "stop",
        "stop_code": "20074",
        "stop_id": "020074",
        "name": "ΚΟΤΖΙΑ",
        "order": "29"
      },
      "geometry": {
        "type": "Point",
        "coordinates": [
          23.6747065,
          37.9584202
        ]
      }
    },
    {
      "type": "Feature",
      "properties": {
        "type": "stop",
        "stop_code": "20075",
        "stop_id": "020075",
        "name": "ΔΗΜΗΤΡΑΤΟΥ",
        "order": "30"
      },
      "geometry": {
        "type": "Point",
        "coordinates": [
          23.6741667,
          37.9569226
        ]
      }
    },
    {
      "type": "Feature",
      "properties": {
        "type": "stop",
        "stop_code": "20045",
        "stop_id": "020045",
        "name": "ΓΕΦΥΡΑ",
        "order": "31"
      },
      "geometry": {
        "type": "Point",
        "coordinates": [
          23.6731179,
          37.9547115
        ]
      }
    },
    {
      "type": "Feature",
      "properties": {
        "type": "stop",
        "stop_code": "20046",
        "stop_id": "020046",
        "name": "ΙΟΝ",
        "order": "32"
      },
      "geometry": {
        "type": "Point",
        "coordinates": [
          23.6698102,
          37.9536568
        ]
      }
    },
    {
      "type": "Feature",
      "properties": {
        "type": "stop",
        "stop_code": "400107",
        "stop_id": "400107",
        "name": "ΑΠΟΛΛΩΝ",
        "order": "33"
      },
      "geometry": {
        "type": "Point",
        "coordinates": [
          23.6672756,
          37.9528295
        ]
      }
    },
    {
      "type": "Feature",
      "properties": {
        "type": "stop",
        "stop_code": "400108",
        "stop_id": "400108",
        "name": "ΕΛΑΙΣ",
        "order": "34"
      },
      "geometry": {
        "type": "Point",
        "coordinates": [
          23.6641046,
          37.951793
        ]
      }
    },
    {
      "type": "Feature",
      "properties": {
        "type": "stop",
        "stop_code": "400109",
        "stop_id": "400109",
        "name": "ΧΡΩΠΕΙ",
        "order": "35"
      },
      "geometry": {
        "type": "Point",
        "coordinates": [
          23.6608432,
          37.950648
        ]
      }
    },
    {
      "type": "Feature",
      "properties": {
        "type": "stop",
        "stop_code": "400048",
        "stop_id": "400048",
        "name": "ΣΤΑΤΙΣΤΙΚΗ ΥΠΗΡΕΣΙΑ",
        "order": "36"
      },
      "geometry": {
        "type": "Point",
        "coordinates": [
          23.6583537,
          37.9499558
        ]
      }
    },
    {
      "type": "Feature",
      "properties": {
        "type": "stop",
        "stop_code": "400434",
        "stop_id": "400434",
        "name": "ΓΕΦΥΡΑ",
        "order": "37"
      },
      "geometry": {
        "type": "Point",
        "coordinates": [
          23.6556836,
          37.9489476
        ]
      }
    },
    {
      "type": "Feature",
      "properties": {
        "type": "stop",
        "stop_code": "400285",
        "stop_id": "400285",
        "name": "ΚΕΡΑΝΗ",
        "order": "38"
      },
      "geometry": {
        "type": "Point",
        "coordinates": [
          23.651813,
          37.9491165
        ]
      }
    },
    {
      "type": "Feature",
      "properties": {
        "type": "stop",
        "stop_code": "400260",
        "stop_id": "400260",
        "name": "ΡΕΤΣΙΝΑ",
        "order": "39"
      },
      "geometry": {
        "type": "Point",
        "coordinates": [
          23.6487827,
          37.9496933
        ]
      }
    },
    {
      "type": "Feature",
      "properties": {
        "type": "stop",
        "stop_code": "400452",
        "stop_id": "400452",
        "name": "ΓΟΥΝΑΡΗ",
        "order": "40"
      },
      "geometry": {
        "type": "Point",
        "coordinates": [
          23.6452784,
          37.947033
        ]
      }
    },
    {
      "type": "Feature",
      "properties": {
        "type": "stop",
        "stop_code": "400130",
        "stop_id": "400130",
        "name": "ΣΤ.ΜΕΤΡΟ ΠΕΙΡΑΙΑΣ",
        "order": "41"
      },
      "geometry": {
        "type": "Point",
        "coordinates": [
          23.6424299,
          37.9481133
        ]
      }
    },
    {
      "type": "Feature",
      "properties": {
        "type": "stop",
        "stop_code": "400149",
        "stop_id": "400149",
        "name": "ΑΙΤΩΛΙΚΟΥ",
        "order": "42"
      },
      "geometry": {
        "type": "Point",
        "coordinates": [
          23.6392111,
          37.9495472
        ]
      }
    },
    {
      "type": "Feature",
      "properties": {
        "type": "stop",
        "stop_code": "400281",
        "stop_id": "400281",
        "name": "ΟΣΕ",
        "order": "43"
      },
      "geometry": {
        "type": "Point",
        "coordinates": [
          23.635803,
          37.9482298
        ]
      }
    },
    {
      "type": "Feature",
      "properties": {
        "type": "stop",
        "stop_code": "400474",
        "stop_id": "400474",
        "name": "ΔΕΞΑΜΕΝΕΣ",
        "order": "44"
      },
      "geometry": {
        "type": "Point",
        "coordinates": [
          23.6354053,
          37.9458041
        ]
      }
    },
    {
      "type": "Feature",
      "properties": {
        "type": "stop",
        "stop_code": "400086",
        "stop_id": "400086",
        "name": "ΥΕΝ",
        "order": "45"
      },
      "geometry": {
        "type": "Point",
        "coordinates": [
          23.6259206,
          37.9431099
        ]
      }
    },
    {
      "type": "Feature",
      "properties": {
        "type": "stop",
        "stop_code": "10277",
        "stop_id": "76",
        "name": "ΠΕΙΡΑΙΑΣ ΔΡΑΠΕΤΣΩΝΑ Χ96",
        "order": "46"
      },
      "geometry": {
        "type": "Point",
        "coordinates": [
          23.6234895,
          37.9426595
        ]
      }
    }
  ]
}